{"league": "MLB", "team": "Baltimore Orioles", "stadium": "Oriole Park at Camden Yards", "stadium latitude": 39.283889, "stadium longitude": -76.621667, "radius": "3000 meters", "city": "Baltimore", "state": "Maryland", "businesses": [{"id": "CQ79htRPD6yxi0Zg4sYTNw", "alias": "the-capital-grille-baltimore-3", "name": "The Capital Grille", "image_url": "https://s3-media4.fl.yelpcdn.com/bphoto/y9_wmueXCPndq6tReNKsrA/o.jpg", "is_closed": false, "url": "https://www.yelp.com/biz/the-capital-grille-baltimore-3?adjust_creative=a2JdNtFqB-C38ga_06BHvw&utm_campaign=yelp_api_v3&utm_medium=api_v3_business_search&utm_source=a2JdNtFqB-C38ga_06BHvw", "review_count": 552, "categories": [{"alias": "steak", "title": "Steakhouses"}, {"alias": "seafood", "title": "Seafood"}, {"alias": "wine_bars", "title": "Wine Bars"}], "rating": 4.5, "coordinates": {"latitude": 39.28712, "longitude": -76.60821}, "transactions": ["delivery", "pickup"], "price": "$$$", "location": {"address1": "500 E Pratt St", "address2": null, "address3": "", "city": "Baltimore", "zip_code": "21202", "country": "US", "state": "MD", "display_address": ["500 E Pratt St", "Baltimore, MD 21202"]}, "phone": "+14437034064", "display_phone": "(443) 703-4064", "distance": 1202.059509992448}, {"id": "Wg0X79U295H69BC3Fnqd-w", "alias": "the-corner-bistro-and-wine-bar-baltimore", "name": "The Corner Bistro and Wine Bar", "image_url": "https://s3-media1.fl.yelpcdn.com/bphoto/sIrZQT5jDNZ0pxaKp3Yc9Q/o.jpg", "is_closed": false, "url": "https://www.yelp.com/biz/the-corner-bistro-and-wine-bar-baltimore?adjust_creative=a2JdNtFqB-C38ga_06BHvw&utm_campaign=yelp_api_v3&utm_medium=api_v3_business_search&utm_source=a2JdNtFqB-C38ga_06BHvw", "review_count": 236, "categories": [{"alias": "newamerican", "title": "American (New)"}, {"alias": "wine_bars", "title": "Wine Bars"}], "rating": 4.5, "coordinates": {"latitude": 39.285576, "longitude": -76.625679}, "transactions": ["delivery", "pickup"], "price": "$$", "location": {"address1": "213 Penn St", "address2": "", "address3": "", "city": "Baltimore", "zip_code": "21230", "country": "US", "state": "MD", "display_address": ["213 Penn St", "Baltimore, MD 21230"]}, "phone": "+14107271155", "display_phone": "(410) 727-1155", "distance": 402.2677174683611}, {"id": "dXmOO6L_wVccLc4AQGUJQQ", "alias": "limoncello-italian-restaurant-and-wine-bar-baltimore", "name": "Limoncello Italian Restaurant & Wine Bar", "image_url": "https://s3-media1.fl.yelpcdn.com/bphoto/ATfg5UW1DW-FHMAYFWl22Q/o.jpg", "is_closed": false, "url": "https://www.yelp.com/biz/limoncello-italian-restaurant-and-wine-bar-baltimore?adjust_creative=a2JdNtFqB-C38ga_06BHvw&utm_campaign=yelp_api_v3&utm_medium=api_v3_business_search&utm_source=a2JdNtFqB-C38ga_06BHvw", "review_count": 131, "categories": [{"alias": "italian", "title": "Italian"}, {"alias": "wine_bars", "title": "Wine Bars"}], "rating": 4.5, "coordinates": {"latitude": 39.271812, "longitude": -76.600319}, "transactions": ["delivery", "pickup"], "location": {"address1": "900 E Fort Ave", "address2": null, "address3": "Anthem House", "city": "Baltimore", "zip_code": "21230", "country": "US", "state": "MD", "display_address": ["900 E Fort Ave", "Anthem House", "Baltimore, MD 21230"]}, "phone": "+14437081540", "display_phone": "(443) 708-1540", "distance": 2279.8065775148443}, {"id": "dHgQQJHne3BhEMmXXVVq1Q", "alias": "the-tilted-row-baltimore", "name": "The Tilted Row", "image_url": "https://s3-media1.fl.yelpcdn.com/bphoto/nMR7I0NDljfG59jb4IG13Q/o.jpg", "is_closed": false, "url": "https://www.yelp.com/biz/the-tilted-row-baltimore?adjust_creative=a2JdNtFqB-C38ga_06BHvw&utm_campaign=yelp_api_v3&utm_medium=api_v3_business_search&utm_source=a2JdNtFqB-C38ga_06BHvw", "review_count": 69, "categories": [{"alias": "newamerican", "title": "American (New)"}, {"alias": "cocktailbars", "title": "Cocktail Bars"}, {"alias": "breakfast_brunch", "title": "Breakfast & Brunch"}], "rating": 4.5, "coordinates": {"latitude": 39.3062583, "longitude": -76.6286525}, "transactions": ["delivery"], "price": "$$", "location": {"address1": "305 McMechen St", "address2": "", "address3": null, "city": "Baltimore", "zip_code": "21217", "country": "US", "state": "MD", "display_address": ["305 McMechen St", "Baltimore, MD 21217"]}, "phone": "+14435521594", "display_phone": "(443) 552-1594", "distance": 2560.9972710241445}, {"id": "jp6Jal0HgUizYs1xJXpfag", "alias": "alma-cocina-latina-baltimore", "name": "Alma Cocina Latina", "image_url": "https://s3-media3.fl.yelpcdn.com/bphoto/4XoKQCiUaeZOlhK41jp8bg/o.jpg", "is_closed": false, "url": "https://www.yelp.com/biz/alma-cocina-latina-baltimore?adjust_creative=a2JdNtFqB-C38ga_06BHvw&utm_campaign=yelp_api_v3&utm_medium=api_v3_business_search&utm_source=a2JdNtFqB-C38ga_06BHvw", "review_count": 332, "categories": [{"alias": "venezuelan", "title": "Venezuelan"}, {"alias": "cocktailbars", "title": "Cocktail Bars"}], "rating": 4.0, "coordinates": {"latitude": 39.3089608022934, "longitude": -76.6161578}, "transactions": ["delivery"], "price": "$$", "location": {"address1": "1701 N Charles St", "address2": "", "address3": "", "city": "Baltimore", "zip_code": "21201", "country": "US", "state": "MD", "display_address": ["1701 N Charles St", "Baltimore, MD 21201"]}, "phone": "+16672124273", "display_phone": "(667) 212-4273", "distance": 2827.8750227141054}, {"id": "BJsFm_NsYhVbtjwI-OLPQg", "alias": "la-scala-baltimore", "name": "La Scala", "image_url": "https://s3-media1.fl.yelpcdn.com/bphoto/X-FIsV4b8Rd9yF-KCYtK6A/o.jpg", "is_closed": false, "url": "https://www.yelp.com/biz/la-scala-baltimore?adjust_creative=a2JdNtFqB-C38ga_06BHvw&utm_campaign=yelp_api_v3&utm_medium=api_v3_business_search&utm_source=a2JdNtFqB-C38ga_06BHvw", "review_count": 478, "categories": [{"alias": "italian", "title": "Italian"}, {"alias": "salad", "title": "Salad"}, {"alias": "wine_bars", "title": "Wine Bars"}], "rating": 4.0, "coordinates": {"latitude": 39.28553, "longitude": -76.59989}, "transactions": ["delivery"], "price": "$$$", "location": {"address1": "1012 Eastern Ave", "address2": "", "address3": "", "city": "Baltimore", "zip_code": "21202", "country": "US", "state": "MD", "display_address": ["1012 Eastern Ave", "Baltimore, MD 21202"]}, "phone": "+14107839209", "display_phone": "(410) 783-9209", "distance": 1884.7142328853554}, {"id": "yITYeW3JZS557DIXj9Ivhg", "alias": "mick-o-sheas-baltimore", "name": "Mick O'Shea's", "image_url": "https://s3-media1.fl.yelpcdn.com/bphoto/zPk7LsERGz8moGdq6G7k2Q/o.jpg", "is_closed": false, "url": "https://www.yelp.com/biz/mick-o-sheas-baltimore?adjust_creative=a2JdNtFqB-C38ga_06BHvw&utm_campaign=yelp_api_v3&utm_medium=api_v3_business_search&utm_source=a2JdNtFqB-C38ga_06BHvw", "review_count": 282, "categories": [{"alias": "pubs", "title": "Pubs"}, {"alias": "irish", "title": "Irish"}, {"alias": "burgers", "title": "Burgers"}], "rating": 4.0, "coordinates": {"latitude": 39.293462, "longitude": -76.615586}, "transactions": ["delivery", "pickup"], "price": "$$", "location": {"address1": "328 N Charles St", "address2": "", "address3": "", "city": "Baltimore", "zip_code": "21201", "country": "US", "state": "MD", "display_address": ["328 N Charles St", "Baltimore, MD 21201"]}, "phone": "+14105397504", "display_phone": "(410) 539-7504", "distance": 1186.1588867826129}, {"id": "w-qw-6xwrWVwY5pWW7Ea7Q", "alias": "pub-dog-baltimore", "name": "Pub Dog", "image_url": "https://s3-media3.fl.yelpcdn.com/bphoto/_N993SgvavZdvBVlvTLamw/o.jpg", "is_closed": false, "url": "https://www.yelp.com/biz/pub-dog-baltimore?adjust_creative=a2JdNtFqB-C38ga_06BHvw&utm_campaign=yelp_api_v3&utm_medium=api_v3_business_search&utm_source=a2JdNtFqB-C38ga_06BHvw", "review_count": 241, "categories": [{"alias": "pizza", "title": "Pizza"}, {"alias": "pubs", "title": "Pubs"}], "rating": 4.0, "coordinates": {"latitude": 39.2770805358887, "longitude": -76.6135406494141}, "transactions": ["delivery"], "price": "$$", "location": {"address1": "20 E Cross St", "address2": "", "address3": "", "city": "Baltimore", "zip_code": "21230", "country": "US", "state": "MD", "display_address": ["20 E Cross St", "Baltimore, MD 21230"]}, "phone": "+14107276077", "display_phone": "(410) 727-6077", "distance": 1029.938803746001}, {"id": "p_XPpHiZbdOccx2jFUgZJA", "alias": "the-local-oyster-baltimore", "name": "The Local Oyster", "image_url": "https://s3-media3.fl.yelpcdn.com/bphoto/u_33aye99FX8ZM_DtIRDng/o.jpg", "is_closed": false, "url": "https://www.yelp.com/biz/the-local-oyster-baltimore?adjust_creative=a2JdNtFqB-C38ga_06BHvw&utm_campaign=yelp_api_v3&utm_medium=api_v3_business_search&utm_source=a2JdNtFqB-C38ga_06BHvw", "review_count": 189, "categories": [{"alias": "seafood", "title": "Seafood"}, {"alias": "wine_bars", "title": "Wine Bars"}, {"alias": "beerbar", "title": "Beer Bar"}], "rating": 4.0, "coordinates": {"latitude": 39.2958288, "longitude": -76.6188912}, "transactions": ["delivery"], "price": "$$", "location": {"address1": "520 Park Ave", "address2": null, "address3": "", "city": "Baltimore", "zip_code": "21211", "country": "US", "state": "MD", "display_address": ["520 Park Ave", "Baltimore, MD 21211"]}, "phone": "+18447482537", "display_phone": "(844) 748-2537", "distance": 1348.9638020454736}, {"id": "DHaz4z2lNg5_IpbUMMFhmA", "alias": "ale-marys-baltimore", "name": "Ale Mary's", "image_url": "https://s3-media1.fl.yelpcdn.com/bphoto/0RUcyv1eAqgzp3YxBkqj1g/o.jpg", "is_closed": false, "url": "https://www.yelp.com/biz/ale-marys-baltimore?adjust_creative=a2JdNtFqB-C38ga_06BHvw&utm_campaign=yelp_api_v3&utm_medium=api_v3_business_search&utm_source=a2JdNtFqB-C38ga_06BHvw", "review_count": 359, "categories": [{"alias": "pubs", "title": "Pubs"}, {"alias": "newamerican", "title": "American (New)"}], "rating": 4.0, "coordinates": {"latitude": 39.2845344543457, "longitude": -76.5888671875}, "transactions": ["delivery"], "price": "$$", "location": {"address1": "1939 Fleet St", "address2": "", "address3": "Fells Point", "city": "Baltimore", "zip_code": "21231", "country": "US", "state": "MD", "display_address": ["1939 Fleet St", "Fells Point", "Baltimore, MD 21231"]}, "phone": "+14102762044", "display_phone": "(410) 276-2044", "distance": 2822.612312340934}, {"id": "QHVUhI8JBAcqGj1JufDcHw", "alias": "wiley-gunters-baltimore", "name": "Wiley Gunters", "image_url": "https://s3-media2.fl.yelpcdn.com/bphoto/ivUM37m6n4vtmsvjyGBR8Q/o.jpg", "is_closed": false, "url": "https://www.yelp.com/biz/wiley-gunters-baltimore?adjust_creative=a2JdNtFqB-C38ga_06BHvw&utm_campaign=yelp_api_v3&utm_medium=api_v3_business_search&utm_source=a2JdNtFqB-C38ga_06BHvw", "review_count": 125, "categories": [{"alias": "burgers", "title": "Burgers"}, {"alias": "sportsbars", "title": "Sports Bars"}, {"alias": "beerbar", "title": "Beer Bar"}], "rating": 4.5, "coordinates": {"latitude": 39.27174, "longitude": -76.60223}, "transactions": ["pickup"], "price": "$$", "location": {"address1": "823 E Fort Ave", "address2": "", "address3": "", "city": "Baltimore", "zip_code": "21230", "country": "US", "state": "MD", "display_address": ["823 E Fort Ave", "Baltimore, MD 21230"]}, "phone": "+14106373699", "display_phone": "(410) 637-3699", "distance": 2149.963078322131}, {"id": "2Hr1RarrQXwRyBElL9AFzw", "alias": "tagliata-baltimore", "name": "Tagliata", "image_url": "https://s3-media3.fl.yelpcdn.com/bphoto/dccgSQ9z0opYRgkxcteNHQ/o.jpg", "is_closed": false, "url": "https://www.yelp.com/biz/tagliata-baltimore?adjust_creative=a2JdNtFqB-C38ga_06BHvw&utm_campaign=yelp_api_v3&utm_medium=api_v3_business_search&utm_source=a2JdNtFqB-C38ga_06BHvw", "review_count": 364, "categories": [{"alias": "italian", "title": "Italian"}, {"alias": "wine_bars", "title": "Wine Bars"}, {"alias": "seafood", "title": "Seafood"}], "rating": 4.0, "coordinates": {"latitude": 39.2844067, "longitude": -76.5994977}, "transactions": ["delivery"], "price": "$$$", "location": {"address1": "1012 Fleet St", "address2": null, "address3": "", "city": "Baltimore", "zip_code": "21202", "country": "US", "state": "MD", "display_address": ["1012 Fleet St", "Baltimore, MD 21202"]}, "phone": "+14102445830", "display_phone": "(410) 244-5830", "distance": 1893.2312065045485}, {"id": "AQ56plNP56TIk3JswtoiMA", "alias": "abbey-burger-bistro-baltimore-4", "name": "Abbey Burger Bistro", "image_url": "https://s3-media4.fl.yelpcdn.com/bphoto/_ZZ4nIpyKbeP_5xK5Zf6tQ/o.jpg", "is_closed": false, "url": "https://www.yelp.com/biz/abbey-burger-bistro-baltimore-4?adjust_creative=a2JdNtFqB-C38ga_06BHvw&utm_campaign=yelp_api_v3&utm_medium=api_v3_business_search&utm_source=a2JdNtFqB-C38ga_06BHvw", "review_count": 880, "categories": [{"alias": "sportsbars", "title": "Sports Bars"}, {"alias": "tradamerican", "title": "American (Traditional)"}], "rating": 4.0, "coordinates": {"latitude": 39.2771835822848, "longitude": -76.6129885794452}, "transactions": ["pickup", "delivery"], "price": "$$", "location": {"address1": "1041 Marshall St", "address2": "", "address3": "", "city": "Baltimore", "zip_code": "21230", "country": "US", "state": "MD", "display_address": ["1041 Marshall St", "Baltimore, MD 21230"]}, "phone": "+14434539698", "display_phone": "(443) 453-9698", "distance": 1055.4049137324967}, {"id": "rHyNCUy6McaH7E3NkFNSPA", "alias": "henningers-tavern-baltimore", "name": "Henninger's Tavern", "image_url": "https://s3-media4.fl.yelpcdn.com/bphoto/HaTZKdTG71-cQclWUDPaqA/o.jpg", "is_closed": false, "url": "https://www.yelp.com/biz/henningers-tavern-baltimore?adjust_creative=a2JdNtFqB-C38ga_06BHvw&utm_campaign=yelp_api_v3&utm_medium=api_v3_business_search&utm_source=a2JdNtFqB-C38ga_06BHvw", "review_count": 100, "categories": [{"alias": "newamerican", "title": "American (New)"}, {"alias": "pubs", "title": "Pubs"}], "rating": 4.5, "coordinates": {"latitude": 39.2868449, "longitude": -76.59099}, "transactions": [], "price": "$$", "location": {"address1": "1812 Bank St", "address2": "", "address3": "", "city": "Baltimore", "zip_code": "21231", "country": "US", "state": "MD", "display_address": ["1812 Bank St", "Baltimore, MD 21231"]}, "phone": "+14103422172", "display_phone": "(410) 342-2172", "distance": 2670.7441310480617}, {"id": "tc5vR8OZ-D5eXbDTmjrQjA", "alias": "sugarvale-baltimore", "name": "Sugarvale", "image_url": "https://s3-media2.fl.yelpcdn.com/bphoto/m7GRliyXPLN69o_xdd6D_g/o.jpg", "is_closed": false, "url": "https://www.yelp.com/biz/sugarvale-baltimore?adjust_creative=a2JdNtFqB-C38ga_06BHvw&utm_campaign=yelp_api_v3&utm_medium=api_v3_business_search&utm_source=a2JdNtFqB-C38ga_06BHvw", "review_count": 127, "categories": [{"alias": "wine_bars", "title": "Wine Bars"}, {"alias": "cocktailbars", "title": "Cocktail Bars"}, {"alias": "tradamerican", "title": "American (Traditional)"}], "rating": 4.0, "coordinates": {"latitude": 39.2986281216145, "longitude": -76.6160499304533}, "transactions": ["delivery"], "price": "$$", "location": {"address1": "4 W Madison St", "address2": "", "address3": "", "city": "Baltimore", "zip_code": "21201", "country": "US", "state": "MD", "display_address": ["4 W Madison St", "Baltimore, MD 21201"]}, "phone": "+14106093162", "display_phone": "(410) 609-3162", "distance": 1704.8468405484116}, {"id": "WRz58h4VB9nadcyar4LGvQ", "alias": "wet-city-baltimore", "name": "Wet City", "image_url": "https://s3-media4.fl.yelpcdn.com/bphoto/8L30rMvLw1oSa9l0bT4DEQ/o.jpg", "is_closed": false, "url": "https://www.yelp.com/biz/wet-city-baltimore?adjust_creative=a2JdNtFqB-C38ga_06BHvw&utm_campaign=yelp_api_v3&utm_medium=api_v3_business_search&utm_source=a2JdNtFqB-C38ga_06BHvw", "review_count": 145, "categories": [{"alias": "beerbar", "title": "Beer Bar"}, {"alias": "pubs", "title": "Pubs"}, {"alias": "gastropubs", "title": "Gastropubs"}], "rating": 4.0, "coordinates": {"latitude": 39.3016090393066, "longitude": -76.6189498901367}, "transactions": ["delivery"], "price": "$$", "location": {"address1": "223 W Chase St", "address2": "", "address3": "", "city": "Baltimore", "zip_code": "21201", "country": "US", "state": "MD", "display_address": ["223 W Chase St", "Baltimore, MD 21201"]}, "phone": "+14438736699", "display_phone": "(443) 873-6699", "distance": 1984.24185657147}, {"id": "UplfpgvI5BfuDjtolDrmsA", "alias": "blackwall-hitch-baltimore", "name": "Blackwall Hitch", "image_url": "https://s3-media4.fl.yelpcdn.com/bphoto/kItY5eNaBwzHnj3GnPDnYg/o.jpg", "is_closed": false, "url": "https://www.yelp.com/biz/blackwall-hitch-baltimore?adjust_creative=a2JdNtFqB-C38ga_06BHvw&utm_campaign=yelp_api_v3&utm_medium=api_v3_business_search&utm_source=a2JdNtFqB-C38ga_06BHvw", "review_count": 340, "categories": [{"alias": "newamerican", "title": "American (New)"}, {"alias": "seafood", "title": "Seafood"}, {"alias": "cocktailbars", "title": "Cocktail Bars"}], "rating": 4.0, "coordinates": {"latitude": 39.2869347, "longitude": -76.606639}, "transactions": [], "location": {"address1": "700 E Pratt St", "address2": null, "address3": "", "city": "Baltimore", "zip_code": "21202", "country": "US", "state": "MD", "display_address": ["700 E Pratt St", "Baltimore, MD 21202"]}, "phone": "+14437597176", "display_phone": "(443) 759-7176", "distance": 1391.2650073699592}, {"id": "yllFleLLvGVm9dZ-dRFZHg", "alias": "papi-cuisine-baltimore", "name": "Papi Cuisine", "image_url": "https://s3-media2.fl.yelpcdn.com/bphoto/7Gj7eUalGCv8zgv_LC9R8Q/o.jpg", "is_closed": false, "url": "https://www.yelp.com/biz/papi-cuisine-baltimore?adjust_creative=a2JdNtFqB-C38ga_06BHvw&utm_campaign=yelp_api_v3&utm_medium=api_v3_business_search&utm_source=a2JdNtFqB-C38ga_06BHvw", "review_count": 202, "categories": [{"alias": "cocktailbars", "title": "Cocktail Bars"}, {"alias": "seafood", "title": "Seafood"}, {"alias": "caribbean", "title": "Caribbean"}], "rating": 4.0, "coordinates": {"latitude": 39.26920460905755, "longitude": -76.61239127263973}, "transactions": ["delivery"], "price": "$$$", "location": {"address1": "2 E Wells St", "address2": "Ste 116", "address3": null, "city": "Baltimore", "zip_code": "21230", "country": "US", "state": "MD", "display_address": ["2 E Wells St", "Ste 116", "Baltimore, MD 21230"]}, "phone": "+16672051838", "display_phone": "(667) 205-1838", "distance": 1817.5794807381626}, {"id": "l2JQ6yE_F0k26XE86s5ykQ", "alias": "cultured-baltimore", "name": "Cultured", "image_url": "https://s3-media2.fl.yelpcdn.com/bphoto/37SseBVbhLskvGs72XXojw/o.jpg", "is_closed": false, "url": "https://www.yelp.com/biz/cultured-baltimore?adjust_creative=a2JdNtFqB-C38ga_06BHvw&utm_campaign=yelp_api_v3&utm_medium=api_v3_business_search&utm_source=a2JdNtFqB-C38ga_06BHvw", "review_count": 56, "categories": [{"alias": "tapasmallplates", "title": "Tapas/Small Plates"}, {"alias": "cheese", "title": "Cheese Shops"}, {"alias": "cocktailbars", "title": "Cocktail Bars"}], "rating": 4.5, "coordinates": {"latitude": 39.29589, "longitude": -76.618829}, "transactions": ["delivery"], "price": "$$", "location": {"address1": "520 Park Ave", "address2": "", "address3": null, "city": "Baltimore", "zip_code": "21201", "country": "US", "state": "MD", "display_address": ["520 Park Ave", "Baltimore, MD 21201"]}, "phone": "+16672125797", "display_phone": "(667) 212-5797", "distance": 1356.6153647383376}, {"id": "t0EA_fXewpQWfzWMrpNjIw", "alias": "peters-pour-house-baltimore", "name": "Peter's Pour House", "image_url": "https://s3-media2.fl.yelpcdn.com/bphoto/7sKe4vKOAUW3IqxZ6mpz8g/o.jpg", "is_closed": false, "url": "https://www.yelp.com/biz/peters-pour-house-baltimore?adjust_creative=a2JdNtFqB-C38ga_06BHvw&utm_campaign=yelp_api_v3&utm_medium=api_v3_business_search&utm_source=a2JdNtFqB-C38ga_06BHvw", "review_count": 215, "categories": [{"alias": "tradamerican", "title": "American (Traditional)"}, {"alias": "pubs", "title": "Pubs"}], "rating": 4.0, "coordinates": {"latitude": 39.288481314045, "longitude": -76.6130307125117}, "transactions": ["delivery", "pickup"], "price": "$$", "location": {"address1": "111 Mercer St", "address2": null, "address3": "", "city": "Baltimore", "zip_code": "21202", "country": "US", "state": "MD", "display_address": ["111 Mercer St", "Baltimore, MD 21202"]}, "phone": "+14105395818", "display_phone": "(410) 539-5818", "distance": 901.7815525422048}, {"id": "TP1fFZn-gnTkQ9AxIbglBA", "alias": "sobo-market-baltimore", "name": "SoBo Market", "image_url": "https://s3-media4.fl.yelpcdn.com/bphoto/TPLhVWb49xnC2hgA92wfnA/o.jpg", "is_closed": false, "url": "https://www.yelp.com/biz/sobo-market-baltimore?adjust_creative=a2JdNtFqB-C38ga_06BHvw&utm_campaign=yelp_api_v3&utm_medium=api_v3_business_search&utm_source=a2JdNtFqB-C38ga_06BHvw", "review_count": 31, "categories": [{"alias": "cocktailbars", "title": "Cocktail Bars"}, {"alias": "tapasmallplates", "title": "Tapas/Small Plates"}, {"alias": "sandwiches", "title": "Sandwiches"}], "rating": 4.5, "coordinates": {"latitude": 39.27138, "longitude": -76.61355}, "transactions": ["delivery"], "price": "$$", "location": {"address1": "13 E Randall St", "address2": "", "address3": "", "city": "Baltimore", "zip_code": "21230", "country": "US", "state": "MD", "display_address": ["13 E Randall St", "Baltimore, MD 21230"]}, "phone": "+14106856605", "display_phone": "(410) 685-6605", "distance": 1554.1589802805313}, {"id": "mOZQ31rXIhkvLjM2ZuPwGg", "alias": "duck-duck-goose-baltimore-baltimore-2", "name": "Duck Duck Goose Baltimore", "image_url": "https://s3-media1.fl.yelpcdn.com/bphoto/70eXBI3ut950OEnksdjdfQ/o.jpg", "is_closed": false, "url": "https://www.yelp.com/biz/duck-duck-goose-baltimore-baltimore-2?adjust_creative=a2JdNtFqB-C38ga_06BHvw&utm_campaign=yelp_api_v3&utm_medium=api_v3_business_search&utm_source=a2JdNtFqB-C38ga_06BHvw", "review_count": 163, "categories": [{"alias": "brasseries", "title": "Brasseries"}, {"alias": "french", "title": "French"}, {"alias": "cocktailbars", "title": "Cocktail Bars"}], "rating": 4.0, "coordinates": {"latitude": 39.2819708409951, "longitude": -76.5934894631647}, "transactions": ["delivery", "pickup"], "price": "$$", "location": {"address1": "814 S Broadway", "address2": "", "address3": null, "city": "Baltimore", "zip_code": "21231", "country": "US", "state": "MD", "display_address": ["814 S Broadway", "Baltimore, MD 21231"]}, "phone": "+14438692129", "display_phone": "(443) 869-2129", "distance": 2434.5450000890783}, {"id": "2nCf6nVKXjoPXjhhan25ow", "alias": "brewers-cask-baltimore", "name": "Brewer's Cask", "image_url": "https://s3-media2.fl.yelpcdn.com/bphoto/RD-7iaa43Iba5Dtf6tQvAA/o.jpg", "is_closed": false, "url": "https://www.yelp.com/biz/brewers-cask-baltimore?adjust_creative=a2JdNtFqB-C38ga_06BHvw&utm_campaign=yelp_api_v3&utm_medium=api_v3_business_search&utm_source=a2JdNtFqB-C38ga_06BHvw", "review_count": 132, "categories": [{"alias": "pubs", "title": "Pubs"}, {"alias": "burgers", "title": "Burgers"}, {"alias": "sandwiches", "title": "Sandwiches"}], "rating": 4.0, "coordinates": {"latitude": 39.2751220151663, "longitude": -76.6122023635271}, "transactions": ["delivery"], "price": "$$", "location": {"address1": "1236 Light St", "address2": "", "address3": "", "city": "Baltimore", "zip_code": "21230", "country": "US", "state": "MD", "display_address": ["1236 Light St", "Baltimore, MD 21230"]}, "phone": "+14102739377", "display_phone": "(410) 273-9377", "distance": 1270.4175852552887}, {"id": "wYsBlOLKogg50apXW0pQgA", "alias": "the-wharf-rat-baltimore-3", "name": "The Wharf Rat", "image_url": "https://s3-media4.fl.yelpcdn.com/bphoto/WCD8vraQq1w4yGy0G87rxg/o.jpg", "is_closed": false, "url": "https://www.yelp.com/biz/the-wharf-rat-baltimore-3?adjust_creative=a2JdNtFqB-C38ga_06BHvw&utm_campaign=yelp_api_v3&utm_medium=api_v3_business_search&utm_source=a2JdNtFqB-C38ga_06BHvw", "review_count": 133, "categories": [{"alias": "pubs", "title": "Pubs"}, {"alias": "pizza", "title": "Pizza"}, {"alias": "sandwiches", "title": "Sandwiches"}], "rating": 4.0, "coordinates": {"latitude": 39.28258, "longitude": -76.591038}, "transactions": ["delivery"], "price": "$$", "location": {"address1": "801 S Ann St", "address2": "", "address3": "", "city": "Baltimore", "zip_code": "21231", "country": "US", "state": "MD", "display_address": ["801 S Ann St", "Baltimore, MD 21231"]}, "phone": "+14102768304", "display_phone": "(410) 276-8304", "distance": 2640.1802275095333}, {"id": "NSa492487A7Z1auuZLDk9g", "alias": "the-prime-rib-baltimore", "name": "The Prime Rib", "image_url": "https://s3-media1.fl.yelpcdn.com/bphoto/pWvpV2vjNjYgBWkhqOr3gw/o.jpg", "is_closed": false, "url": "https://www.yelp.com/biz/the-prime-rib-baltimore?adjust_creative=a2JdNtFqB-C38ga_06BHvw&utm_campaign=yelp_api_v3&utm_medium=api_v3_business_search&utm_source=a2JdNtFqB-C38ga_06BHvw", "review_count": 260, "categories": [{"alias": "steak", "title": "Steakhouses"}, {"alias": "wine_bars", "title": "Wine Bars"}, {"alias": "seafood", "title": "Seafood"}], "rating": 4.0, "coordinates": {"latitude": 39.30277, "longitude": -76.61284}, "transactions": ["delivery"], "price": "$$$$", "location": {"address1": "1101 N Calvert St", "address2": "", "address3": "", "city": "Baltimore", "zip_code": "21202", "country": "US", "state": "MD", "display_address": ["1101 N Calvert St", "Baltimore, MD 21202"]}, "phone": "+14105391804", "display_phone": "(410) 539-1804", "distance": 2219.852661901377}, {"id": "rUucWnD7nIN-S9e4lmAtsQ", "alias": "cinghiale-baltimore-3", "name": "Cinghiale", "image_url": "https://s3-media2.fl.yelpcdn.com/bphoto/42USJWiCUa5B5zs9pFo8qQ/o.jpg", "is_closed": false, "url": "https://www.yelp.com/biz/cinghiale-baltimore-3?adjust_creative=a2JdNtFqB-C38ga_06BHvw&utm_campaign=yelp_api_v3&utm_medium=api_v3_business_search&utm_source=a2JdNtFqB-C38ga_06BHvw", "review_count": 476, "categories": [{"alias": "italian", "title": "Italian"}, {"alias": "wine_bars", "title": "Wine Bars"}], "rating": 4.0, "coordinates": {"latitude": 39.282521, "longitude": -76.600334}, "transactions": [], "price": "$$$", "location": {"address1": "822 Lancaster St", "address2": "", "address3": "", "city": "Baltimore", "zip_code": "21202", "country": "US", "state": "MD", "display_address": ["822 Lancaster St", "Baltimore, MD 21202"]}, "phone": "+14105478282", "display_phone": "(410) 547-8282", "distance": 1842.3715581269557}, {"id": "d8hR3Vr27uoYMXaK5PIW0w", "alias": "loch-bar-baltimore", "name": "Loch Bar", "image_url": "https://s3-media3.fl.yelpcdn.com/bphoto/cq23oI5p3UWdN28uxU_W2g/o.jpg", "is_closed": false, "url": "https://www.yelp.com/biz/loch-bar-baltimore?adjust_creative=a2JdNtFqB-C38ga_06BHvw&utm_campaign=yelp_api_v3&utm_medium=api_v3_business_search&utm_source=a2JdNtFqB-C38ga_06BHvw", "review_count": 309, "categories": [{"alias": "seafood", "title": "Seafood"}, {"alias": "raw_food", "title": "Live/Raw Food"}, {"alias": "cocktailbars", "title": "Cocktail Bars"}], "rating": 4.0, "coordinates": {"latitude": 39.282368, "longitude": -76.602319}, "transactions": ["delivery"], "price": "$$$", "location": {"address1": "240 International Dr", "address2": "", "address3": "", "city": "Baltimore", "zip_code": "21202", "country": "US", "state": "MD", "display_address": ["240 International Dr", "Baltimore, MD 21202"]}, "phone": "+14439618949", "display_phone": "(443) 961-8949", "distance": 1673.805260362252}, {"id": "qIoAIOF9AQFzocnrRpWsGw", "alias": "dogwatch-tavern-baltimore-2", "name": "DogWatch Tavern", "image_url": "https://s3-media1.fl.yelpcdn.com/bphoto/Z7yyHCb68cHgk0IQvJfn5g/o.jpg", "is_closed": false, "url": "https://www.yelp.com/biz/dogwatch-tavern-baltimore-2?adjust_creative=a2JdNtFqB-C38ga_06BHvw&utm_campaign=yelp_api_v3&utm_medium=api_v3_business_search&utm_source=a2JdNtFqB-C38ga_06BHvw", "review_count": 140, "categories": [{"alias": "pubs", "title": "Pubs"}, {"alias": "newamerican", "title": "American (New)"}], "rating": 4.0, "coordinates": {"latitude": 39.2832841, "longitude": -76.5930668}, "transactions": ["delivery", "pickup"], "price": "$$", "location": {"address1": "709 S Broadway", "address2": "", "address3": "", "city": "Baltimore", "zip_code": "21231", "country": "US", "state": "MD", "display_address": ["709 S Broadway", "Baltimore, MD 21231"]}, "phone": "+14102766030", "display_phone": "(410) 276-6030", "distance": 2462.457402995566}, {"id": "sUK2qmfNs7s7GnrVXtwK7w", "alias": "captain-larrys-bar-and-grill-baltimore-2", "name": "Captain Larry's Bar & Grill", "image_url": "https://s3-media1.fl.yelpcdn.com/bphoto/a0Mpu_igjIjQwq66z-TpwA/o.jpg", "is_closed": false, "url": "https://www.yelp.com/biz/captain-larrys-bar-and-grill-baltimore-2?adjust_creative=a2JdNtFqB-C38ga_06BHvw&utm_campaign=yelp_api_v3&utm_medium=api_v3_business_search&utm_source=a2JdNtFqB-C38ga_06BHvw", "review_count": 66, "categories": [{"alias": "pubs", "title": "Pubs"}, {"alias": "tradamerican", "title": "American (Traditional)"}], "rating": 4.5, "coordinates": {"latitude": 39.2727317810059, "longitude": -76.6049652099609}, "transactions": ["delivery"], "price": "$$", "location": {"address1": "601 E Fort Ave", "address2": "", "address3": "", "city": "Baltimore", "zip_code": "21230", "country": "US", "state": "MD", "display_address": ["601 E Fort Ave", "Baltimore, MD 21230"]}, "phone": "+14107274799", "display_phone": "(410) 727-4799", "distance": 1896.7101087245146}, {"id": "kOrGo4G7su1F1KHrcybcVw", "alias": "home-maid-baltimore", "name": "Home Maid", "image_url": "https://s3-media1.fl.yelpcdn.com/bphoto/X97YIlG69CABvEzVje_t7g/o.jpg", "is_closed": false, "url": "https://www.yelp.com/biz/home-maid-baltimore?adjust_creative=a2JdNtFqB-C38ga_06BHvw&utm_campaign=yelp_api_v3&utm_medium=api_v3_business_search&utm_source=a2JdNtFqB-C38ga_06BHvw", "review_count": 359, "categories": [{"alias": "tradamerican", "title": "American (Traditional)"}, {"alias": "breakfast_brunch", "title": "Breakfast & Brunch"}, {"alias": "cocktailbars", "title": "Cocktail Bars"}], "rating": 4.0, "coordinates": {"latitude": 39.27368, "longitude": -76.6032}, "transactions": ["delivery"], "price": "$$", "location": {"address1": "1400 Key Hwy", "address2": "", "address3": "", "city": "Baltimore", "zip_code": "21230", "country": "US", "state": "MD", "display_address": ["1400 Key Hwy", "Baltimore, MD 21230"]}, "phone": "+14437598033", "display_phone": "(443) 759-8033", "distance": 1953.3341696447362}, {"id": "ReNdW79g_1cxrgCJpFn7cA", "alias": "b-and-o-american-brasserie-baltimore", "name": "B&O American Brasserie", "image_url": "https://s3-media2.fl.yelpcdn.com/bphoto/STUupDhSp1i8JWXVrKjwtg/o.jpg", "is_closed": false, "url": "https://www.yelp.com/biz/b-and-o-american-brasserie-baltimore?adjust_creative=a2JdNtFqB-C38ga_06BHvw&utm_campaign=yelp_api_v3&utm_medium=api_v3_business_search&utm_source=a2JdNtFqB-C38ga_06BHvw", "review_count": 568, "categories": [{"alias": "newamerican", "title": "American (New)"}, {"alias": "brasseries", "title": "Brasseries"}, {"alias": "cocktailbars", "title": "Cocktail Bars"}], "rating": 4.0, "coordinates": {"latitude": 39.2899436853933, "longitude": -76.6153600656067}, "transactions": ["delivery", "pickup"], "price": "$$", "location": {"address1": "2 N Charles St", "address2": "", "address3": "", "city": "Baltimore", "zip_code": "21201", "country": "US", "state": "MD", "display_address": ["2 N Charles St", "Baltimore, MD 21201"]}, "phone": "+14436926172", "display_phone": "(443) 692-6172", "distance": 864.8066666142594}, {"id": "QxN5HyDJ0ydwO7j4RurqoQ", "alias": "sammys-enoteca-baltimore", "name": "Sammy's Enoteca", "image_url": "https://s3-media2.fl.yelpcdn.com/bphoto/8izPsXbNK-MowvVHr7tmBg/o.jpg", "is_closed": false, "url": "https://www.yelp.com/biz/sammys-enoteca-baltimore?adjust_creative=a2JdNtFqB-C38ga_06BHvw&utm_campaign=yelp_api_v3&utm_medium=api_v3_business_search&utm_source=a2JdNtFqB-C38ga_06BHvw", "review_count": 122, "categories": [{"alias": "wine_bars", "title": "Wine Bars"}, {"alias": "italian", "title": "Italian"}], "rating": 4.0, "coordinates": {"latitude": 39.28395, "longitude": -76.59293}, "transactions": ["delivery", "pickup"], "price": "$$", "location": {"address1": "623 S Broadway", "address2": "", "address3": "", "city": "Baltimore", "zip_code": "21231", "country": "US", "state": "MD", "display_address": ["623 S Broadway", "Baltimore, MD 21231"]}, "phone": "+14435521002", "display_phone": "(443) 552-1002", "distance": 2459.373015638173}, {"id": "Kh1XJP54vra02w7vS5rRhg", "alias": "clock-restoration-baltimore", "name": "CLOCK Restoration", "image_url": "https://s3-media2.fl.yelpcdn.com/bphoto/Cquy0WVWW6b4-3TWXBppDQ/o.jpg", "is_closed": false, "url": "https://www.yelp.com/biz/clock-restoration-baltimore?adjust_creative=a2JdNtFqB-C38ga_06BHvw&utm_campaign=yelp_api_v3&utm_medium=api_v3_business_search&utm_source=a2JdNtFqB-C38ga_06BHvw", "review_count": 20, "categories": [{"alias": "cocktailbars", "title": "Cocktail Bars"}, {"alias": "speakeasies", "title": "Speakeasies"}, {"alias": "newamerican", "title": "American (New)"}], "rating": 5.0, "coordinates": {"latitude": 39.28807, "longitude": -76.61196}, "transactions": ["delivery", "pickup"], "location": {"address1": "31 S Calvert St", "address2": "Fl 5", "address3": "The QG", "city": "Baltimore", "zip_code": "21202", "country": "US", "state": "MD", "display_address": ["31 S Calvert St", "Fl 5", "The QG", "Baltimore, MD 21202"]}, "phone": "+14106857428", "display_phone": "(410) 685-7428", "distance": 954.2672175568855}, {"id": "vb79aRUD88S9AGqn2Oknaw", "alias": "homeslyce-pizza-bar-baltimore", "name": "Homeslyce Pizza Bar", "image_url": "https://s3-media2.fl.yelpcdn.com/bphoto/3MqfIl3kSd_rbMnq8kktQA/o.jpg", "is_closed": false, "url": "https://www.yelp.com/biz/homeslyce-pizza-bar-baltimore?adjust_creative=a2JdNtFqB-C38ga_06BHvw&utm_campaign=yelp_api_v3&utm_medium=api_v3_business_search&utm_source=a2JdNtFqB-C38ga_06BHvw", "review_count": 435, "categories": [{"alias": "pizza", "title": "Pizza"}, {"alias": "tradamerican", "title": "American (Traditional)"}, {"alias": "sportsbars", "title": "Sports Bars"}], "rating": 4.0, "coordinates": {"latitude": 39.293693, "longitude": -76.615782}, "transactions": ["delivery", "pickup"], "price": "$$", "location": {"address1": "336 N Charles St", "address2": "", "address3": "", "city": "Baltimore", "zip_code": "21201", "country": "US", "state": "MD", "display_address": ["336 N Charles St", "Baltimore, MD 21201"]}, "phone": "+14432186739", "display_phone": "(443) 218-6739", "distance": 1202.4061856923192}, {"id": "SY-2sHUnTx-iCpG6hcqoNg", "alias": "mem-sahib-indian-restaurant-baltimore", "name": "Mem Sahib Indian Restaurant", "image_url": "https://s3-media4.fl.yelpcdn.com/bphoto/4QXZvbn_9CIdmx-aglgCbQ/o.jpg", "is_closed": false, "url": "https://www.yelp.com/biz/mem-sahib-indian-restaurant-baltimore?adjust_creative=a2JdNtFqB-C38ga_06BHvw&utm_campaign=yelp_api_v3&utm_medium=api_v3_business_search&utm_source=a2JdNtFqB-C38ga_06BHvw", "review_count": 78, "categories": [{"alias": "indpak", "title": "Indian"}, {"alias": "breakfast_brunch", "title": "Breakfast & Brunch"}, {"alias": "cocktailbars", "title": "Cocktail Bars"}], "rating": 4.0, "coordinates": {"latitude": 39.291379, "longitude": -76.621459}, "transactions": [], "price": "$$", "location": {"address1": "400 W Lexington St", "address2": "", "address3": null, "city": "Baltimore", "zip_code": "21201", "country": "US", "state": "MD", "display_address": ["400 W Lexington St", "Baltimore, MD 21201"]}, "phone": "+14105767777", "display_phone": "(410) 576-7777", "distance": 833.0414326089356}, {"id": "qCYrcK8EmKBwjUeyW8CWIQ", "alias": "barracudas-locust-point-tavern-baltimore", "name": "Barracudas Locust Point Tavern", "image_url": "https://s3-media2.fl.yelpcdn.com/bphoto/OOcbQ6Ru0aGOq_nDbzPX5w/o.jpg", "is_closed": false, "url": "https://www.yelp.com/biz/barracudas-locust-point-tavern-baltimore?adjust_creative=a2JdNtFqB-C38ga_06BHvw&utm_campaign=yelp_api_v3&utm_medium=api_v3_business_search&utm_source=a2JdNtFqB-C38ga_06BHvw", "review_count": 144, "categories": [{"alias": "newamerican", "title": "American (New)"}, {"alias": "sportsbars", "title": "Sports Bars"}, {"alias": "seafood", "title": "Seafood"}], "rating": 4.0, "coordinates": {"latitude": 39.2703, "longitude": -76.5967}, "transactions": ["delivery"], "price": "$$", "location": {"address1": "1230 E Fort Ave", "address2": "", "address3": "", "city": "Baltimore", "zip_code": "21230", "country": "US", "state": "MD", "display_address": ["1230 E Fort Ave", "Baltimore, MD 21230"]}, "phone": "+14106852832", "display_phone": "(410) 685-2832", "distance": 2626.3318200508506}, {"id": "zE6WOWaqTFkngGCx6pX-cg", "alias": "sláinte-irish-pub-and-restaurant-baltimore-2", "name": "Sláinte Irish Pub and Restaurant", "image_url": "https://s3-media2.fl.yelpcdn.com/bphoto/Ur2GjS32rDtcK1PskpYheg/o.jpg", "is_closed": false, "url": "https://www.yelp.com/biz/sl%C3%A1inte-irish-pub-and-restaurant-baltimore-2?adjust_creative=a2JdNtFqB-C38ga_06BHvw&utm_campaign=yelp_api_v3&utm_medium=api_v3_business_search&utm_source=a2JdNtFqB-C38ga_06BHvw", "review_count": 308, "categories": [{"alias": "pubs", "title": "Pubs"}, {"alias": "irish", "title": "Irish"}, {"alias": "breakfast_brunch", "title": "Breakfast & Brunch"}], "rating": 4.0, "coordinates": {"latitude": 39.2820013, "longitude": -76.5925537}, "transactions": ["delivery"], "price": "$$", "location": {"address1": "1700 Thames St", "address2": "", "address3": "", "city": "Baltimore", "zip_code": "21231", "country": "US", "state": "MD", "display_address": ["1700 Thames St", "Baltimore, MD 21231"]}, "phone": "+14105636600", "display_phone": "(410) 563-6600", "distance": 2514.498935678034}, {"id": "S3B_Ifd6uPJ_KbCfoR8d0w", "alias": "city-limits-sports-bar-baltimore", "name": "City Limits Sports Bar", "image_url": "https://s3-media2.fl.yelpcdn.com/bphoto/GShJxYn1eo4MiXucIReIaQ/o.jpg", "is_closed": false, "url": "https://www.yelp.com/biz/city-limits-sports-bar-baltimore?adjust_creative=a2JdNtFqB-C38ga_06BHvw&utm_campaign=yelp_api_v3&utm_medium=api_v3_business_search&utm_source=a2JdNtFqB-C38ga_06BHvw", "review_count": 54, "categories": [{"alias": "comfortfood", "title": "Comfort Food"}, {"alias": "sportsbars", "title": "Sports Bars"}], "rating": 4.5, "coordinates": {"latitude": 39.2681884765625, "longitude": -76.5907821655273}, "transactions": ["delivery", "pickup"], "price": "$$", "location": {"address1": "1700 E Fort Ave", "address2": "", "address3": "", "city": "Baltimore", "zip_code": "21230", "country": "US", "state": "MD", "display_address": ["1700 E Fort Ave", "Baltimore, MD 21230"]}, "phone": "+14102448084", "display_phone": "(410) 244-8084", "distance": 3181.697968636797}, {"id": "Zfcq_9RqitAw0lD_ysr7gg", "alias": "delia-foleys-baltimore", "name": "Delia Foley's", "image_url": "https://s3-media2.fl.yelpcdn.com/bphoto/Oz1PJEAvD01VT9ZQTiBecA/o.jpg", "is_closed": false, "url": "https://www.yelp.com/biz/delia-foleys-baltimore?adjust_creative=a2JdNtFqB-C38ga_06BHvw&utm_campaign=yelp_api_v3&utm_medium=api_v3_business_search&utm_source=a2JdNtFqB-C38ga_06BHvw", "review_count": 94, "categories": [{"alias": "pubs", "title": "Pubs"}, {"alias": "chicken_wings", "title": "Chicken Wings"}], "rating": 4.0, "coordinates": {"latitude": 39.27276, "longitude": -76.6138}, "transactions": ["delivery"], "price": "$$", "location": {"address1": "1439 S Charles St", "address2": "", "address3": "", "city": "Baltimore", "zip_code": "21230", "country": "US", "state": "MD", "display_address": ["1439 S Charles St", "Baltimore, MD 21230"]}, "phone": "+14436829141", "display_phone": "(443) 682-9141", "distance": 1410.2914664124603}, {"id": "K5hlwzesZIaFrs5A7MjOaA", "alias": "magerks-pub-baltimore", "name": "Magerks Pub", "image_url": "https://s3-media3.fl.yelpcdn.com/bphoto/frXZXQKIbfBe2zdkvIBMIw/o.jpg", "is_closed": false, "url": "https://www.yelp.com/biz/magerks-pub-baltimore?adjust_creative=a2JdNtFqB-C38ga_06BHvw&utm_campaign=yelp_api_v3&utm_medium=api_v3_business_search&utm_source=a2JdNtFqB-C38ga_06BHvw", "review_count": 155, "categories": [{"alias": "pubs", "title": "Pubs"}, {"alias": "tradamerican", "title": "American (Traditional)"}, {"alias": "sportsbars", "title": "Sports Bars"}], "rating": 4.0, "coordinates": {"latitude": 39.2769315775745, "longitude": -76.6141981003496}, "transactions": ["delivery"], "price": "$$", "location": {"address1": "1061 S Charles St", "address2": "", "address3": "", "city": "Baltimore", "zip_code": "21230", "country": "US", "state": "MD", "display_address": ["1061 S Charles St", "Baltimore, MD 21230"]}, "phone": "+14105769230", "display_phone": "(410) 576-9230", "distance": 1005.8659859717136}, {"id": "w0GQP31RBBd-_o_3NZFIXw", "alias": "forno-restaurant-and-wine-bar-baltimore", "name": "Forno Restaurant & Wine Bar", "image_url": "https://s3-media3.fl.yelpcdn.com/bphoto/QN9JUM29SHgp5B006_L33Q/o.jpg", "is_closed": false, "url": "https://www.yelp.com/biz/forno-restaurant-and-wine-bar-baltimore?adjust_creative=a2JdNtFqB-C38ga_06BHvw&utm_campaign=yelp_api_v3&utm_medium=api_v3_business_search&utm_source=a2JdNtFqB-C38ga_06BHvw", "review_count": 237, "categories": [{"alias": "wine_bars", "title": "Wine Bars"}, {"alias": "pizza", "title": "Pizza"}, {"alias": "italian", "title": "Italian"}], "rating": 3.5, "coordinates": {"latitude": 39.2898529, "longitude": -76.6207865}, "transactions": ["delivery", "pickup"], "price": "$$", "location": {"address1": "17 N Eutaw St", "address2": null, "address3": "", "city": "Baltimore", "zip_code": "21201", "country": "US", "state": "MD", "display_address": ["17 N Eutaw St", "Baltimore, MD 21201"]}, "phone": "+14438739427", "display_phone": "(443) 873-9427", "distance": 685.5082079573252}, {"id": "o-wnP0RZYdSwupsaA5yLvA", "alias": "riverside-taphouse-baltimore", "name": "Riverside Taphouse", "image_url": "https://s3-media1.fl.yelpcdn.com/bphoto/oJuNJ3PxOkhPlcpEec4OGw/o.jpg", "is_closed": false, "url": "https://www.yelp.com/biz/riverside-taphouse-baltimore?adjust_creative=a2JdNtFqB-C38ga_06BHvw&utm_campaign=yelp_api_v3&utm_medium=api_v3_business_search&utm_source=a2JdNtFqB-C38ga_06BHvw", "review_count": 22, "categories": [{"alias": "tradamerican", "title": "American (Traditional)"}, {"alias": "wine_bars", "title": "Wine Bars"}, {"alias": "breakfast_brunch", "title": "Breakfast & Brunch"}], "rating": 4.5, "coordinates": {"latitude": 39.2717405, "longitude": -76.61176417}, "transactions": ["delivery"], "location": {"address1": "1542 Light St", "address2": "", "address3": null, "city": "Baltimore", "zip_code": "21230", "country": "US", "state": "MD", "display_address": ["1542 Light St", "Baltimore, MD 21230"]}, "phone": "+16672102110", "display_phone": "(667) 210-2110", "distance": 1594.5886307467556}, {"id": "7vs6BMWIPUhCLfHAkueOIQ", "alias": "bondhouse-kitchen-baltimore", "name": "Bondhouse Kitchen", "image_url": "https://s3-media3.fl.yelpcdn.com/bphoto/K38yJjT1o6ckDa2naPyMTQ/o.jpg", "is_closed": false, "url": "https://www.yelp.com/biz/bondhouse-kitchen-baltimore?adjust_creative=a2JdNtFqB-C38ga_06BHvw&utm_campaign=yelp_api_v3&utm_medium=api_v3_business_search&utm_source=a2JdNtFqB-C38ga_06BHvw", "review_count": 13, "categories": [{"alias": "newamerican", "title": "American (New)"}, {"alias": "cocktailbars", "title": "Cocktail Bars"}], "rating": 5.0, "coordinates": {"latitude": 39.28353902866672, "longitude": -76.59500057971017}, "transactions": ["delivery", "pickup"], "location": {"address1": "701 S Bond St", "address2": "", "address3": null, "city": "Baltimore", "zip_code": "21231", "country": "US", "state": "MD", "display_address": ["701 S Bond St", "Baltimore, MD 21231"]}, "phone": "+14104179500", "display_phone": "(410) 417-9500", "distance": 2295.4293549514246}, {"id": "cI0TibjPiWwYKGbNVe_0HQ", "alias": "in-like-flynn-tavern-baltimore-2", "name": "In Like Flynn Tavern", "image_url": "https://s3-media3.fl.yelpcdn.com/bphoto/HcRTt8Vs_N6qKwJhfeesnQ/o.jpg", "is_closed": false, "url": "https://www.yelp.com/biz/in-like-flynn-tavern-baltimore-2?adjust_creative=a2JdNtFqB-C38ga_06BHvw&utm_campaign=yelp_api_v3&utm_medium=api_v3_business_search&utm_source=a2JdNtFqB-C38ga_06BHvw", "review_count": 64, "categories": [{"alias": "irish", "title": "Irish"}, {"alias": "pubs", "title": "Pubs"}], "rating": 4.0, "coordinates": {"latitude": 39.26944, "longitude": -76.59001}, "transactions": ["delivery", "pickup"], "price": "$$", "location": {"address1": "1371 Andre St", "address2": "", "address3": "", "city": "Baltimore", "zip_code": "21230", "country": "US", "state": "MD", "display_address": ["1371 Andre St", "Baltimore, MD 21230"]}, "phone": "+16673033681", "display_phone": "(667) 303-3681", "distance": 3159.6783957602343}, {"id": "iYsSh1Gc8Fx9UYmrr6QzCQ", "alias": "pickles-pub-baltimore", "name": "Pickles Pub", "image_url": "https://s3-media1.fl.yelpcdn.com/bphoto/vK3ri_oLAfOHbOFFWkZ9Tw/o.jpg", "is_closed": false, "url": "https://www.yelp.com/biz/pickles-pub-baltimore?adjust_creative=a2JdNtFqB-C38ga_06BHvw&utm_campaign=yelp_api_v3&utm_medium=api_v3_business_search&utm_source=a2JdNtFqB-C38ga_06BHvw", "review_count": 338, "categories": [{"alias": "pubs", "title": "Pubs"}, {"alias": "tradamerican", "title": "American (Traditional)"}], "rating": 3.5, "coordinates": {"latitude": 39.2855072021484, "longitude": -76.6229476928711}, "transactions": ["delivery", "pickup"], "price": "$$", "location": {"address1": "520 Washington Blvd", "address2": "", "address3": "", "city": "Baltimore", "zip_code": "21230", "country": "US", "state": "MD", "display_address": ["520 Washington Blvd", "Baltimore, MD 21230"]}, "phone": "+14107521784", "display_phone": "(410) 752-1784", "distance": 208.0435652268919}, {"id": "qYO_UImVJDssMfVwFQSFLw", "alias": "chilangos-tequila-bar-and-grill-baltimore", "name": "Chilangos Tequila Bar and Grill", "image_url": "https://s3-media2.fl.yelpcdn.com/bphoto/fPu_OA2Yy5sExfdr8CItZw/o.jpg", "is_closed": false, "url": "https://www.yelp.com/biz/chilangos-tequila-bar-and-grill-baltimore?adjust_creative=a2JdNtFqB-C38ga_06BHvw&utm_campaign=yelp_api_v3&utm_medium=api_v3_business_search&utm_source=a2JdNtFqB-C38ga_06BHvw", "review_count": 79, "categories": [{"alias": "cocktailbars", "title": "Cocktail Bars"}, {"alias": "tacos", "title": "Tacos"}], "rating": 4.0, "coordinates": {"latitude": 39.281597418086, "longitude": -76.589390784502}, "transactions": [], "price": "$$", "location": {"address1": "901 S Wolfe St", "address2": "", "address3": null, "city": "Baltimore", "zip_code": "21231", "country": "US", "state": "MD", "display_address": ["901 S Wolfe St", "Baltimore, MD 21231"]}, "phone": "", "display_phone": "", "distance": 2789.61836301928}, {"id": "TPQmNAM2g1vmm2xCfhyEJw", "alias": "pratt-street-ale-house-baltimore", "name": "Pratt Street Ale House", "image_url": "https://s3-media2.fl.yelpcdn.com/bphoto/e2w62AJ3DzYcPa0K2-bD3A/o.jpg", "is_closed": false, "url": "https://www.yelp.com/biz/pratt-street-ale-house-baltimore?adjust_creative=a2JdNtFqB-C38ga_06BHvw&utm_campaign=yelp_api_v3&utm_medium=api_v3_business_search&utm_source=a2JdNtFqB-C38ga_06BHvw", "review_count": 784, "categories": [{"alias": "pubs", "title": "Pubs"}, {"alias": "tradamerican", "title": "American (Traditional)"}, {"alias": "breweries", "title": "Breweries"}], "rating": 3.5, "coordinates": {"latitude": 39.2865982055664, "longitude": -76.6181564331055}, "transactions": ["delivery", "pickup"], "price": "$$", "location": {"address1": "206 W Pratt St", "address2": "", "address3": "", "city": "Baltimore", "zip_code": "21201", "country": "US", "state": "MD", "display_address": ["206 W Pratt St", "Baltimore, MD 21201"]}, "phone": "+14102448900", "display_phone": "(410) 244-8900", "distance": 435.494335899464}, {"id": "Q9-rGHqJ5Q23VT1bFjXZpA", "alias": "the-waterfront-hotel-baltimore", "name": "The Waterfront Hotel", "image_url": "https://s3-media3.fl.yelpcdn.com/bphoto/XdlzZ6480L3zrx0sqwTkdQ/o.jpg", "is_closed": false, "url": "https://www.yelp.com/biz/the-waterfront-hotel-baltimore?adjust_creative=a2JdNtFqB-C38ga_06BHvw&utm_campaign=yelp_api_v3&utm_medium=api_v3_business_search&utm_source=a2JdNtFqB-C38ga_06BHvw", "review_count": 337, "categories": [{"alias": "newamerican", "title": "American (New)"}, {"alias": "breakfast_brunch", "title": "Breakfast & Brunch"}, {"alias": "pubs", "title": "Pubs"}], "rating": 3.5, "coordinates": {"latitude": 39.281993127486, "longitude": -76.5921308981476}, "transactions": ["delivery"], "price": "$$", "location": {"address1": "1710 Thames St", "address2": "", "address3": "", "city": "Baltimore", "zip_code": "21231", "country": "US", "state": "MD", "display_address": ["1710 Thames St", "Baltimore, MD 21231"]}, "phone": "+14105375055", "display_phone": "(410) 537-5055", "distance": 2550.838519775844}, {"id": "yPDeFO32NbrHYbpcuSNpTw", "alias": "sliders-bar-and-grille-baltimore-2", "name": "Sliders Bar & Grille", "image_url": "https://s3-media2.fl.yelpcdn.com/bphoto/tHxmoziAj1gtEaGcoqR0lg/o.jpg", "is_closed": false, "url": "https://www.yelp.com/biz/sliders-bar-and-grille-baltimore-2?adjust_creative=a2JdNtFqB-C38ga_06BHvw&utm_campaign=yelp_api_v3&utm_medium=api_v3_business_search&utm_source=a2JdNtFqB-C38ga_06BHvw", "review_count": 149, "categories": [{"alias": "tradamerican", "title": "American (Traditional)"}, {"alias": "sportsbars", "title": "Sports Bars"}, {"alias": "tacos", "title": "Tacos"}], "rating": 3.5, "coordinates": {"latitude": 39.28564, "longitude": -76.6226}, "transactions": ["delivery"], "price": "$$", "location": {"address1": "504 Washington Blvd", "address2": "", "address3": "", "city": "Baltimore", "zip_code": "21230", "country": "US", "state": "MD", "display_address": ["504 Washington Blvd", "Baltimore, MD 21230"]}, "phone": "+14105478891", "display_phone": "(410) 547-8891", "distance": 210.80549186046701}, {"id": "7BrQ0PkWk6K5kpZdJYrmxg", "alias": "lew-gambinos-baltimore", "name": "Lew Gambino's", "image_url": "https://s3-media4.fl.yelpcdn.com/bphoto/T3xRL8ysiBL5fBBUh6NQLw/o.jpg", "is_closed": false, "url": "https://www.yelp.com/biz/lew-gambinos-baltimore?adjust_creative=a2JdNtFqB-C38ga_06BHvw&utm_campaign=yelp_api_v3&utm_medium=api_v3_business_search&utm_source=a2JdNtFqB-C38ga_06BHvw", "review_count": 270, "categories": [{"alias": "italian", "title": "Italian"}, {"alias": "cocktailbars", "title": "Cocktail Bars"}], "rating": 3.5, "coordinates": {"latitude": 39.28655, "longitude": -76.60223}, "transactions": ["delivery", "pickup"], "price": "$$", "location": {"address1": "236 S High St", "address2": null, "address3": "", "city": "Baltimore", "zip_code": "21202", "country": "US", "state": "MD", "display_address": ["236 S High St", "Baltimore, MD 21202"]}, "phone": "+14106857733", "display_phone": "(410) 685-7733", "distance": 1707.795939862677}, {"id": "ThJR9dqTzQAFo1DV3w9Kww", "alias": "the-point-in-fells-baltimore-2", "name": "The Point in Fells", "image_url": "https://s3-media3.fl.yelpcdn.com/bphoto/uiTXIR4oK_LVMg4WgtgDnA/o.jpg", "is_closed": false, "url": "https://www.yelp.com/biz/the-point-in-fells-baltimore-2?adjust_creative=a2JdNtFqB-C38ga_06BHvw&utm_campaign=yelp_api_v3&utm_medium=api_v3_business_search&utm_source=a2JdNtFqB-C38ga_06BHvw", "review_count": 414, "categories": [{"alias": "newamerican", "title": "American (New)"}, {"alias": "pubs", "title": "Pubs"}, {"alias": "burgers", "title": "Burgers"}], "rating": 3.5, "coordinates": {"latitude": 39.2820421279263, "longitude": -76.5913116656042}, "transactions": ["delivery", "pickup"], "price": "$$", "location": {"address1": "1738 Thames St", "address2": null, "address3": "", "city": "Baltimore", "zip_code": "21231", "country": "US", "state": "MD", "display_address": ["1738 Thames St", "Baltimore, MD 21231"]}, "phone": "+14103277264", "display_phone": "(410) 327-7264", "distance": 2620.6799752558873}, {"id": "Hig7ebYshossaaVu0yKhjQ", "alias": "pane-e-vino-baltimore-2", "name": "Pane E Vino", "image_url": "https://s3-media1.fl.yelpcdn.com/bphoto/E9lDshKt_CDgwLCTL_oryA/o.jpg", "is_closed": false, "url": "https://www.yelp.com/biz/pane-e-vino-baltimore-2?adjust_creative=a2JdNtFqB-C38ga_06BHvw&utm_campaign=yelp_api_v3&utm_medium=api_v3_business_search&utm_source=a2JdNtFqB-C38ga_06BHvw", "review_count": 15, "categories": [{"alias": "wine_bars", "title": "Wine Bars"}, {"alias": "italian", "title": "Italian"}, {"alias": "cocktailbars", "title": "Cocktail Bars"}], "rating": 4.5, "coordinates": {"latitude": 39.2854179429081, "longitude": -76.6013611480594}, "transactions": [], "price": "$$", "location": {"address1": "408 S High St", "address2": "", "address3": null, "city": "Baltimore", "zip_code": "21202", "country": "US", "state": "MD", "display_address": ["408 S High St", "Baltimore, MD 21202"]}, "phone": "+14106853300", "display_phone": "(410) 685-3300", "distance": 1755.8906686375872}, {"id": "5CM8nuqd0od68GqQ-UGicQ", "alias": "cookhouse-baltimore-2", "name": "CookHouse", "image_url": "https://s3-media2.fl.yelpcdn.com/bphoto/N-2JWjDaDqu_BKjGeXJz7Q/o.jpg", "is_closed": false, "url": "https://www.yelp.com/biz/cookhouse-baltimore-2?adjust_creative=a2JdNtFqB-C38ga_06BHvw&utm_campaign=yelp_api_v3&utm_medium=api_v3_business_search&utm_source=a2JdNtFqB-C38ga_06BHvw", "review_count": 13, "categories": [{"alias": "newamerican", "title": "American (New)"}, {"alias": "cocktailbars", "title": "Cocktail Bars"}], "rating": 4.5, "coordinates": {"latitude": 39.30715667, "longitude": -76.62584833}, "transactions": ["delivery"], "location": {"address1": "1501 Bolton St", "address2": null, "address3": "", "city": "Baltimore", "zip_code": "21217", "country": "US", "state": "MD", "display_address": ["1501 Bolton St", "Baltimore, MD 21217"]}, "phone": "+14102259964", "display_phone": "(410) 225-9964", "distance": 2614.626983003782}, {"id": "bg_Gqd-ZNluTOR_fjtgzDQ", "alias": "pierpoint-restaurant-baltimore", "name": "Pierpoint Restaurant", "image_url": "https://s3-media2.fl.yelpcdn.com/bphoto/LAy-xU_DtFaQCl1DTySWfA/o.jpg", "is_closed": false, "url": "https://www.yelp.com/biz/pierpoint-restaurant-baltimore?adjust_creative=a2JdNtFqB-C38ga_06BHvw&utm_campaign=yelp_api_v3&utm_medium=api_v3_business_search&utm_source=a2JdNtFqB-C38ga_06BHvw", "review_count": 78, "categories": [{"alias": "newamerican", "title": "American (New)"}, {"alias": "seafood", "title": "Seafood"}, {"alias": "wine_bars", "title": "Wine Bars"}], "rating": 3.5, "coordinates": {"latitude": 39.28386, "longitude": -76.5903699}, "transactions": ["delivery"], "price": "$$$", "location": {"address1": "1822 Aliceanna St", "address2": "", "address3": "", "city": "Baltimore", "zip_code": "21231", "country": "US", "state": "MD", "display_address": ["1822 Aliceanna St", "Baltimore, MD 21231"]}, "phone": "+14106752080", "display_phone": "(410) 675-2080", "distance": 2692.5749938376653}, {"id": "s3ab0SOqV-bYZU0VDTWuxg", "alias": "poets-modern-cocktails-and-eats-baltimore", "name": "Poets Modern Cocktails and Eats", "image_url": "https://s3-media4.fl.yelpcdn.com/bphoto/0a0BU2JlvBTMAU0v2CvxNQ/o.jpg", "is_closed": false, "url": "https://www.yelp.com/biz/poets-modern-cocktails-and-eats-baltimore?adjust_creative=a2JdNtFqB-C38ga_06BHvw&utm_campaign=yelp_api_v3&utm_medium=api_v3_business_search&utm_source=a2JdNtFqB-C38ga_06BHvw", "review_count": 85, "categories": [{"alias": "newamerican", "title": "American (New)"}, {"alias": "cocktailbars", "title": "Cocktail Bars"}, {"alias": "breakfast_brunch", "title": "Breakfast & Brunch"}], "rating": 3.5, "coordinates": {"latitude": 39.2953689, "longitude": -76.6167852}, "transactions": [], "price": "$$", "location": {"address1": "24 W Franklin St", "address2": "", "address3": "", "city": "Baltimore", "zip_code": "21201", "country": "US", "state": "MD", "display_address": ["24 W Franklin St", "Baltimore, MD 21201"]}, "phone": "+14439613400", "display_phone": "(443) 961-3400", "distance": 1343.8645298864276}, {"id": "tsv8orCYzeIpMbXHP6DIQQ", "alias": "aj-s-on-hanover-baltimore", "name": "AJ’s on Hanover", "image_url": "https://s3-media4.fl.yelpcdn.com/bphoto/6KxQ9bwqtrx25q4VqvY-vw/o.jpg", "is_closed": false, "url": "https://www.yelp.com/biz/aj-s-on-hanover-baltimore?adjust_creative=a2JdNtFqB-C38ga_06BHvw&utm_campaign=yelp_api_v3&utm_medium=api_v3_business_search&utm_source=a2JdNtFqB-C38ga_06BHvw", "review_count": 70, "categories": [{"alias": "newamerican", "title": "American (New)"}, {"alias": "seafood", "title": "Seafood"}, {"alias": "cocktailbars", "title": "Cocktail Bars"}], "rating": 3.5, "coordinates": {"latitude": 39.27246, "longitude": -76.61552}, "transactions": [], "location": {"address1": "1500 S Hanover St", "address2": "", "address3": null, "city": "Baltimore", "zip_code": "21230", "country": "US", "state": "MD", "display_address": ["1500 S Hanover St", "Baltimore, MD 21230"]}, "phone": "+14108002657", "display_phone": "(410) 800-2657", "distance": 1376.821807660027}, {"id": "gsOH_hvERWyjHWp7YpHaOw", "alias": "dont-know-tavern-baltimore-2", "name": "Don't Know Tavern", "image_url": "https://s3-media1.fl.yelpcdn.com/bphoto/V9ZmhAlyzVlz7pKFnUG54Q/o.jpg", "is_closed": false, "url": "https://www.yelp.com/biz/dont-know-tavern-baltimore-2?adjust_creative=a2JdNtFqB-C38ga_06BHvw&utm_campaign=yelp_api_v3&utm_medium=api_v3_business_search&utm_source=a2JdNtFqB-C38ga_06BHvw", "review_count": 106, "categories": [{"alias": "sportsbars", "title": "Sports Bars"}, {"alias": "sandwiches", "title": "Sandwiches"}, {"alias": "tradamerican", "title": "American (Traditional)"}], "rating": 3.5, "coordinates": {"latitude": 39.27295, "longitude": -76.61151}, "transactions": ["delivery", "pickup"], "price": "$$", "location": {"address1": "1453 Light St", "address2": "", "address3": "", "city": "Baltimore", "zip_code": "21230", "country": "US", "state": "MD", "display_address": ["1453 Light St", "Baltimore, MD 21230"]}, "phone": "+14105390231", "display_phone": "(410) 539-0231", "distance": 1499.8684502585184}, {"id": "VSUhQMBKOXDut0orzdfWrQ", "alias": "crossbar-baltimore", "name": "Crossbar", "image_url": "https://s3-media3.fl.yelpcdn.com/bphoto/SltErZxzsuMu8T83mzaQXA/o.jpg", "is_closed": false, "url": "https://www.yelp.com/biz/crossbar-baltimore?adjust_creative=a2JdNtFqB-C38ga_06BHvw&utm_campaign=yelp_api_v3&utm_medium=api_v3_business_search&utm_source=a2JdNtFqB-C38ga_06BHvw", "review_count": 63, "categories": [{"alias": "german", "title": "German"}, {"alias": "beergardens", "title": "Beer Gardens"}, {"alias": "pubs", "title": "Pubs"}], "rating": 3.5, "coordinates": {"latitude": 39.27706, "longitude": -76.61366}, "transactions": ["delivery"], "price": "$$", "location": {"address1": "18 East Cross St", "address2": "", "address3": null, "city": "Baltimore", "zip_code": "21230", "country": "US", "state": "MD", "display_address": ["18 East Cross St", "Baltimore, MD 21230"]}, "phone": "+14434384013", "display_phone": "(443) 438-4013", "distance": 1030.0904401123503}, {"id": "EfGCZt9vjC5JEmMDoW1MJA", "alias": "turps-sports-bar-and-restaurant-baltimore", "name": "Turp's Sports Bar & Restaurant", "image_url": "https://s3-media1.fl.yelpcdn.com/bphoto/VpGxSimXFDiZUeFwEHIC7A/o.jpg", "is_closed": false, "url": "https://www.yelp.com/biz/turps-sports-bar-and-restaurant-baltimore?adjust_creative=a2JdNtFqB-C38ga_06BHvw&utm_campaign=yelp_api_v3&utm_medium=api_v3_business_search&utm_source=a2JdNtFqB-C38ga_06BHvw", "review_count": 127, "categories": [{"alias": "tradamerican", "title": "American (Traditional)"}, {"alias": "sportsbars", "title": "Sports Bars"}, {"alias": "burgers", "title": "Burgers"}], "rating": 3.0, "coordinates": {"latitude": 39.3052193, "longitude": -76.6160295}, "transactions": ["delivery", "pickup"], "price": "$$", "location": {"address1": "1317 N Charles St", "address2": "", "address3": "", "city": "Baltimore", "zip_code": "21201", "country": "US", "state": "MD", "display_address": ["1317 N Charles St", "Baltimore, MD 21201"]}, "phone": "+14103470349", "display_phone": "(410) 347-0349", "distance": 2414.371475893809}, {"id": "jCG_B8J7RlTUNwt50gmiBQ", "alias": "sabatinos-italian-restaurant-baltimore", "name": "Sabatino's Italian Restaurant", "image_url": "https://s3-media2.fl.yelpcdn.com/bphoto/T1xZbP0weFxbyZ4iqT-e8g/o.jpg", "is_closed": false, "url": "https://www.yelp.com/biz/sabatinos-italian-restaurant-baltimore?adjust_creative=a2JdNtFqB-C38ga_06BHvw&utm_campaign=yelp_api_v3&utm_medium=api_v3_business_search&utm_source=a2JdNtFqB-C38ga_06BHvw", "review_count": 400, "categories": [{"alias": "italian", "title": "Italian"}, {"alias": "wine_bars", "title": "Wine Bars"}, {"alias": "seafood", "title": "Seafood"}], "rating": 3.0, "coordinates": {"latitude": 39.2862, "longitude": -76.60155}, "transactions": ["delivery", "pickup"], "price": "$$", "location": {"address1": "901 Fawn St", "address2": "", "address3": "", "city": "Baltimore", "zip_code": "21202", "country": "US", "state": "MD", "display_address": ["901 Fawn St", "Baltimore, MD 21202"]}, "phone": "+14107272667", "display_phone": "(410) 727-2667", "distance": 1745.0711928645794}, {"id": "vr6I0ExL05roU2nop6_ydw", "alias": "watertable-baltimore", "name": "Watertable", "image_url": "https://s3-media2.fl.yelpcdn.com/bphoto/1CuIpaRcXuGQdhtfFKfN6g/o.jpg", "is_closed": false, "url": "https://www.yelp.com/biz/watertable-baltimore?adjust_creative=a2JdNtFqB-C38ga_06BHvw&utm_campaign=yelp_api_v3&utm_medium=api_v3_business_search&utm_source=a2JdNtFqB-C38ga_06BHvw", "review_count": 84, "categories": [{"alias": "newamerican", "title": "American (New)"}, {"alias": "breakfast_brunch", "title": "Breakfast & Brunch"}, {"alias": "cocktailbars", "title": "Cocktail Bars"}], "rating": 3.5, "coordinates": {"latitude": 39.2867551, "longitude": -76.611246}, "transactions": ["delivery"], "price": "$$", "location": {"address1": "202 E Pratt St", "address2": "", "address3": "", "city": "Baltimore", "zip_code": "21202", "country": "US", "state": "MD", "display_address": ["202 E Pratt St", "Baltimore, MD 21202"]}, "phone": "+14106858439", "display_phone": "(410) 685-8439", "distance": 976.2739774422871}, {"id": "xHBwztCojKjXCWDjSzjbkw", "alias": "the-yard-baltimore-5", "name": "The Yard", "image_url": "https://s3-media4.fl.yelpcdn.com/bphoto/FuMHDEZ1Y3GxnBARQz5lVw/o.jpg", "is_closed": false, "url": "https://www.yelp.com/biz/the-yard-baltimore-5?adjust_creative=a2JdNtFqB-C38ga_06BHvw&utm_campaign=yelp_api_v3&utm_medium=api_v3_business_search&utm_source=a2JdNtFqB-C38ga_06BHvw", "review_count": 65, "categories": [{"alias": "sportsbars", "title": "Sports Bars"}, {"alias": "tradamerican", "title": "American (Traditional)"}], "rating": 3.5, "coordinates": {"latitude": 39.28685, "longitude": -76.62138}, "transactions": [], "price": "$$", "location": {"address1": "110 South Eutaw St", "address2": null, "address3": null, "city": "Baltimore", "zip_code": "21201", "country": "US", "state": "MD", "display_address": ["110 South Eutaw St", "Baltimore, MD 21201"]}, "phone": "+14102092853", "display_phone": "(410) 209-2853", "distance": 358.43240174944776}, {"id": "lAAQgR-KPhO1UWWwKSYsig", "alias": "blk-swan-baltimore", "name": "BLK SWAN", "image_url": "https://s3-media2.fl.yelpcdn.com/bphoto/3lavdZoBEAXeDrDUaExsjw/o.jpg", "is_closed": false, "url": "https://www.yelp.com/biz/blk-swan-baltimore?adjust_creative=a2JdNtFqB-C38ga_06BHvw&utm_campaign=yelp_api_v3&utm_medium=api_v3_business_search&utm_source=a2JdNtFqB-C38ga_06BHvw", "review_count": 8, "categories": [{"alias": "newamerican", "title": "American (New)"}, {"alias": "cocktailbars", "title": "Cocktail Bars"}], "rating": 4.5, "coordinates": {"latitude": 39.284521, "longitude": -76.598812}, "transactions": [], "location": {"address1": "1302 Fleet St", "address2": "", "address3": null, "city": "Baltimore", "zip_code": "21202", "country": "US", "state": "MD", "display_address": ["1302 Fleet St", "Baltimore, MD 21202"]}, "phone": "+14435521956", "display_phone": "(443) 552-1956", "distance": 1972.6488354668898}, {"id": "l27HwWml7sa_EMGltfOwnw", "alias": "hair-of-the-dog-baltimore-2", "name": "Hair of the Dog", "image_url": "https://s3-media4.fl.yelpcdn.com/bphoto/ruOhKsUkabmI7NeGUD-CYw/o.jpg", "is_closed": false, "url": "https://www.yelp.com/biz/hair-of-the-dog-baltimore-2?adjust_creative=a2JdNtFqB-C38ga_06BHvw&utm_campaign=yelp_api_v3&utm_medium=api_v3_business_search&utm_source=a2JdNtFqB-C38ga_06BHvw", "review_count": 17, "categories": [{"alias": "sportsbars", "title": "Sports Bars"}, {"alias": "tradamerican", "title": "American (Traditional)"}, {"alias": "breakfast_brunch", "title": "Breakfast & Brunch"}], "rating": 4.0, "coordinates": {"latitude": 39.27059, "longitude": -76.61486}, "transactions": ["pickup", "delivery"], "location": {"address1": "1649 S Hanover St", "address2": "", "address3": null, "city": "Baltimore", "zip_code": "21230", "country": "US", "state": "MD", "display_address": ["1649 S Hanover St", "Baltimore, MD 21230"]}, "phone": "+14108140342", "display_phone": "(410) 814-0342", "distance": 1590.347037822179}, {"id": "n4RMDRIRg8fglwxjsDp5cw", "alias": "dempseys-brew-pub-and-restaurant-baltimore", "name": "Dempsey's Brew Pub & Restaurant", "image_url": "https://s3-media3.fl.yelpcdn.com/bphoto/HeM3c9-ZXu84UXImxnE2Bw/o.jpg", "is_closed": false, "url": "https://www.yelp.com/biz/dempseys-brew-pub-and-restaurant-baltimore?adjust_creative=a2JdNtFqB-C38ga_06BHvw&utm_campaign=yelp_api_v3&utm_medium=api_v3_business_search&utm_source=a2JdNtFqB-C38ga_06BHvw", "review_count": 148, "categories": [{"alias": "burgers", "title": "Burgers"}, {"alias": "salad", "title": "Salad"}, {"alias": "cocktailbars", "title": "Cocktail Bars"}], "rating": 3.0, "coordinates": {"latitude": 39.284142, "longitude": -76.620322}, "transactions": ["delivery"], "price": "$$", "location": {"address1": "333 W Camden St", "address2": "", "address3": "Flat 1", "city": "Baltimore", "zip_code": "21201", "country": "US", "state": "MD", "display_address": ["333 W Camden St", "Flat 1", "Baltimore, MD 21201"]}, "phone": "+14108437901", "display_phone": "(410) 843-7901", "distance": 119.1290150999941}, {"id": "EU8bu0LB6s_DcBQ94geT3A", "alias": "brazil-gourmet-market-place-café-and-restaurant-baltimore", "name": "Brazil Gourmet Market Place Café & Restaurant", "image_url": "https://s3-media2.fl.yelpcdn.com/bphoto/Rks9z0DQHq6lQxZbtKMf8A/o.jpg", "is_closed": false, "url": "https://www.yelp.com/biz/brazil-gourmet-market-place-caf%C3%A9-and-restaurant-baltimore?adjust_creative=a2JdNtFqB-C38ga_06BHvw&utm_campaign=yelp_api_v3&utm_medium=api_v3_business_search&utm_source=a2JdNtFqB-C38ga_06BHvw", "review_count": 8, "categories": [{"alias": "cafeteria", "title": "Cafeteria"}, {"alias": "brazilian", "title": "Brazilian"}, {"alias": "cocktailbars", "title": "Cocktail Bars"}], "rating": 4.5, "coordinates": {"latitude": 39.28594, "longitude": -76.58865}, "transactions": ["pickup", "delivery"], "location": {"address1": "2000 Eastern Ave", "address2": null, "address3": "", "city": "Baltimore", "zip_code": "21231", "country": "US", "state": "MD", "display_address": ["2000 Eastern Ave", "Baltimore, MD 21231"]}, "phone": "+14102762198", "display_phone": "(410) 276-2198", "distance": 2850.2935584266684}, {"id": "jnpgh7kFh7-gsMv-pZ1Cxg", "alias": "spirits-west-baltimore", "name": "Spirits West", "image_url": "https://s3-media2.fl.yelpcdn.com/bphoto/6M6i-FIU6964Tm-gRutWpw/o.jpg", "is_closed": false, "url": "https://www.yelp.com/biz/spirits-west-baltimore?adjust_creative=a2JdNtFqB-C38ga_06BHvw&utm_campaign=yelp_api_v3&utm_medium=api_v3_business_search&utm_source=a2JdNtFqB-C38ga_06BHvw", "review_count": 5, "categories": [{"alias": "soup", "title": "Soup"}, {"alias": "burgers", "title": "Burgers"}, {"alias": "sportsbars", "title": "Sports Bars"}], "rating": 5.0, "coordinates": {"latitude": 39.27864, "longitude": -76.65605}, "transactions": [], "price": "$$", "location": {"address1": "2601 Wilkens Ave", "address2": "Ste 1", "address3": "", "city": "Baltimore", "zip_code": "21223", "country": "US", "state": "MD", "display_address": ["2601 Wilkens Ave", "Ste 1", "Baltimore, MD 21223"]}, "phone": "+14109451011", "display_phone": "(410) 945-1011", "distance": 3019.214435602561}, {"id": "JdEV4eaX_mKeFgwFO07rwA", "alias": "bunzzz-sports-bar-and-grill-baltimore", "name": "Bunzzz Sports Bar & Grill", "image_url": "https://s3-media3.fl.yelpcdn.com/bphoto/chP7tEjj3qy7NslW1YlYTA/o.jpg", "is_closed": false, "url": "https://www.yelp.com/biz/bunzzz-sports-bar-and-grill-baltimore?adjust_creative=a2JdNtFqB-C38ga_06BHvw&utm_campaign=yelp_api_v3&utm_medium=api_v3_business_search&utm_source=a2JdNtFqB-C38ga_06BHvw", "review_count": 78, "categories": [{"alias": "sportsbars", "title": "Sports Bars"}, {"alias": "breakfast_brunch", "title": "Breakfast & Brunch"}, {"alias": "tradamerican", "title": "American (Traditional)"}], "rating": 2.5, "coordinates": {"latitude": 39.287049, "longitude": -76.611446}, "transactions": ["pickup", "delivery"], "price": "$$", "location": {"address1": "200 E Pratt St", "address2": "", "address3": null, "city": "Baltimore", "zip_code": "21202", "country": "US", "state": "MD", "display_address": ["200 E Pratt St", "Baltimore, MD 21202"]}, "phone": "+14107277700", "display_phone": "(410) 727-7700", "distance": 947.2499079592932}, {"id": "1NSAo5aoGkwqUFb67K0Muw", "alias": "luckies-tavern-baltimore", "name": "Luckie's Tavern", "image_url": "https://s3-media3.fl.yelpcdn.com/bphoto/2wCT-TCPepS42HKs8vi0tw/o.jpg", "is_closed": false, "url": "https://www.yelp.com/biz/luckies-tavern-baltimore?adjust_creative=a2JdNtFqB-C38ga_06BHvw&utm_campaign=yelp_api_v3&utm_medium=api_v3_business_search&utm_source=a2JdNtFqB-C38ga_06BHvw", "review_count": 76, "categories": [{"alias": "sportsbars", "title": "Sports Bars"}, {"alias": "tradamerican", "title": "American (Traditional)"}], "rating": 2.5, "coordinates": {"latitude": 39.28906, "longitude": -76.60659}, "transactions": ["pickup", "delivery"], "price": "$$", "location": {"address1": "10 Market Pl", "address2": "", "address3": "", "city": "Baltimore", "zip_code": "21202", "country": "US", "state": "MD", "display_address": ["10 Market Pl", "Baltimore, MD 21202"]}, "phone": "+14102231105", "display_phone": "(410) 223-1105", "distance": 1411.7238387197915}, {"id": "An1oHvu7wpCD6OtJ3-j8JQ", "alias": "riptide-baltimore", "name": "Riptide", "image_url": "https://s3-media4.fl.yelpcdn.com/bphoto/3Meuc3U_O42jZlHyX0xCjQ/o.jpg", "is_closed": false, "url": "https://www.yelp.com/biz/riptide-baltimore?adjust_creative=a2JdNtFqB-C38ga_06BHvw&utm_campaign=yelp_api_v3&utm_medium=api_v3_business_search&utm_source=a2JdNtFqB-C38ga_06BHvw", "review_count": 6, "categories": [{"alias": "seafood", "title": "Seafood"}, {"alias": "pubs", "title": "Pubs"}, {"alias": "newamerican", "title": "American (New)"}], "rating": 4.0, "coordinates": {"latitude": 39.28215, "longitude": -76.5919}, "transactions": ["pickup", "delivery"], "location": {"address1": "1718 Thames St", "address2": null, "address3": "", "city": "Baltimore", "zip_code": "21231", "country": "US", "state": "MD", "display_address": ["1718 Thames St", "Baltimore, MD 21231"]}, "phone": "+14434385943", "display_phone": "(443) 438-5943", "distance": 2569.1021159608317}, {"id": "PnfzfD7Aoamr-l-p9w5DeQ", "alias": "hooters-baltimore-4", "name": "Hooters", "image_url": "https://s3-media1.fl.yelpcdn.com/bphoto/KDmdztMQxz2SHis8ilatcA/o.jpg", "is_closed": false, "url": "https://www.yelp.com/biz/hooters-baltimore-4?adjust_creative=a2JdNtFqB-C38ga_06BHvw&utm_campaign=yelp_api_v3&utm_medium=api_v3_business_search&utm_source=a2JdNtFqB-C38ga_06BHvw", "review_count": 70, "categories": [{"alias": "sportsbars", "title": "Sports Bars"}, {"alias": "tradamerican", "title": "American (Traditional)"}, {"alias": "chicken_wings", "title": "Chicken Wings"}], "rating": 2.0, "coordinates": {"latitude": 39.2849065, "longitude": -76.6128338}, "transactions": ["pickup", "delivery"], "location": {"address1": "301 Light St", "address2": "Ste 173", "address3": null, "city": "Baltimore", "zip_code": "21202", "country": "US", "state": "MD", "display_address": ["301 Light St", "Ste 173", "Baltimore, MD 21202"]}, "phone": "+14102440367", "display_phone": "(410) 244-0367", "distance": 768.6126560605253}, {"id": "Xi-FSpjXfLV7aOWGgbW0Jw", "alias": "homeslyce-baltimore-6", "name": "HomeSlyce", "image_url": "", "is_closed": false, "url": "https://www.yelp.com/biz/homeslyce-baltimore-6?adjust_creative=a2JdNtFqB-C38ga_06BHvw&utm_campaign=yelp_api_v3&utm_medium=api_v3_business_search&utm_source=a2JdNtFqB-C38ga_06BHvw", "review_count": 1, "categories": [{"alias": "sportsbars", "title": "Sports Bars"}, {"alias": "tradamerican", "title": "American (Traditional)"}, {"alias": "pizza", "title": "Pizza"}], "rating": 5.0, "coordinates": {"latitude": 39.269686, "longitude": -76.611489}, "transactions": ["pickup", "delivery"], "location": {"address1": "1741 Light Street", "address2": null, "address3": null, "city": "Baltimore", "zip_code": "21230", "country": "US", "state": "MD", "display_address": ["1741 Light Street", "Baltimore, MD 21230"]}, "phone": "+14435014000", "display_phone": "(443) 501-4000", "distance": 1808.0156679146392}, {"id": "LGkpPF_0qonTDVSfPhR9SQ", "alias": "rymks-bar-and-grille-baltimore", "name": "RYMKS Bar and Grille", "image_url": "https://s3-media2.fl.yelpcdn.com/bphoto/p0lpKI9xTQm7vBoOWgoTJQ/o.jpg", "is_closed": false, "url": "https://www.yelp.com/biz/rymks-bar-and-grille-baltimore?adjust_creative=a2JdNtFqB-C38ga_06BHvw&utm_campaign=yelp_api_v3&utm_medium=api_v3_business_search&utm_source=a2JdNtFqB-C38ga_06BHvw", "review_count": 1, "categories": [{"alias": "soulfood", "title": "Soul Food"}, {"alias": "sportsbars", "title": "Sports Bars"}, {"alias": "breakfast_brunch", "title": "Breakfast & Brunch"}], "rating": 5.0, "coordinates": {"latitude": 39.28725, "longitude": -76.60299}, "transactions": ["pickup", "delivery"], "location": {"address1": "819 E Pratt St", "address2": null, "address3": "", "city": "Baltimore", "zip_code": "21202", "country": "US", "state": "MD", "display_address": ["819 E Pratt St", "Baltimore, MD 21202"]}, "phone": "+14108782067", "display_phone": "(410) 878-2067", "distance": 1641.2288550477715}, {"id": "LJuWxPZAA00o8aAVY6A3lA", "alias": "harbor-sports-bar-and-grill-baltimore", "name": "Harbor Sports Bar and Grill", "image_url": "https://s3-media3.fl.yelpcdn.com/bphoto/K22YKanzfJF9g5MUzLCgPA/o.jpg", "is_closed": false, "url": "https://www.yelp.com/biz/harbor-sports-bar-and-grill-baltimore?adjust_creative=a2JdNtFqB-C38ga_06BHvw&utm_campaign=yelp_api_v3&utm_medium=api_v3_business_search&utm_source=a2JdNtFqB-C38ga_06BHvw", "review_count": 15, "categories": [{"alias": "tradamerican", "title": "American (Traditional)"}, {"alias": "sportsbars", "title": "Sports Bars"}], "rating": 1.5, "coordinates": {"latitude": 39.2899, "longitude": -76.61709}, "transactions": [], "location": {"address1": "101 W Fayette St", "address2": "", "address3": null, "city": "Baltimore", "zip_code": "21201", "country": "US", "state": "MD", "display_address": ["101 W Fayette St", "Baltimore, MD 21201"]}, "phone": "+14107521100", "display_phone": "(410) 752-1100", "distance": 792.2452712300801}, {"id": "bVfLMTPGHvDUSiJ25Ob8LA", "alias": "taco-love-grill-baltimore", "name": "Taco Love Grill", "image_url": "https://s3-media2.fl.yelpcdn.com/bphoto/liwY_Vo_6vGMixEqVVO58Q/o.jpg", "is_closed": false, "url": "https://www.yelp.com/biz/taco-love-grill-baltimore?adjust_creative=a2JdNtFqB-C38ga_06BHvw&utm_campaign=yelp_api_v3&utm_medium=api_v3_business_search&utm_source=a2JdNtFqB-C38ga_06BHvw", "review_count": 1, "categories": [{"alias": "mexican", "title": "Mexican"}, {"alias": "cocktailbars", "title": "Cocktail Bars"}], "rating": 4.0, "coordinates": {"latitude": 39.27681, "longitude": -76.61333}, "transactions": ["pickup", "delivery"], "location": {"address1": "1065 S Charles St", "address2": "Ste 128", "address3": null, "city": "Baltimore", "zip_code": "21230", "country": "US", "state": "MD", "display_address": ["1065 S Charles St", "Ste 128", "Baltimore, MD 21230"]}, "phone": "", "display_phone": "", "distance": 1069.3479045855474}], "absolute total": 75, "total": 75}