{"league": "MLB", "team": "Boston Red Sox", "stadium": "Fenway Park", "stadium latitude": 42.34625, "stadium longitude": -71.09775, "radius": "3000 meters", "city": "Boston", "state": "Massachusetts", "businesses": [{"id": "sYwiUHojCnVM7dZAhFWrmw", "alias": "curio-coffee-and-wine-cambridge-2", "name": "Curio Coffee and Wine", "image_url": "https://s3-media1.fl.yelpcdn.com/bphoto/m5yW5Kxo8OxgdrroJ3R2nQ/o.jpg", "is_closed": false, "url": "https://www.yelp.com/biz/curio-coffee-and-wine-cambridge-2?adjust_creative=a2JdNtFqB-C38ga_06BHvw&utm_campaign=yelp_api_v3&utm_medium=api_v3_business_search&utm_source=a2JdNtFqB-C38ga_06BHvw", "review_count": 214, "categories": [{"alias": "coffee", "title": "Coffee & Tea"}, {"alias": "waffles", "title": "Waffles"}, {"alias": "wine_bars", "title": "Wine Bars"}], "rating": 4.5, "coordinates": {"latitude": 42.3716, "longitude": -71.0836}, "transactions": ["delivery"], "price": "$", "location": {"address1": "441 Cambridge St", "address2": "", "address3": "", "city": "Cambridge", "zip_code": "02141", "country": "US", "state": "MA", "display_address": ["441 Cambridge St", "Cambridge, MA 02141"]}, "phone": "+18572423018", "display_phone": "(857) 242-3018", "distance": 3054.3641843131472}, {"id": "BRjvpMJ8C_1_mdB3n3tAgA", "alias": "mahaniyom-brookline", "name": "Mahaniyom", "image_url": "https://s3-media4.fl.yelpcdn.com/bphoto/oHxG4Kv1-duian5rWzbdJw/o.jpg", "is_closed": false, "url": "https://www.yelp.com/biz/mahaniyom-brookline?adjust_creative=a2JdNtFqB-C38ga_06BHvw&utm_campaign=yelp_api_v3&utm_medium=api_v3_business_search&utm_source=a2JdNtFqB-C38ga_06BHvw", "review_count": 72, "categories": [{"alias": "cocktailbars", "title": "Cocktail Bars"}, {"alias": "thai", "title": "Thai"}, {"alias": "tapasmallplates", "title": "Tapas/Small Plates"}], "rating": 5.0, "coordinates": {"latitude": 42.332649, "longitude": -71.118843}, "transactions": ["pickup", "delivery"], "location": {"address1": "236 Washington St", "address2": null, "address3": null, "city": "Brookline", "zip_code": "02445", "country": "US", "state": "MA", "display_address": ["236 Washington St", "Brookline, MA 02445"]}, "phone": "", "display_phone": "", "distance": 2301.643870390228}, {"id": "5NsdznaNSUmH2O0vuo65Pw", "alias": "cornish-pasty-boston-3", "name": "Cornish Pasty", "image_url": "https://s3-media1.fl.yelpcdn.com/bphoto/Y9B61ykXnO5njHnuUeUaRA/o.jpg", "is_closed": false, "url": "https://www.yelp.com/biz/cornish-pasty-boston-3?adjust_creative=a2JdNtFqB-C38ga_06BHvw&utm_campaign=yelp_api_v3&utm_medium=api_v3_business_search&utm_source=a2JdNtFqB-C38ga_06BHvw", "review_count": 287, "categories": [{"alias": "british", "title": "British"}, {"alias": "vegetarian", "title": "Vegetarian"}, {"alias": "cocktailbars", "title": "Cocktail Bars"}], "rating": 4.5, "coordinates": {"latitude": 42.34972501490227, "longitude": -71.08928532990568}, "transactions": ["delivery"], "price": "$$", "location": {"address1": "51A Massachusetts Ave", "address2": "", "address3": null, "city": "Boston", "zip_code": "02115", "country": "US", "state": "MA", "display_address": ["51A Massachusetts Ave", "Boston, MA 02115"]}, "phone": "+18572504497", "display_phone": "(857) 250-4497", "distance": 795.7443847527308}, {"id": "sA2gVTJOBH7Qk32p48ENdQ", "alias": "saltie-girl-boston", "name": "Saltie Girl", "image_url": "https://s3-media1.fl.yelpcdn.com/bphoto/-EtLhpzPRnoKYzWJNt3U5w/o.jpg", "is_closed": false, "url": "https://www.yelp.com/biz/saltie-girl-boston?adjust_creative=a2JdNtFqB-C38ga_06BHvw&utm_campaign=yelp_api_v3&utm_medium=api_v3_business_search&utm_source=a2JdNtFqB-C38ga_06BHvw", "review_count": 1180, "categories": [{"alias": "seafood", "title": "Seafood"}, {"alias": "cocktailbars", "title": "Cocktail Bars"}], "rating": 4.5, "coordinates": {"latitude": 42.3511377, "longitude": -71.0776626}, "transactions": ["pickup", "delivery"], "price": "$$$", "location": {"address1": "281 Dartmouth St", "address2": "", "address3": null, "city": "Boston", "zip_code": "02116", "country": "US", "state": "MA", "display_address": ["281 Dartmouth St", "Boston, MA 02116"]}, "phone": "+16172670691", "display_phone": "(617) 267-0691", "distance": 1735.762666576297}, {"id": "poswq7BdLM9Iryd9palDVQ", "alias": "srv-boston-boston", "name": "SRV Boston", "image_url": "https://s3-media3.fl.yelpcdn.com/bphoto/BSJlma7xL1QSTFdFsXd13A/o.jpg", "is_closed": false, "url": "https://www.yelp.com/biz/srv-boston-boston?adjust_creative=a2JdNtFqB-C38ga_06BHvw&utm_campaign=yelp_api_v3&utm_medium=api_v3_business_search&utm_source=a2JdNtFqB-C38ga_06BHvw", "review_count": 436, "categories": [{"alias": "italian", "title": "Italian"}, {"alias": "wine_bars", "title": "Wine Bars"}], "rating": 4.5, "coordinates": {"latitude": 42.3409180006501, "longitude": -71.0816150531173}, "transactions": ["delivery"], "price": "$$$", "location": {"address1": "569 Columbus Ave", "address2": "", "address3": "", "city": "Boston", "zip_code": "02118", "country": "US", "state": "MA", "display_address": ["569 Columbus Ave", "Boston, MA 02118"]}, "phone": "+16175369500", "display_phone": "(617) 536-9500", "distance": 1452.5770781031692}, {"id": "Z6Io2AbJrof7TPVliMZkAg", "alias": "fuji-at-ink-block-boston", "name": "Fuji at Ink Block", "image_url": "https://s3-media2.fl.yelpcdn.com/bphoto/xhHJpc9D6MyI-zJgyXdLzw/o.jpg", "is_closed": false, "url": "https://www.yelp.com/biz/fuji-at-ink-block-boston?adjust_creative=a2JdNtFqB-C38ga_06BHvw&utm_campaign=yelp_api_v3&utm_medium=api_v3_business_search&utm_source=a2JdNtFqB-C38ga_06BHvw", "review_count": 472, "categories": [{"alias": "japanese", "title": "Japanese"}, {"alias": "sushi", "title": "Sushi Bars"}, {"alias": "cocktailbars", "title": "Cocktail Bars"}], "rating": 4.5, "coordinates": {"latitude": 42.345077, "longitude": -71.063505}, "transactions": ["restaurant_reservation", "pickup", "delivery"], "price": "$$", "location": {"address1": "352 Harrison Ave", "address2": "Ste B", "address3": null, "city": "Boston", "zip_code": "02118", "country": "US", "state": "MA", "display_address": ["352 Harrison Ave", "Ste B", "Boston, MA 02118"]}, "phone": "+16179363282", "display_phone": "(617) 936-3282", "distance": 2817.393554253202}, {"id": "mP1EdIafQKMuOm9O4PzAfA", "alias": "barcelona-wine-bar-south-end-boston-6", "name": "Barcelona Wine Bar South End", "image_url": "https://s3-media4.fl.yelpcdn.com/bphoto/5lBFhbGSGHiSALgZHBa7XQ/o.jpg", "is_closed": false, "url": "https://www.yelp.com/biz/barcelona-wine-bar-south-end-boston-6?adjust_creative=a2JdNtFqB-C38ga_06BHvw&utm_campaign=yelp_api_v3&utm_medium=api_v3_business_search&utm_source=a2JdNtFqB-C38ga_06BHvw", "review_count": 1135, "categories": [{"alias": "spanish", "title": "Spanish"}, {"alias": "wine_bars", "title": "Wine Bars"}, {"alias": "tapasmallplates", "title": "Tapas/Small Plates"}], "rating": 4.5, "coordinates": {"latitude": 42.3449355147724, "longitude": -71.0705436362457}, "transactions": ["delivery"], "price": "$$", "location": {"address1": "525 Tremont St", "address2": null, "address3": "", "city": "Boston", "zip_code": "02116", "country": "US", "state": "MA", "display_address": ["525 Tremont St", "Boston, MA 02116"]}, "phone": "+16172662600", "display_phone": "(617) 266-2600", "distance": 2240.688113964993}, {"id": "XUepp8T9xSMBuvlEG_-DrQ", "alias": "the-capital-grille-boston-3", "name": "The Capital Grille", "image_url": "https://s3-media3.fl.yelpcdn.com/bphoto/cpGXZdh-U46cHORvWfhnQg/o.jpg", "is_closed": false, "url": "https://www.yelp.com/biz/the-capital-grille-boston-3?adjust_creative=a2JdNtFqB-C38ga_06BHvw&utm_campaign=yelp_api_v3&utm_medium=api_v3_business_search&utm_source=a2JdNtFqB-C38ga_06BHvw", "review_count": 954, "categories": [{"alias": "steak", "title": "Steakhouses"}, {"alias": "seafood", "title": "Seafood"}, {"alias": "wine_bars", "title": "Wine Bars"}], "rating": 4.5, "coordinates": {"latitude": 42.3478110031284, "longitude": -71.0851110928626}, "transactions": [], "price": "$$$$", "location": {"address1": "900 Boylston St", "address2": "", "address3": "", "city": "Boston", "zip_code": "02115", "country": "US", "state": "MA", "display_address": ["900 Boylston St", "Boston, MA 02115"]}, "phone": "+16172628900", "display_phone": "(617) 262-8900", "distance": 1053.08987922155}, {"id": "l4YpEuvIm_RqNXleuDIthw", "alias": "ma-maison-boston", "name": "Ma Maison", "image_url": "https://s3-media2.fl.yelpcdn.com/bphoto/Mk3xbb1Py3x3eTio3rRvDQ/o.jpg", "is_closed": false, "url": "https://www.yelp.com/biz/ma-maison-boston?adjust_creative=a2JdNtFqB-C38ga_06BHvw&utm_campaign=yelp_api_v3&utm_medium=api_v3_business_search&utm_source=a2JdNtFqB-C38ga_06BHvw", "review_count": 268, "categories": [{"alias": "french", "title": "French"}, {"alias": "cocktailbars", "title": "Cocktail Bars"}, {"alias": "wine_bars", "title": "Wine Bars"}], "rating": 4.5, "coordinates": {"latitude": 42.3609838, "longitude": -71.0680064}, "transactions": ["delivery"], "price": "$$", "location": {"address1": "272 Cambridge St", "address2": null, "address3": "", "city": "Boston", "zip_code": "02114", "country": "US", "state": "MA", "display_address": ["272 Cambridge St", "Boston, MA 02114"]}, "phone": "+16177258855", "display_phone": "(617) 725-8855", "distance": 2942.4199763941024}, {"id": "lCMN0raxlHnBFDoLgkz4sw", "alias": "milkweed-boston", "name": "Milkweed", "image_url": "https://s3-media3.fl.yelpcdn.com/bphoto/n6gTm3ms_PnFNUBufgaUtw/o.jpg", "is_closed": false, "url": "https://www.yelp.com/biz/milkweed-boston?adjust_creative=a2JdNtFqB-C38ga_06BHvw&utm_campaign=yelp_api_v3&utm_medium=api_v3_business_search&utm_source=a2JdNtFqB-C38ga_06BHvw", "review_count": 703, "categories": [{"alias": "newamerican", "title": "American (New)"}, {"alias": "breakfast_brunch", "title": "Breakfast & Brunch"}, {"alias": "cocktailbars", "title": "Cocktail Bars"}], "rating": 4.5, "coordinates": {"latitude": 42.332183, "longitude": -71.099586}, "transactions": ["delivery"], "price": "$$", "location": {"address1": "1508 Tremont St", "address2": "", "address3": null, "city": "Boston", "zip_code": "02120", "country": "US", "state": "MA", "display_address": ["1508 Tremont St", "Boston, MA 02120"]}, "phone": "+16175168913", "display_phone": "(617) 516-8913", "distance": 1571.4397005940614}, {"id": "NYa-JphaaB41ElGsb3iawA", "alias": "toro-boston-2", "name": "Toro", "image_url": "https://s3-media2.fl.yelpcdn.com/bphoto/vavJneJjBulHvZAGit-bdQ/o.jpg", "is_closed": false, "url": "https://www.yelp.com/biz/toro-boston-2?adjust_creative=a2JdNtFqB-C38ga_06BHvw&utm_campaign=yelp_api_v3&utm_medium=api_v3_business_search&utm_source=a2JdNtFqB-C38ga_06BHvw", "review_count": 2191, "categories": [{"alias": "tapas", "title": "Tapas Bars"}, {"alias": "spanish", "title": "Spanish"}, {"alias": "cocktailbars", "title": "Cocktail Bars"}], "rating": 4.0, "coordinates": {"latitude": 42.33698788, "longitude": -71.07592429}, "transactions": ["delivery"], "price": "$$$", "location": {"address1": "1704 Washington St", "address2": null, "address3": "", "city": "Boston", "zip_code": "02118", "country": "US", "state": "MA", "display_address": ["1704 Washington St", "Boston, MA 02118"]}, "phone": "+16175364300", "display_phone": "(617) 536-4300", "distance": 2068.4563448769286}, {"id": "AGR_kBvN__I7aTl0rBywAg", "alias": "atlantic-fish-co-boston-3", "name": "Atlantic Fish Co", "image_url": "https://s3-media3.fl.yelpcdn.com/bphoto/xJusgkYOtbNvBmf0Hzay5A/o.jpg", "is_closed": false, "url": "https://www.yelp.com/biz/atlantic-fish-co-boston-3?adjust_creative=a2JdNtFqB-C38ga_06BHvw&utm_campaign=yelp_api_v3&utm_medium=api_v3_business_search&utm_source=a2JdNtFqB-C38ga_06BHvw", "review_count": 2612, "categories": [{"alias": "seafood", "title": "Seafood"}, {"alias": "raw_food", "title": "Live/Raw Food"}, {"alias": "cocktailbars", "title": "Cocktail Bars"}], "rating": 4.0, "coordinates": {"latitude": 42.3492217873536, "longitude": -71.0811272917217}, "transactions": ["pickup", "delivery"], "price": "$$$", "location": {"address1": "761 Boylston St", "address2": "", "address3": "", "city": "Boston", "zip_code": "02116", "country": "US", "state": "MA", "display_address": ["761 Boylston St", "Boston, MA 02116"]}, "phone": "+16172674000", "display_phone": "(617) 267-4000", "distance": 1405.4656737764496}, {"id": "qJxjhLQjLcYnpcqqDHS3Jg", "alias": "puro-ceviche-bar-boston", "name": "PURO ceviche bar", "image_url": "https://s3-media1.fl.yelpcdn.com/bphoto/8BTFNTUAOE4q6TZqXwGbAw/o.jpg", "is_closed": false, "url": "https://www.yelp.com/biz/puro-ceviche-bar-boston?adjust_creative=a2JdNtFqB-C38ga_06BHvw&utm_campaign=yelp_api_v3&utm_medium=api_v3_business_search&utm_source=a2JdNtFqB-C38ga_06BHvw", "review_count": 210, "categories": [{"alias": "wine_bars", "title": "Wine Bars"}, {"alias": "cocktailbars", "title": "Cocktail Bars"}, {"alias": "seafood", "title": "Seafood"}], "rating": 4.5, "coordinates": {"latitude": 42.34918, "longitude": -71.08311}, "transactions": ["pickup", "delivery"], "price": "$$", "location": {"address1": "264 Newbury St", "address2": "", "address3": null, "city": "Boston", "zip_code": "02116", "country": "US", "state": "MA", "display_address": ["264 Newbury St", "Boston, MA 02116"]}, "phone": "+16172660707", "display_phone": "(617) 266-0707", "distance": 1245.9462173457252}, {"id": "mnFhrH1Fi5GoSuV-5gVpnA", "alias": "krasi-boston-2", "name": "Krasi", "image_url": "https://s3-media1.fl.yelpcdn.com/bphoto/n-8awQswA1SEZQxh2YYvLQ/o.jpg", "is_closed": false, "url": "https://www.yelp.com/biz/krasi-boston-2?adjust_creative=a2JdNtFqB-C38ga_06BHvw&utm_campaign=yelp_api_v3&utm_medium=api_v3_business_search&utm_source=a2JdNtFqB-C38ga_06BHvw", "review_count": 114, "categories": [{"alias": "mediterranean", "title": "Mediterranean"}, {"alias": "greek", "title": "Greek"}, {"alias": "wine_bars", "title": "Wine Bars"}], "rating": 4.5, "coordinates": {"latitude": 42.3486717927888, "longitude": -71.084109}, "transactions": ["delivery"], "location": {"address1": "48 Gloucester St", "address2": "", "address3": null, "city": "Boston", "zip_code": "02115", "country": "US", "state": "MA", "display_address": ["48 Gloucester St", "Boston, MA 02115"]}, "phone": "+16175360230", "display_phone": "(617) 536-0230", "distance": 1152.923074430436}, {"id": "bZhUufqdpg5qxsDKpIRv5A", "alias": "bar-mezzana-boston", "name": "Bar Mezzana", "image_url": "https://s3-media3.fl.yelpcdn.com/bphoto/koVRELUq0ylAM5RzbSkhTQ/o.jpg", "is_closed": false, "url": "https://www.yelp.com/biz/bar-mezzana-boston?adjust_creative=a2JdNtFqB-C38ga_06BHvw&utm_campaign=yelp_api_v3&utm_medium=api_v3_business_search&utm_source=a2JdNtFqB-C38ga_06BHvw", "review_count": 351, "categories": [{"alias": "italian", "title": "Italian"}, {"alias": "cocktailbars", "title": "Cocktail Bars"}], "rating": 4.0, "coordinates": {"latitude": 42.3445756001492, "longitude": -71.0635791144088}, "transactions": ["delivery"], "price": "$$$", "location": {"address1": "360 Harrison Ave", "address2": "", "address3": "", "city": "Boston", "zip_code": "02118", "country": "US", "state": "MA", "display_address": ["360 Harrison Ave", "Boston, MA 02118"]}, "phone": "+16175301770", "display_phone": "(617) 530-1770", "distance": 2814.458061822452}, {"id": "twXlQB0UMBrAVas53QN9BA", "alias": "mida-boston", "name": "MIDA", "image_url": "https://s3-media1.fl.yelpcdn.com/bphoto/U08KNzULz8qTAz7q-uirsA/o.jpg", "is_closed": false, "url": "https://www.yelp.com/biz/mida-boston?adjust_creative=a2JdNtFqB-C38ga_06BHvw&utm_campaign=yelp_api_v3&utm_medium=api_v3_business_search&utm_source=a2JdNtFqB-C38ga_06BHvw", "review_count": 326, "categories": [{"alias": "italian", "title": "Italian"}, {"alias": "wine_bars", "title": "Wine Bars"}, {"alias": "noodles", "title": "Noodles"}], "rating": 4.0, "coordinates": {"latitude": 42.3390798790878, "longitude": -71.0804313331291}, "transactions": ["delivery"], "price": "$$$", "location": {"address1": "782 Tremont St", "address2": "", "address3": null, "city": "Boston", "zip_code": "02118", "country": "US", "state": "MA", "display_address": ["782 Tremont St", "Boston, MA 02118"]}, "phone": "+16179363490", "display_phone": "(617) 936-3490", "distance": 1631.4578682534518}, {"id": "8dZZy6AV4Bu_ftoDKQWpEQ", "alias": "saloniki-greek-cambridge-4", "name": "Saloniki Greek", "image_url": "https://s3-media2.fl.yelpcdn.com/bphoto/0uGy1L8EdcN3xnay1TLPRg/o.jpg", "is_closed": false, "url": "https://www.yelp.com/biz/saloniki-greek-cambridge-4?adjust_creative=a2JdNtFqB-C38ga_06BHvw&utm_campaign=yelp_api_v3&utm_medium=api_v3_business_search&utm_source=a2JdNtFqB-C38ga_06BHvw", "review_count": 212, "categories": [{"alias": "greek", "title": "Greek"}, {"alias": "cocktailbars", "title": "Cocktail Bars"}, {"alias": "mediterranean", "title": "Mediterranean"}], "rating": 4.5, "coordinates": {"latitude": 42.37264, "longitude": -71.11901}, "transactions": ["pickup", "delivery"], "price": "$$", "location": {"address1": "24 Dunster St", "address2": null, "address3": "", "city": "Cambridge", "zip_code": "02138", "country": "US", "state": "MA", "display_address": ["24 Dunster St", "Cambridge, MA 02138"]}, "phone": "+16179455877", "display_phone": "(617) 945-5877", "distance": 3422.1766297634035}, {"id": "u51e3gychuqBYNqe2xG6_w", "alias": "lolita-cocina-and-tequila-bar-back-bay-boston", "name": "Lolita Cocina & Tequila Bar Back Bay", "image_url": "https://s3-media2.fl.yelpcdn.com/bphoto/k4ogqYogz19UO9hQ677iTA/o.jpg", "is_closed": false, "url": "https://www.yelp.com/biz/lolita-cocina-and-tequila-bar-back-bay-boston?adjust_creative=a2JdNtFqB-C38ga_06BHvw&utm_campaign=yelp_api_v3&utm_medium=api_v3_business_search&utm_source=a2JdNtFqB-C38ga_06BHvw", "review_count": 2178, "categories": [{"alias": "mexican", "title": "Mexican"}, {"alias": "lounges", "title": "Lounges"}, {"alias": "cocktailbars", "title": "Cocktail Bars"}], "rating": 4.0, "coordinates": {"latitude": 42.350754, "longitude": -71.0774879}, "transactions": ["delivery"], "price": "$$", "location": {"address1": "271 Dartmouth St", "address2": null, "address3": "", "city": "Boston", "zip_code": "02116", "country": "US", "state": "MA", "display_address": ["271 Dartmouth St", "Boston, MA 02116"]}, "phone": "+16173695609", "display_phone": "(617) 369-5609", "distance": 1743.5568634989238}, {"id": "ooaCl61BsK7kJlZnYOq0UQ", "alias": "abe-and-louies-boston-2", "name": "Abe & Louie's", "image_url": "https://s3-media1.fl.yelpcdn.com/bphoto/PotH0fIQx8mCr4wpH__3-Q/o.jpg", "is_closed": false, "url": "https://www.yelp.com/biz/abe-and-louies-boston-2?adjust_creative=a2JdNtFqB-C38ga_06BHvw&utm_campaign=yelp_api_v3&utm_medium=api_v3_business_search&utm_source=a2JdNtFqB-C38ga_06BHvw", "review_count": 1372, "categories": [{"alias": "steak", "title": "Steakhouses"}, {"alias": "seafood", "title": "Seafood"}, {"alias": "cocktailbars", "title": "Cocktail Bars"}], "rating": 4.0, "coordinates": {"latitude": 42.3492240905762, "longitude": -71.0815887451172}, "transactions": ["pickup", "delivery"], "price": "$$$", "location": {"address1": "793 Boylston St", "address2": "", "address3": "", "city": "Boston", "zip_code": "02116", "country": "US", "state": "MA", "display_address": ["793 Boylston St", "Boston, MA 02116"]}, "phone": "+16175366300", "display_phone": "(617) 536-6300", "distance": 1368.261250968175}, {"id": "mxjVk5rvPNhzYe_vt3OSQA", "alias": "b-and-g-oysters-boston", "name": "B&G Oysters", "image_url": "https://s3-media2.fl.yelpcdn.com/bphoto/a7PxLTjj-yzd5_VBY8ckqA/o.jpg", "is_closed": false, "url": "https://www.yelp.com/biz/b-and-g-oysters-boston?adjust_creative=a2JdNtFqB-C38ga_06BHvw&utm_campaign=yelp_api_v3&utm_medium=api_v3_business_search&utm_source=a2JdNtFqB-C38ga_06BHvw", "review_count": 1063, "categories": [{"alias": "seafood", "title": "Seafood"}, {"alias": "wine_bars", "title": "Wine Bars"}], "rating": 4.0, "coordinates": {"latitude": 42.34388, "longitude": -71.07123}, "transactions": ["pickup", "delivery"], "price": "$$$", "location": {"address1": "550 Tremont St", "address2": "", "address3": "", "city": "Boston", "zip_code": "02116", "country": "US", "state": "MA", "display_address": ["550 Tremont St", "Boston, MA 02116"]}, "phone": "+16174230550", "display_phone": "(617) 423-0550", "distance": 2189.5583724494327}, {"id": "lsqYQYGfpe25wUZk9Wybwg", "alias": "the-elephant-walk-boston-2", "name": "The Elephant Walk", "image_url": "https://s3-media2.fl.yelpcdn.com/bphoto/jnWAud-viMQpw2ieL66LXw/o.jpg", "is_closed": false, "url": "https://www.yelp.com/biz/the-elephant-walk-boston-2?adjust_creative=a2JdNtFqB-C38ga_06BHvw&utm_campaign=yelp_api_v3&utm_medium=api_v3_business_search&utm_source=a2JdNtFqB-C38ga_06BHvw", "review_count": 195, "categories": [{"alias": "cambodian", "title": "Cambodian"}, {"alias": "french", "title": "French"}, {"alias": "cocktailbars", "title": "Cocktail Bars"}], "rating": 4.0, "coordinates": {"latitude": 42.34116, "longitude": -71.070578}, "transactions": ["restaurant_reservation", "delivery", "pickup"], "price": "$$", "location": {"address1": "1415 Washington St", "address2": "", "address3": "", "city": "Boston", "zip_code": "02118", "country": "US", "state": "MA", "display_address": ["1415 Washington St", "Boston, MA 02118"]}, "phone": "+16172471500", "display_phone": "(617) 247-1500", "distance": 2303.7649252271685}, {"id": "_QUh5vFHSuw8R_uiFZ7XKQ", "alias": "parish-cafe-and-bar-boston", "name": "Parish Cafe and Bar", "image_url": "https://s3-media1.fl.yelpcdn.com/bphoto/IyX4fvBMDxxY7jI-h04AuQ/o.jpg", "is_closed": false, "url": "https://www.yelp.com/biz/parish-cafe-and-bar-boston?adjust_creative=a2JdNtFqB-C38ga_06BHvw&utm_campaign=yelp_api_v3&utm_medium=api_v3_business_search&utm_source=a2JdNtFqB-C38ga_06BHvw", "review_count": 1419, "categories": [{"alias": "sandwiches", "title": "Sandwiches"}, {"alias": "tradamerican", "title": "American (Traditional)"}, {"alias": "cocktailbars", "title": "Cocktail Bars"}], "rating": 4.0, "coordinates": {"latitude": 42.35194, "longitude": -71.07168}, "transactions": ["delivery"], "price": "$$", "location": {"address1": "361 Boylston St", "address2": "", "address3": "", "city": "Boston", "zip_code": "02116", "country": "US", "state": "MA", "display_address": ["361 Boylston St", "Boston, MA 02116"]}, "phone": "+16172474777", "display_phone": "(617) 247-4777", "distance": 2228.680724993087}, {"id": "_98MfEQ67r9-V78gmy8_Pg", "alias": "grill-23-and-bar-boston", "name": "Grill 23 & Bar", "image_url": "https://s3-media1.fl.yelpcdn.com/bphoto/8mi8n5tmgBzowXbQUJ0t5Q/o.jpg", "is_closed": false, "url": "https://www.yelp.com/biz/grill-23-and-bar-boston?adjust_creative=a2JdNtFqB-C38ga_06BHvw&utm_campaign=yelp_api_v3&utm_medium=api_v3_business_search&utm_source=a2JdNtFqB-C38ga_06BHvw", "review_count": 1051, "categories": [{"alias": "seafood", "title": "Seafood"}, {"alias": "steak", "title": "Steakhouses"}, {"alias": "wine_bars", "title": "Wine Bars"}], "rating": 4.0, "coordinates": {"latitude": 42.3494218727725, "longitude": -71.0720500564835}, "transactions": ["delivery"], "price": "$$$$", "location": {"address1": "161 Berkeley St", "address2": "", "address3": "", "city": "Boston", "zip_code": "02116", "country": "US", "state": "MA", "display_address": ["161 Berkeley St", "Boston, MA 02116"]}, "phone": "+16175422255", "display_phone": "(617) 542-2255", "distance": 2141.283823536544}, {"id": "dXPmYs9b3xyv9Zqa0z8adA", "alias": "la-voile-boston", "name": "La Voile", "image_url": "https://s3-media2.fl.yelpcdn.com/bphoto/WtNOAZQMoGD-PLK42EZhYA/o.jpg", "is_closed": false, "url": "https://www.yelp.com/biz/la-voile-boston?adjust_creative=a2JdNtFqB-C38ga_06BHvw&utm_campaign=yelp_api_v3&utm_medium=api_v3_business_search&utm_source=a2JdNtFqB-C38ga_06BHvw", "review_count": 536, "categories": [{"alias": "french", "title": "French"}, {"alias": "wine_bars", "title": "Wine Bars"}], "rating": 4.0, "coordinates": {"latitude": 42.34963, "longitude": -71.0833}, "transactions": ["delivery", "pickup"], "price": "$$$", "location": {"address1": "261 Newbury St", "address2": "", "address3": "", "city": "Boston", "zip_code": "02116", "country": "US", "state": "MA", "display_address": ["261 Newbury St", "Boston, MA 02116"]}, "phone": "+16175874200", "display_phone": "(617) 587-4200", "distance": 1244.4537158905193}, {"id": "X3ltF7mz6rPCSzRRrZjrPw", "alias": "lone-star-taco-bar-cambridge", "name": "Lone Star Taco Bar", "image_url": "https://s3-media4.fl.yelpcdn.com/bphoto/3Z15ltl828J7qmjqk2cU5w/o.jpg", "is_closed": false, "url": "https://www.yelp.com/biz/lone-star-taco-bar-cambridge?adjust_creative=a2JdNtFqB-C38ga_06BHvw&utm_campaign=yelp_api_v3&utm_medium=api_v3_business_search&utm_source=a2JdNtFqB-C38ga_06BHvw", "review_count": 337, "categories": [{"alias": "tacos", "title": "Tacos"}, {"alias": "cocktailbars", "title": "Cocktail Bars"}], "rating": 4.0, "coordinates": {"latitude": 42.37212, "longitude": -71.08687}, "transactions": ["delivery", "pickup"], "price": "$$", "location": {"address1": "635 Cambridge St", "address2": "", "address3": "", "city": "Cambridge", "zip_code": "02141", "country": "US", "state": "MA", "display_address": ["635 Cambridge St", "Cambridge, MA 02141"]}, "phone": "+18572856179", "display_phone": "(857) 285-6179", "distance": 3007.599456941243}, {"id": "Uh-vmfKAZAhSeauShT0UEQ", "alias": "asta-boston", "name": "Asta", "image_url": "https://s3-media3.fl.yelpcdn.com/bphoto/YIDIPJwDNTPz5GdFoDALRA/o.jpg", "is_closed": false, "url": "https://www.yelp.com/biz/asta-boston?adjust_creative=a2JdNtFqB-C38ga_06BHvw&utm_campaign=yelp_api_v3&utm_medium=api_v3_business_search&utm_source=a2JdNtFqB-C38ga_06BHvw", "review_count": 187, "categories": [{"alias": "newamerican", "title": "American (New)"}, {"alias": "wine_bars", "title": "Wine Bars"}], "rating": 4.0, "coordinates": {"latitude": 42.3498513, "longitude": -71.0891662}, "transactions": ["delivery"], "price": "$$$$", "location": {"address1": "47 Massachusetts Ave", "address2": "", "address3": "", "city": "Boston", "zip_code": "02115", "country": "US", "state": "MA", "display_address": ["47 Massachusetts Ave", "Boston, MA 02115"]}, "phone": "+16175859575", "display_phone": "(617) 585-9575", "distance": 811.1558114233163}, {"id": "fEKzWC1sbfZSElp46FoNag", "alias": "mooo-restaurant-boston", "name": "Mooo Restaurant", "image_url": "https://s3-media3.fl.yelpcdn.com/bphoto/0ObPcyDXh9BvA1rB4knRHA/o.jpg", "is_closed": false, "url": "https://www.yelp.com/biz/mooo-restaurant-boston?adjust_creative=a2JdNtFqB-C38ga_06BHvw&utm_campaign=yelp_api_v3&utm_medium=api_v3_business_search&utm_source=a2JdNtFqB-C38ga_06BHvw", "review_count": 906, "categories": [{"alias": "steak", "title": "Steakhouses"}, {"alias": "wine_bars", "title": "Wine Bars"}], "rating": 4.0, "coordinates": {"latitude": 42.3583014944831, "longitude": -71.0619811489821}, "transactions": ["delivery"], "price": "$$$$", "location": {"address1": "15 Beacon St", "address2": "", "address3": "", "city": "Boston", "zip_code": "02108", "country": "US", "state": "MA", "display_address": ["15 Beacon St", "Boston, MA 02108"]}, "phone": "+16176702515", "display_phone": "(617) 670-2515", "distance": 3230.3635005884294}, {"id": "geqpfK2WO6uHJCDpNofURA", "alias": "metropolis-cafe-boston-5", "name": "Metropolis", "image_url": "https://s3-media1.fl.yelpcdn.com/bphoto/LeYweOWHzav9D8qfyOaLng/o.jpg", "is_closed": false, "url": "https://www.yelp.com/biz/metropolis-cafe-boston-5?adjust_creative=a2JdNtFqB-C38ga_06BHvw&utm_campaign=yelp_api_v3&utm_medium=api_v3_business_search&utm_source=a2JdNtFqB-C38ga_06BHvw", "review_count": 493, "categories": [{"alias": "newamerican", "title": "American (New)"}, {"alias": "wine_bars", "title": "Wine Bars"}], "rating": 4.0, "coordinates": {"latitude": 42.34324, "longitude": -71.072621}, "transactions": ["delivery", "pickup"], "price": "$$", "location": {"address1": "584 Tremont St", "address2": "", "address3": "", "city": "Boston", "zip_code": "02118", "country": "US", "state": "MA", "display_address": ["584 Tremont St", "Boston, MA 02118"]}, "phone": "+16172472931", "display_phone": "(617) 247-2931", "distance": 2092.163713108433}, {"id": "72PQGMhrEcIuWH-S44TprA", "alias": "myers-and-chang-boston", "name": "Myers & Chang", "image_url": "https://s3-media3.fl.yelpcdn.com/bphoto/qMVai1SqkLUC_1jBzItmYg/o.jpg", "is_closed": false, "url": "https://www.yelp.com/biz/myers-and-chang-boston?adjust_creative=a2JdNtFqB-C38ga_06BHvw&utm_campaign=yelp_api_v3&utm_medium=api_v3_business_search&utm_source=a2JdNtFqB-C38ga_06BHvw", "review_count": 1689, "categories": [{"alias": "asianfusion", "title": "Asian Fusion"}, {"alias": "taiwanese", "title": "Taiwanese"}, {"alias": "cocktailbars", "title": "Cocktail Bars"}], "rating": 4.0, "coordinates": {"latitude": 42.3438187315924, "longitude": -71.066250270967}, "transactions": ["delivery", "pickup"], "price": "$$", "location": {"address1": "1145 Washington St", "address2": "", "address3": "", "city": "Boston", "zip_code": "02118", "country": "US", "state": "MA", "display_address": ["1145 Washington St", "Boston, MA 02118"]}, "phone": "+16175425200", "display_phone": "(617) 542-5200", "distance": 2602.8604365441}, {"id": "q5HPp961WsjoVDaOmN8SwQ", "alias": "giacomos-boston", "name": "Giacomo's", "image_url": "https://s3-media3.fl.yelpcdn.com/bphoto/Smv02qZnzD75bbjludSgSw/o.jpg", "is_closed": false, "url": "https://www.yelp.com/biz/giacomos-boston?adjust_creative=a2JdNtFqB-C38ga_06BHvw&utm_campaign=yelp_api_v3&utm_medium=api_v3_business_search&utm_source=a2JdNtFqB-C38ga_06BHvw", "review_count": 1312, "categories": [{"alias": "italian", "title": "Italian"}, {"alias": "seafood", "title": "Seafood"}, {"alias": "wine_bars", "title": "Wine Bars"}], "rating": 4.0, "coordinates": {"latitude": 42.34406, "longitude": -71.077732}, "transactions": ["delivery", "pickup"], "price": "$$", "location": {"address1": "431 Columbus Ave", "address2": "", "address3": "", "city": "Boston", "zip_code": "02116", "country": "US", "state": "MA", "display_address": ["431 Columbus Ave", "Boston, MA 02116"]}, "phone": "+16175365723", "display_phone": "(617) 536-5723", "distance": 1663.0869150211306}, {"id": "SZw4rxKrlCphqMyWRv4lZg", "alias": "puritan-and-company-cambridge-2", "name": "Puritan & Company", "image_url": "https://s3-media1.fl.yelpcdn.com/bphoto/Zrbchy6qtAbB0TcO-6Qa7g/o.jpg", "is_closed": false, "url": "https://www.yelp.com/biz/puritan-and-company-cambridge-2?adjust_creative=a2JdNtFqB-C38ga_06BHvw&utm_campaign=yelp_api_v3&utm_medium=api_v3_business_search&utm_source=a2JdNtFqB-C38ga_06BHvw", "review_count": 474, "categories": [{"alias": "newamerican", "title": "American (New)"}, {"alias": "wine_bars", "title": "Wine Bars"}], "rating": 4.0, "coordinates": {"latitude": 42.3731070676765, "longitude": -71.09676064169884}, "transactions": ["delivery", "pickup"], "price": "$$$", "location": {"address1": "1166 Cambridge St", "address2": "", "address3": "", "city": "Cambridge", "zip_code": "02139", "country": "US", "state": "MA", "display_address": ["1166 Cambridge St", "Cambridge, MA 02139"]}, "phone": "+16176156195", "display_phone": "(617) 615-6195", "distance": 2987.472545854116}, {"id": "PUZSvR-nEHlhEi0gSADu7w", "alias": "piattini-boston-3", "name": "Piattini", "image_url": "https://s3-media2.fl.yelpcdn.com/bphoto/llfN8MdnKbUHCMjMEUWGCA/o.jpg", "is_closed": false, "url": "https://www.yelp.com/biz/piattini-boston-3?adjust_creative=a2JdNtFqB-C38ga_06BHvw&utm_campaign=yelp_api_v3&utm_medium=api_v3_business_search&utm_source=a2JdNtFqB-C38ga_06BHvw", "review_count": 881, "categories": [{"alias": "italian", "title": "Italian"}, {"alias": "wine_bars", "title": "Wine Bars"}, {"alias": "beerbar", "title": "Beer Bar"}], "rating": 4.0, "coordinates": {"latitude": 42.34969, "longitude": -71.08122}, "transactions": ["delivery", "pickup"], "price": "$$", "location": {"address1": "226 Newbury St", "address2": "", "address3": "", "city": "Boston", "zip_code": "02116", "country": "US", "state": "MA", "display_address": ["226 Newbury St", "Boston, MA 02116"]}, "phone": "+16175362020", "display_phone": "(617) 536-2020", "distance": 1410.2261350095803}, {"id": "_9ZZv5V-uM5BXx3P-HslIw", "alias": "russell-house-tavern-cambridge", "name": "Russell House Tavern", "image_url": "https://s3-media2.fl.yelpcdn.com/bphoto/kRaN8g4aUwgQGej2Y6gBBQ/o.jpg", "is_closed": false, "url": "https://www.yelp.com/biz/russell-house-tavern-cambridge?adjust_creative=a2JdNtFqB-C38ga_06BHvw&utm_campaign=yelp_api_v3&utm_medium=api_v3_business_search&utm_source=a2JdNtFqB-C38ga_06BHvw", "review_count": 1973, "categories": [{"alias": "newamerican", "title": "American (New)"}, {"alias": "pizza", "title": "Pizza"}, {"alias": "cocktailbars", "title": "Cocktail Bars"}], "rating": 4.0, "coordinates": {"latitude": 42.373113889528, "longitude": -71.119494214654}, "transactions": ["delivery", "pickup"], "price": "$$", "location": {"address1": "14 Jfk St", "address2": "", "address3": "", "city": "Cambridge", "zip_code": "02138", "country": "US", "state": "MA", "display_address": ["14 Jfk St", "Cambridge, MA 02138"]}, "phone": "+16175003055", "display_phone": "(617) 500-3055", "distance": 3480.6483774048725}, {"id": "jIxhHWqxKd5ZWBIEmsFxWQ", "alias": "citrus-and-salt-boston", "name": "Citrus & Salt", "image_url": "https://s3-media2.fl.yelpcdn.com/bphoto/dt9zr2WEPJV4iHN0zfog2w/o.jpg", "is_closed": false, "url": "https://www.yelp.com/biz/citrus-and-salt-boston?adjust_creative=a2JdNtFqB-C38ga_06BHvw&utm_campaign=yelp_api_v3&utm_medium=api_v3_business_search&utm_source=a2JdNtFqB-C38ga_06BHvw", "review_count": 584, "categories": [{"alias": "cocktailbars", "title": "Cocktail Bars"}, {"alias": "mexican", "title": "Mexican"}], "rating": 4.0, "coordinates": {"latitude": 42.348728, "longitude": -71.072284}, "transactions": ["delivery", "pickup"], "price": "$$", "location": {"address1": "142 Berkeley St", "address2": "", "address3": null, "city": "Boston", "zip_code": "02116", "country": "US", "state": "MA", "display_address": ["142 Berkeley St", "Boston, MA 02116"]}, "phone": "+18333248787", "display_phone": "(833) 324-8787", "distance": 2110.884244135917}, {"id": "m1ertlgQIxAl74D7nCsvbQ", "alias": "earls-kitchen-bar-boston-2", "name": "Earls Kitchen + Bar", "image_url": "https://s3-media3.fl.yelpcdn.com/bphoto/14ePOgaKidQAE00XMnzMhA/o.jpg", "is_closed": false, "url": "https://www.yelp.com/biz/earls-kitchen-bar-boston-2?adjust_creative=a2JdNtFqB-C38ga_06BHvw&utm_campaign=yelp_api_v3&utm_medium=api_v3_business_search&utm_source=a2JdNtFqB-C38ga_06BHvw", "review_count": 920, "categories": [{"alias": "newamerican", "title": "American (New)"}, {"alias": "cocktailbars", "title": "Cocktail Bars"}], "rating": 4.0, "coordinates": {"latitude": 42.34751, "longitude": -71.08135}, "transactions": ["delivery", "pickup"], "price": "$$", "location": {"address1": "800 Boylston St", "address2": "Unit 107", "address3": null, "city": "Boston", "zip_code": "02199", "country": "US", "state": "MA", "display_address": ["800 Boylston St", "Unit 107", "Boston, MA 02199"]}, "phone": "+18579570949", "display_phone": "(857) 957-0949", "distance": 1276.500993752678}, {"id": "XlcWm3OdV1QrSPF_AwrlTQ", "alias": "shays-pub-and-wine-bar-cambridge", "name": "Shays Pub & Wine Bar", "image_url": "https://s3-media1.fl.yelpcdn.com/bphoto/ozIUV6tV8Mg_dCmcb1_eBw/o.jpg", "is_closed": false, "url": "https://www.yelp.com/biz/shays-pub-and-wine-bar-cambridge?adjust_creative=a2JdNtFqB-C38ga_06BHvw&utm_campaign=yelp_api_v3&utm_medium=api_v3_business_search&utm_source=a2JdNtFqB-C38ga_06BHvw", "review_count": 227, "categories": [{"alias": "tradamerican", "title": "American (Traditional)"}, {"alias": "wine_bars", "title": "Wine Bars"}, {"alias": "pubs", "title": "Pubs"}], "rating": 4.0, "coordinates": {"latitude": 42.3717754, "longitude": -71.1208141}, "transactions": ["delivery"], "price": "$$", "location": {"address1": "58 Jfk St", "address2": "", "address3": "", "city": "Cambridge", "zip_code": "02138", "country": "US", "state": "MA", "display_address": ["58 Jfk St", "Cambridge, MA 02138"]}, "phone": "+16178649161", "display_phone": "(617) 864-9161", "distance": 3412.806461663957}, {"id": "FioFvBhgVPV2dZW3mxjxQQ", "alias": "lulus-allston-boston-4", "name": "Lulu's Allston", "image_url": "https://s3-media4.fl.yelpcdn.com/bphoto/oNHZZj4qBVemnmX_HK6G9w/o.jpg", "is_closed": false, "url": "https://www.yelp.com/biz/lulus-allston-boston-4?adjust_creative=a2JdNtFqB-C38ga_06BHvw&utm_campaign=yelp_api_v3&utm_medium=api_v3_business_search&utm_source=a2JdNtFqB-C38ga_06BHvw", "review_count": 503, "categories": [{"alias": "newamerican", "title": "American (New)"}, {"alias": "sportsbars", "title": "Sports Bars"}], "rating": 4.0, "coordinates": {"latitude": 42.3550647, "longitude": -71.1341649}, "transactions": ["delivery", "pickup"], "price": "$$", "location": {"address1": "421 Cambridge St", "address2": "", "address3": "", "city": "Boston", "zip_code": "02134", "country": "US", "state": "MA", "display_address": ["421 Cambridge St", "Boston, MA 02134"]}, "phone": "+16177871117", "display_phone": "(617) 787-1117", "distance": 3148.8947267062445}, {"id": "Qz7YOjaJ89TFdWhtt4mAiw", "alias": "bar-cino-brookline", "name": "Bar 'Cino", "image_url": "https://s3-media2.fl.yelpcdn.com/bphoto/6iEP4Sf4ZVmfmRkzSnvTjA/o.jpg", "is_closed": false, "url": "https://www.yelp.com/biz/bar-cino-brookline?adjust_creative=a2JdNtFqB-C38ga_06BHvw&utm_campaign=yelp_api_v3&utm_medium=api_v3_business_search&utm_source=a2JdNtFqB-C38ga_06BHvw", "review_count": 77, "categories": [{"alias": "italian", "title": "Italian"}, {"alias": "cocktailbars", "title": "Cocktail Bars"}, {"alias": "pizza", "title": "Pizza"}], "rating": 4.0, "coordinates": {"latitude": 42.34606220053994, "longitude": -71.10812906992322}, "transactions": ["delivery", "pickup"], "location": {"address1": "1032 Beacon St", "address2": "", "address3": null, "city": "Brookline", "zip_code": "02446", "country": "US", "state": "MA", "display_address": ["1032 Beacon St", "Brookline, MA 02446"]}, "phone": "+16176083220", "display_phone": "(617) 608-3220", "distance": 853.2368310341379}, {"id": "4-Tp4hstdC5XVvO4otGkuA", "alias": "wink-and-nod-boston", "name": "Wink & Nod", "image_url": "https://s3-media2.fl.yelpcdn.com/bphoto/Es1SIc85M7AeXPBfZLdf1g/o.jpg", "is_closed": false, "url": "https://www.yelp.com/biz/wink-and-nod-boston?adjust_creative=a2JdNtFqB-C38ga_06BHvw&utm_campaign=yelp_api_v3&utm_medium=api_v3_business_search&utm_source=a2JdNtFqB-C38ga_06BHvw", "review_count": 450, "categories": [{"alias": "cocktailbars", "title": "Cocktail Bars"}, {"alias": "newamerican", "title": "American (New)"}, {"alias": "tapasmallplates", "title": "Tapas/Small Plates"}], "rating": 4.0, "coordinates": {"latitude": 42.3466991630507, "longitude": -71.0694792474231}, "transactions": ["delivery", "pickup"], "price": "$$$", "location": {"address1": "3 Appleton St", "address2": "", "address3": "", "city": "Boston", "zip_code": "02116", "country": "US", "state": "MA", "display_address": ["3 Appleton St", "Boston, MA 02116"]}, "phone": "+16174820117", "display_phone": "(617) 482-0117", "distance": 2323.8952001927855}, {"id": "8hJIgeFWS_WXgQBvCpjeQg", "alias": "blossom-bar-brookline-8", "name": "Blossom Bar", "image_url": "https://s3-media1.fl.yelpcdn.com/bphoto/E_PWihwZ5wqpyzzx-ciyUA/o.jpg", "is_closed": false, "url": "https://www.yelp.com/biz/blossom-bar-brookline-8?adjust_creative=a2JdNtFqB-C38ga_06BHvw&utm_campaign=yelp_api_v3&utm_medium=api_v3_business_search&utm_source=a2JdNtFqB-C38ga_06BHvw", "review_count": 223, "categories": [{"alias": "cocktailbars", "title": "Cocktail Bars"}, {"alias": "chinese", "title": "Chinese"}], "rating": 4.0, "coordinates": {"latitude": 42.333407, "longitude": -71.119398}, "transactions": ["delivery"], "price": "$$", "location": {"address1": "295 Washington St", "address2": "", "address3": null, "city": "Brookline", "zip_code": "02445", "country": "US", "state": "MA", "display_address": ["295 Washington St", "Brookline, MA 02445"]}, "phone": "+16177341870", "display_phone": "(617) 734-1870", "distance": 2281.512932870326}, {"id": "HL7Kfo9S3eKgJJAEVQ2rbw", "alias": "burro-bar-south-end-boston-2", "name": "Burro Bar South End", "image_url": "https://s3-media2.fl.yelpcdn.com/bphoto/wDF66e9XHdMY1Kke7uxTWg/o.jpg", "is_closed": false, "url": "https://www.yelp.com/biz/burro-bar-south-end-boston-2?adjust_creative=a2JdNtFqB-C38ga_06BHvw&utm_campaign=yelp_api_v3&utm_medium=api_v3_business_search&utm_source=a2JdNtFqB-C38ga_06BHvw", "review_count": 152, "categories": [{"alias": "mexican", "title": "Mexican"}, {"alias": "cocktailbars", "title": "Cocktail Bars"}, {"alias": "latin", "title": "Latin American"}], "rating": 4.0, "coordinates": {"latitude": 42.34157697918738, "longitude": -71.06931133147431}, "transactions": ["pickup", "delivery"], "price": "$$", "location": {"address1": "1357 Washington St", "address2": null, "address3": "", "city": "Boston", "zip_code": "02118", "country": "US", "state": "MA", "display_address": ["1357 Washington St", "Boston, MA 02118"]}, "phone": "+16174269300", "display_phone": "(617) 426-9300", "distance": 2394.3169790489555}, {"id": "Svxkliw-2cfHifMK8EvkIQ", "alias": "city-bar-boston", "name": "City Bar", "image_url": "https://s3-media3.fl.yelpcdn.com/bphoto/kxQMLaE8P5KG-8O_shqGKg/o.jpg", "is_closed": false, "url": "https://www.yelp.com/biz/city-bar-boston?adjust_creative=a2JdNtFqB-C38ga_06BHvw&utm_campaign=yelp_api_v3&utm_medium=api_v3_business_search&utm_source=a2JdNtFqB-C38ga_06BHvw", "review_count": 268, "categories": [{"alias": "newamerican", "title": "American (New)"}, {"alias": "cocktailbars", "title": "Cocktail Bars"}], "rating": 4.0, "coordinates": {"latitude": 42.348849, "longitude": -71.0793773}, "transactions": [], "price": "$$$", "location": {"address1": "65 Exeter St", "address2": null, "address3": "", "city": "Boston", "zip_code": "02116", "country": "US", "state": "MA", "display_address": ["65 Exeter St", "Boston, MA 02116"]}, "phone": "+16179334800", "display_phone": "(617) 933-4800", "distance": 1530.2869917510334}, {"id": "gOjh7RMDZDn4h-QmwnAseA", "alias": "sonsie-boston", "name": "Sonsie", "image_url": "https://s3-media2.fl.yelpcdn.com/bphoto/s5i232Uzif7FrdjCFf6HHA/o.jpg", "is_closed": false, "url": "https://www.yelp.com/biz/sonsie-boston?adjust_creative=a2JdNtFqB-C38ga_06BHvw&utm_campaign=yelp_api_v3&utm_medium=api_v3_business_search&utm_source=a2JdNtFqB-C38ga_06BHvw", "review_count": 1340, "categories": [{"alias": "newamerican", "title": "American (New)"}, {"alias": "wine_bars", "title": "Wine Bars"}, {"alias": "breakfast_brunch", "title": "Breakfast & Brunch"}], "rating": 3.5, "coordinates": {"latitude": 42.34884, "longitude": -71.08625}, "transactions": ["pickup", "delivery"], "price": "$$", "location": {"address1": "327 Newbury St", "address2": "", "address3": "", "city": "Boston", "zip_code": "02115", "country": "US", "state": "MA", "display_address": ["327 Newbury St", "Boston, MA 02115"]}, "phone": "+16173512500", "display_phone": "(617) 351-2500", "distance": 986.1328733127}, {"id": "b8_a5LuSt0Gcy-TZIvDl3g", "alias": "black-lamb-boston", "name": "Black Lamb", "image_url": "https://s3-media2.fl.yelpcdn.com/bphoto/_rn4ts8iDQusSD1aqWoF9w/o.jpg", "is_closed": false, "url": "https://www.yelp.com/biz/black-lamb-boston?adjust_creative=a2JdNtFqB-C38ga_06BHvw&utm_campaign=yelp_api_v3&utm_medium=api_v3_business_search&utm_source=a2JdNtFqB-C38ga_06BHvw", "review_count": 107, "categories": [{"alias": "newamerican", "title": "American (New)"}, {"alias": "seafood", "title": "Seafood"}, {"alias": "cocktailbars", "title": "Cocktail Bars"}], "rating": 4.0, "coordinates": {"latitude": 42.34369, "longitude": -71.07263}, "transactions": ["delivery"], "location": {"address1": "571 Tremont St", "address2": null, "address3": "", "city": "Boston", "zip_code": "02118", "country": "US", "state": "MA", "display_address": ["571 Tremont St", "Boston, MA 02118"]}, "phone": "+16179826330", "display_phone": "(617) 982-6330", "distance": 2083.4124213587825}, {"id": "bMcozrCMkppinCDu0C5ueA", "alias": "penguin-pizza-boston", "name": "Penguin Pizza", "image_url": "https://s3-media1.fl.yelpcdn.com/bphoto/qtcURQipyoEXDtCfSzTk8A/o.jpg", "is_closed": false, "url": "https://www.yelp.com/biz/penguin-pizza-boston?adjust_creative=a2JdNtFqB-C38ga_06BHvw&utm_campaign=yelp_api_v3&utm_medium=api_v3_business_search&utm_source=a2JdNtFqB-C38ga_06BHvw", "review_count": 541, "categories": [{"alias": "pizza", "title": "Pizza"}, {"alias": "italian", "title": "Italian"}, {"alias": "sportsbars", "title": "Sports Bars"}], "rating": 3.5, "coordinates": {"latitude": 42.3340617633654, "longitude": -71.1054841064522}, "transactions": ["pickup", "delivery"], "price": "$$", "location": {"address1": "735 Huntington Ave", "address2": null, "address3": "", "city": "Boston", "zip_code": "02115", "country": "US", "state": "MA", "display_address": ["735 Huntington Ave", "Boston, MA 02115"]}, "phone": "+16172779200", "display_phone": "(617) 277-9200", "distance": 1496.9405389708968}, {"id": "2OPwmUgtjb3nhClb7IEOxA", "alias": "cussers-roast-beef-and-seafood-boston-2", "name": "Cusser's Roast Beef and Seafood", "image_url": "https://s3-media2.fl.yelpcdn.com/bphoto/XdGU1c5sX1IfwMabuC3TpQ/o.jpg", "is_closed": false, "url": "https://www.yelp.com/biz/cussers-roast-beef-and-seafood-boston-2?adjust_creative=a2JdNtFqB-C38ga_06BHvw&utm_campaign=yelp_api_v3&utm_medium=api_v3_business_search&utm_source=a2JdNtFqB-C38ga_06BHvw", "review_count": 48, "categories": [{"alias": "seafood", "title": "Seafood"}, {"alias": "cocktailbars", "title": "Cocktail Bars"}, {"alias": "soup", "title": "Soup"}], "rating": 4.5, "coordinates": {"latitude": 42.3497886, "longitude": -71.0707232}, "transactions": ["pickup", "delivery"], "location": {"address1": "304 Stuart St", "address2": "", "address3": null, "city": "Boston", "zip_code": "02116", "country": "US", "state": "MA", "display_address": ["304 Stuart St", "Boston, MA 02116"]}, "phone": "+16179175193", "display_phone": "(617) 917-5193", "distance": 2255.6565168725315}, {"id": "9VGECwLbj29RljD2WVSzaw", "alias": "porters-bar-and-grill-boston", "name": "Porters Bar & Grill", "image_url": "https://s3-media1.fl.yelpcdn.com/bphoto/6CX3EUWXHOmKdPVwXGXNXw/o.jpg", "is_closed": false, "url": "https://www.yelp.com/biz/porters-bar-and-grill-boston?adjust_creative=a2JdNtFqB-C38ga_06BHvw&utm_campaign=yelp_api_v3&utm_medium=api_v3_business_search&utm_source=a2JdNtFqB-C38ga_06BHvw", "review_count": 250, "categories": [{"alias": "tradamerican", "title": "American (Traditional)"}, {"alias": "pubs", "title": "Pubs"}, {"alias": "burgers", "title": "Burgers"}], "rating": 4.0, "coordinates": {"latitude": 42.3642896, "longitude": -71.061702}, "transactions": ["pickup", "delivery"], "price": "$$", "location": {"address1": "173 Portland St", "address2": "", "address3": "", "city": "Boston", "zip_code": "02114", "country": "US", "state": "MA", "display_address": ["173 Portland St", "Boston, MA 02114"]}, "phone": "+16177427678", "display_phone": "(617) 742-7678", "distance": 3577.3861025147717}, {"id": "XgJWwSXomuSblxFBE-AxpA", "alias": "petit-robert-bistro-boston-3", "name": "Petit Robert Bistro", "image_url": "https://s3-media2.fl.yelpcdn.com/bphoto/Na0r6p93_7ZY5aC_SXlhTQ/o.jpg", "is_closed": false, "url": "https://www.yelp.com/biz/petit-robert-bistro-boston-3?adjust_creative=a2JdNtFqB-C38ga_06BHvw&utm_campaign=yelp_api_v3&utm_medium=api_v3_business_search&utm_source=a2JdNtFqB-C38ga_06BHvw", "review_count": 435, "categories": [{"alias": "french", "title": "French"}, {"alias": "breakfast_brunch", "title": "Breakfast & Brunch"}, {"alias": "wine_bars", "title": "Wine Bars"}], "rating": 3.5, "coordinates": {"latitude": 42.34283, "longitude": -71.07858}, "transactions": ["pickup", "delivery"], "price": "$$", "location": {"address1": "480 Columbus Ave", "address2": "", "address3": "", "city": "Boston", "zip_code": "02118", "country": "US", "state": "MA", "display_address": ["480 Columbus Ave", "Boston, MA 02118"]}, "phone": "+16178670600", "display_phone": "(617) 867-0600", "distance": 1620.5808685597638}, {"id": "3K13iIrTbHmV-qpvz8C7Ew", "alias": "strega-italiano-back-bay-boston", "name": "Strega Italiano - Back Bay", "image_url": "https://s3-media2.fl.yelpcdn.com/bphoto/gO_3xidAt9-GS46Izl3yYA/o.jpg", "is_closed": false, "url": "https://www.yelp.com/biz/strega-italiano-back-bay-boston?adjust_creative=a2JdNtFqB-C38ga_06BHvw&utm_campaign=yelp_api_v3&utm_medium=api_v3_business_search&utm_source=a2JdNtFqB-C38ga_06BHvw", "review_count": 323, "categories": [{"alias": "tradamerican", "title": "American (Traditional)"}, {"alias": "italian", "title": "Italian"}, {"alias": "wine_bars", "title": "Wine Bars"}], "rating": 3.5, "coordinates": {"latitude": 42.35107235039934, "longitude": -71.070099}, "transactions": ["pickup", "delivery"], "price": "$$$$", "location": {"address1": "64 Arlington St", "address2": "", "address3": null, "city": "Boston", "zip_code": "02116", "country": "US", "state": "MA", "display_address": ["64 Arlington St", "Boston, MA 02116"]}, "phone": "+16174565300", "display_phone": "(617) 456-5300", "distance": 2334.7572589063543}, {"id": "n-5xA19txqjxmRdKB3A6bg", "alias": "brick-and-mortar-cambridge-3", "name": "Brick & Mortar", "image_url": "https://s3-media3.fl.yelpcdn.com/bphoto/eWusYi4iLBzuvlOauSWdwA/o.jpg", "is_closed": false, "url": "https://www.yelp.com/biz/brick-and-mortar-cambridge-3?adjust_creative=a2JdNtFqB-C38ga_06BHvw&utm_campaign=yelp_api_v3&utm_medium=api_v3_business_search&utm_source=a2JdNtFqB-C38ga_06BHvw", "review_count": 263, "categories": [{"alias": "lounges", "title": "Lounges"}, {"alias": "cocktailbars", "title": "Cocktail Bars"}, {"alias": "gastropubs", "title": "Gastropubs"}], "rating": 4.0, "coordinates": {"latitude": 42.3648518001961, "longitude": -71.1024431306885}, "transactions": ["delivery"], "price": "$$", "location": {"address1": "567 Massachusetts Ave", "address2": "", "address3": "", "city": "Cambridge", "zip_code": "02139", "country": "US", "state": "MA", "display_address": ["567 Massachusetts Ave", "Cambridge, MA 02139"]}, "phone": "+16174910016", "display_phone": "(617) 491-0016", "distance": 2104.0655373850154}, {"id": "ZfGuMUhFbSBx0yAKc0GPIA", "alias": "frenchie-wine-bistro-boston", "name": "Frenchie Wine Bistro", "image_url": "https://s3-media1.fl.yelpcdn.com/bphoto/w7zaGsKrFTmh8D966WyOHQ/o.jpg", "is_closed": false, "url": "https://www.yelp.com/biz/frenchie-wine-bistro-boston?adjust_creative=a2JdNtFqB-C38ga_06BHvw&utm_campaign=yelp_api_v3&utm_medium=api_v3_business_search&utm_source=a2JdNtFqB-C38ga_06BHvw", "review_count": 214, "categories": [{"alias": "wine_bars", "title": "Wine Bars"}, {"alias": "french", "title": "French"}], "rating": 4.0, "coordinates": {"latitude": 42.34362, "longitude": -71.07171}, "transactions": ["delivery"], "price": "$$$", "location": {"address1": "560 Tremont St", "address2": null, "address3": "", "city": "Boston", "zip_code": "02118", "country": "US", "state": "MA", "display_address": ["560 Tremont St", "Boston, MA 02118"]}, "phone": "+18572335941", "display_phone": "(857) 233-5941", "distance": 2152.35410014698}, {"id": "r2CqNYEZyVT3Ay9DRYeF9w", "alias": "blackmoor-bar-and-kitchen-boston", "name": "Blackmoor Bar and Kitchen", "image_url": "https://s3-media2.fl.yelpcdn.com/bphoto/iPJHcCgfCZLNJkv_hdXl6g/o.jpg", "is_closed": false, "url": "https://www.yelp.com/biz/blackmoor-bar-and-kitchen-boston?adjust_creative=a2JdNtFqB-C38ga_06BHvw&utm_campaign=yelp_api_v3&utm_medium=api_v3_business_search&utm_source=a2JdNtFqB-C38ga_06BHvw", "review_count": 226, "categories": [{"alias": "tradamerican", "title": "American (Traditional)"}, {"alias": "pubs", "title": "Pubs"}], "rating": 4.0, "coordinates": {"latitude": 42.3714177, "longitude": -71.0612788}, "transactions": ["delivery"], "price": "$$", "location": {"address1": "1 Chelsea St", "address2": "", "address3": "", "city": "Boston", "zip_code": "02129", "country": "US", "state": "MA", "display_address": ["1 Chelsea St", "Boston, MA 02129"]}, "phone": "+16175808166", "display_phone": "(617) 580-8166", "distance": 4070.164875793204}, {"id": "smiGOZuyboXfc8LyC2jXpg", "alias": "joes-on-newbury-boston", "name": "Joe's On Newbury", "image_url": "https://s3-media1.fl.yelpcdn.com/bphoto/DSqBPS2tRrrb5VT_LsdIpg/o.jpg", "is_closed": false, "url": "https://www.yelp.com/biz/joes-on-newbury-boston?adjust_creative=a2JdNtFqB-C38ga_06BHvw&utm_campaign=yelp_api_v3&utm_medium=api_v3_business_search&utm_source=a2JdNtFqB-C38ga_06BHvw", "review_count": 1002, "categories": [{"alias": "tradamerican", "title": "American (Traditional)"}, {"alias": "burgers", "title": "Burgers"}, {"alias": "cocktailbars", "title": "Cocktail Bars"}], "rating": 3.5, "coordinates": {"latitude": 42.350469, "longitude": -71.079786}, "transactions": ["pickup", "delivery"], "price": "$$", "location": {"address1": "181 Newbury St", "address2": "", "address3": "", "city": "Boston", "zip_code": "02116", "country": "US", "state": "MA", "display_address": ["181 Newbury St", "Boston, MA 02116"]}, "phone": "+16175364200", "display_phone": "(617) 536-4200", "distance": 1549.0280104491346}, {"id": "VoH0dcofsPgKgT0OQWiuIQ", "alias": "omori-izakaya-brookline", "name": "Omori Izakaya", "image_url": "https://s3-media2.fl.yelpcdn.com/bphoto/ROHkGjXl2_zcTF-Qj9xn8A/o.jpg", "is_closed": false, "url": "https://www.yelp.com/biz/omori-izakaya-brookline?adjust_creative=a2JdNtFqB-C38ga_06BHvw&utm_campaign=yelp_api_v3&utm_medium=api_v3_business_search&utm_source=a2JdNtFqB-C38ga_06BHvw", "review_count": 58, "categories": [{"alias": "japanese", "title": "Japanese"}, {"alias": "sushi", "title": "Sushi Bars"}, {"alias": "pubs", "title": "Pubs"}], "rating": 4.0, "coordinates": {"latitude": 42.332258, "longitude": -71.117913}, "transactions": ["pickup", "delivery"], "location": {"address1": "195 Washington St", "address2": null, "address3": "", "city": "Brookline", "zip_code": "02445", "country": "US", "state": "MA", "display_address": ["195 Washington St", "Brookline, MA 02445"]}, "phone": "+16175055924", "display_phone": "(617) 505-5924", "distance": 2272.8388859864385}, {"id": "mTyK9-_6CYY6XYAG56c68Q", "alias": "carrie-nation-cocktail-club-boston-2", "name": "Carrie Nation Cocktail Club", "image_url": "https://s3-media2.fl.yelpcdn.com/bphoto/Dj0QRNA-LgXrPCXBGboKFg/o.jpg", "is_closed": false, "url": "https://www.yelp.com/biz/carrie-nation-cocktail-club-boston-2?adjust_creative=a2JdNtFqB-C38ga_06BHvw&utm_campaign=yelp_api_v3&utm_medium=api_v3_business_search&utm_source=a2JdNtFqB-C38ga_06BHvw", "review_count": 344, "categories": [{"alias": "tradamerican", "title": "American (Traditional)"}, {"alias": "cocktailbars", "title": "Cocktail Bars"}], "rating": 3.5, "coordinates": {"latitude": 42.35846, "longitude": -71.061772}, "transactions": ["delivery"], "price": "$$", "location": {"address1": "11 Beacon St", "address2": "", "address3": "", "city": "Boston", "zip_code": "02108", "country": "US", "state": "MA", "display_address": ["11 Beacon St", "Boston, MA 02108"]}, "phone": "+16172273100", "display_phone": "(617) 227-3100", "distance": 3253.321948969812}, {"id": "l6Ye6vPB6ZPZbxVxMMgvPQ", "alias": "top-mix-bar-and-kitchen-boston", "name": "Top Mix Bar & Kitchen", "image_url": "https://s3-media3.fl.yelpcdn.com/bphoto/ibGjr6uNXEPMMY9T7gguBQ/o.jpg", "is_closed": false, "url": "https://www.yelp.com/biz/top-mix-bar-and-kitchen-boston?adjust_creative=a2JdNtFqB-C38ga_06BHvw&utm_campaign=yelp_api_v3&utm_medium=api_v3_business_search&utm_source=a2JdNtFqB-C38ga_06BHvw", "review_count": 96, "categories": [{"alias": "cocktailbars", "title": "Cocktail Bars"}, {"alias": "newamerican", "title": "American (New)"}], "rating": 4.0, "coordinates": {"latitude": 42.32374, "longitude": -71.06808}, "transactions": ["pickup", "delivery"], "price": "$$", "location": {"address1": "257 Norfolk Ave", "address2": null, "address3": "", "city": "Boston", "zip_code": "02119", "country": "US", "state": "MA", "display_address": ["257 Norfolk Ave", "Boston, MA 02119"]}, "phone": "+16176528976", "display_phone": "(617) 652-8976", "distance": 3495.171794155252}, {"id": "Jmyya_ylt3Bks4NTcyWgEg", "alias": "zuma-boston-2", "name": "Zuma", "image_url": "https://s3-media3.fl.yelpcdn.com/bphoto/Cw8-fI-morcTbDeJrQ8ODA/o.jpg", "is_closed": false, "url": "https://www.yelp.com/biz/zuma-boston-2?adjust_creative=a2JdNtFqB-C38ga_06BHvw&utm_campaign=yelp_api_v3&utm_medium=api_v3_business_search&utm_source=a2JdNtFqB-C38ga_06BHvw", "review_count": 146, "categories": [{"alias": "japanese", "title": "Japanese"}, {"alias": "sushi", "title": "Sushi Bars"}, {"alias": "cocktailbars", "title": "Cocktail Bars"}], "rating": 4.0, "coordinates": {"latitude": 42.3461685, "longitude": -71.0845215}, "transactions": ["pickup", "delivery"], "location": {"address1": "1 Dalton St", "address2": "Fl 2", "address3": null, "city": "Boston", "zip_code": "02199", "country": "US", "state": "MA", "display_address": ["1 Dalton St", "Fl 2", "Boston, MA 02199"]}, "phone": "+18574492500", "display_phone": "(857) 449-2500", "distance": 1112.9312508396542}, {"id": "xayS1Ht3N8g_YBe1wdEDCg", "alias": "the-capital-burger-boston", "name": "The Capital Burger", "image_url": "https://s3-media3.fl.yelpcdn.com/bphoto/wJiC5PMSQmP0BM8XjRF7ww/o.jpg", "is_closed": false, "url": "https://www.yelp.com/biz/the-capital-burger-boston?adjust_creative=a2JdNtFqB-C38ga_06BHvw&utm_campaign=yelp_api_v3&utm_medium=api_v3_business_search&utm_source=a2JdNtFqB-C38ga_06BHvw", "review_count": 26, "categories": [{"alias": "burgers", "title": "Burgers"}, {"alias": "newamerican", "title": "American (New)"}, {"alias": "cocktailbars", "title": "Cocktail Bars"}], "rating": 4.5, "coordinates": {"latitude": 42.350854, "longitude": -71.078614}, "transactions": [], "location": {"address1": "159 Newbury St", "address2": "", "address3": null, "city": "Boston", "zip_code": "02116", "country": "US", "state": "MA", "display_address": ["159 Newbury St", "Boston, MA 02116"]}, "phone": "+16172621333", "display_phone": "(617) 262-1333", "distance": 1654.6033414230358}, {"id": "yoem-KW_Jln0LqsdLwLeUQ", "alias": "grafton-street-cambridge", "name": "Grafton Street", "image_url": "https://s3-media1.fl.yelpcdn.com/bphoto/7XB7QpsPpweMmCvqgh9e0w/o.jpg", "is_closed": false, "url": "https://www.yelp.com/biz/grafton-street-cambridge?adjust_creative=a2JdNtFqB-C38ga_06BHvw&utm_campaign=yelp_api_v3&utm_medium=api_v3_business_search&utm_source=a2JdNtFqB-C38ga_06BHvw", "review_count": 813, "categories": [{"alias": "tradamerican", "title": "American (Traditional)"}, {"alias": "pubs", "title": "Pubs"}], "rating": 3.5, "coordinates": {"latitude": 42.3722389912824, "longitude": -71.1159181268549}, "transactions": ["pickup", "delivery"], "price": "$$", "location": {"address1": "1230 Massachusetts Ave", "address2": "", "address3": "", "city": "Cambridge", "zip_code": "02138", "country": "US", "state": "MA", "display_address": ["1230 Massachusetts Ave", "Cambridge, MA 02138"]}, "phone": "+16174970400", "display_phone": "(617) 497-0400", "distance": 3252.633169583893}, {"id": "ChzM9HTXqqe0VdXSbMGoqQ", "alias": "red-lantern-boston", "name": "Red Lantern", "image_url": "https://s3-media2.fl.yelpcdn.com/bphoto/OpfDVHrPbYlLIGNvdIsaCQ/o.jpg", "is_closed": false, "url": "https://www.yelp.com/biz/red-lantern-boston?adjust_creative=a2JdNtFqB-C38ga_06BHvw&utm_campaign=yelp_api_v3&utm_medium=api_v3_business_search&utm_source=a2JdNtFqB-C38ga_06BHvw", "review_count": 688, "categories": [{"alias": "asianfusion", "title": "Asian Fusion"}, {"alias": "sushi", "title": "Sushi Bars"}, {"alias": "cocktailbars", "title": "Cocktail Bars"}], "rating": 3.5, "coordinates": {"latitude": 42.348503112793, "longitude": -71.073356628418}, "transactions": ["pickup", "delivery"], "price": "$$$", "location": {"address1": "39 Stanhope St", "address2": "", "address3": "", "city": "Boston", "zip_code": "02116", "country": "US", "state": "MA", "display_address": ["39 Stanhope St", "Boston, MA 02116"]}, "phone": "+16172623900", "display_phone": "(617) 262-3900", "distance": 2020.271790769511}, {"id": "gVmVqKTkgfFqXDg53t_nVQ", "alias": "bar--vin-1855-boston", "name": "Bar  vin 1855", "image_url": "https://s3-media4.fl.yelpcdn.com/bphoto/Gmjwi3lA__y5Qdrl4m7r6g/o.jpg", "is_closed": false, "url": "https://www.yelp.com/biz/bar-%C3%A0-vin-1855-boston?adjust_creative=a2JdNtFqB-C38ga_06BHvw&utm_campaign=yelp_api_v3&utm_medium=api_v3_business_search&utm_source=a2JdNtFqB-C38ga_06BHvw", "review_count": 18, "categories": [{"alias": "wine_bars", "title": "Wine Bars"}, {"alias": "french", "title": "French"}], "rating": 4.5, "coordinates": {"latitude": 42.34966, "longitude": -71.08322}, "transactions": [], "location": {"address1": "259 Newbury St", "address2": "", "address3": null, "city": "Boston", "zip_code": "02116", "country": "US", "state": "MA", "display_address": ["259 Newbury St", "Boston, MA 02116"]}, "phone": "+16175874222", "display_phone": "(617) 587-4222", "distance": 1251.1946949774267}, {"id": "gkCSVmq6Mx8Z04KzkrHzCA", "alias": "porto-boston", "name": "Porto", "image_url": "https://s3-media1.fl.yelpcdn.com/bphoto/Nm9mdWepa-tPDKh6jd7dKg/o.jpg", "is_closed": false, "url": "https://www.yelp.com/biz/porto-boston?adjust_creative=a2JdNtFqB-C38ga_06BHvw&utm_campaign=yelp_api_v3&utm_medium=api_v3_business_search&utm_source=a2JdNtFqB-C38ga_06BHvw", "review_count": 251, "categories": [{"alias": "seafood", "title": "Seafood"}, {"alias": "mediterranean", "title": "Mediterranean"}, {"alias": "cocktailbars", "title": "Cocktail Bars"}], "rating": 3.5, "coordinates": {"latitude": 42.3474013, "longitude": -71.0799231}, "transactions": ["delivery", "pickup"], "price": "$$$", "location": {"address1": "Ring Rd", "address2": "", "address3": "", "city": "Boston", "zip_code": "02199", "country": "US", "state": "MA", "display_address": ["Ring Rd", "Boston, MA 02199"]}, "phone": "+16175361234", "display_phone": "(617) 536-1234", "distance": 1470.6319464665064}, {"id": "OxobKchEqJU2BZi6qc0QBA", "alias": "the-sevens-ale-house-boston", "name": "The Sevens Ale House", "image_url": "https://s3-media3.fl.yelpcdn.com/bphoto/VC0DN9tFbCgJ9g-hGOhgpw/o.jpg", "is_closed": false, "url": "https://www.yelp.com/biz/the-sevens-ale-house-boston?adjust_creative=a2JdNtFqB-C38ga_06BHvw&utm_campaign=yelp_api_v3&utm_medium=api_v3_business_search&utm_source=a2JdNtFqB-C38ga_06BHvw", "review_count": 281, "categories": [{"alias": "pubs", "title": "Pubs"}, {"alias": "tradamerican", "title": "American (Traditional)"}], "rating": 3.5, "coordinates": {"latitude": 42.358163031345, "longitude": -71.070565798128}, "transactions": ["delivery"], "price": "$$", "location": {"address1": "77 Charles St", "address2": "", "address3": "", "city": "Boston", "zip_code": "02114", "country": "US", "state": "MA", "display_address": ["77 Charles St", "Boston, MA 02114"]}, "phone": "+16175239074", "display_phone": "(617) 523-9074", "distance": 2597.08890802672}, {"id": "xyoagpWYgFuIKcCE425epA", "alias": "naco-taco-cambridge-6", "name": "Naco Taco", "image_url": "https://s3-media1.fl.yelpcdn.com/bphoto/4RMnvogLccJ3qYSYQsaAUw/o.jpg", "is_closed": false, "url": "https://www.yelp.com/biz/naco-taco-cambridge-6?adjust_creative=a2JdNtFqB-C38ga_06BHvw&utm_campaign=yelp_api_v3&utm_medium=api_v3_business_search&utm_source=a2JdNtFqB-C38ga_06BHvw", "review_count": 492, "categories": [{"alias": "mexican", "title": "Mexican"}, {"alias": "beerbar", "title": "Beer Bar"}, {"alias": "cocktailbars", "title": "Cocktail Bars"}], "rating": 3.5, "coordinates": {"latitude": 42.36234, "longitude": -71.09811}, "transactions": ["delivery"], "price": "$$", "location": {"address1": "297 Massachusetts Ave", "address2": "", "address3": "", "city": "Cambridge", "zip_code": "02139", "country": "US", "state": "MA", "display_address": ["297 Massachusetts Ave", "Cambridge, MA 02139"]}, "phone": "+16179451548", "display_phone": "(617) 945-1548", "distance": 1797.494137734391}, {"id": "K676uk86gZfTBbXw9TvbMw", "alias": "trophy-room-boston-3", "name": "Trophy Room", "image_url": "https://s3-media1.fl.yelpcdn.com/bphoto/zkbaVAdFl2XbeGln-X4M9w/o.jpg", "is_closed": false, "url": "https://www.yelp.com/biz/trophy-room-boston-3?adjust_creative=a2JdNtFqB-C38ga_06BHvw&utm_campaign=yelp_api_v3&utm_medium=api_v3_business_search&utm_source=a2JdNtFqB-C38ga_06BHvw", "review_count": 186, "categories": [{"alias": "newamerican", "title": "American (New)"}, {"alias": "cocktailbars", "title": "Cocktail Bars"}, {"alias": "gaybars", "title": "Gay Bars"}], "rating": 3.5, "coordinates": {"latitude": 42.3469703698508, "longitude": -71.0711350197154}, "transactions": ["delivery"], "price": "$$", "location": {"address1": "26 Chandler St", "address2": "", "address3": "", "city": "Boston", "zip_code": "02116", "country": "US", "state": "MA", "display_address": ["26 Chandler St", "Boston, MA 02116"]}, "phone": "+16174824428", "display_phone": "(617) 482-4428", "distance": 2188.744597759646}, {"id": "1ormi492NqirB_kU_a8W-w", "alias": "glass-house-cambridge", "name": "Glass House", "image_url": "https://s3-media3.fl.yelpcdn.com/bphoto/KTJ3gMzbLiUPJZuP5fJdLQ/o.jpg", "is_closed": false, "url": "https://www.yelp.com/biz/glass-house-cambridge?adjust_creative=a2JdNtFqB-C38ga_06BHvw&utm_campaign=yelp_api_v3&utm_medium=api_v3_business_search&utm_source=a2JdNtFqB-C38ga_06BHvw", "review_count": 132, "categories": [{"alias": "newamerican", "title": "American (New)"}, {"alias": "cocktailbars", "title": "Cocktail Bars"}], "rating": 3.5, "coordinates": {"latitude": 42.36336989, "longitude": -71.08150964}, "transactions": ["delivery"], "price": "$$", "location": {"address1": "450 Kendall St", "address2": null, "address3": "", "city": "Cambridge", "zip_code": "02142", "country": "US", "state": "MA", "display_address": ["450 Kendall St", "Cambridge, MA 02142"]}, "phone": "+16179459450", "display_phone": "(617) 945-9450", "distance": 2324.8080391290932}, {"id": "ZepRG9iVXXA-u3gH5C-UKA", "alias": "solas-irish-pub-boston-3", "name": "Solas Irish Pub", "image_url": "https://s3-media1.fl.yelpcdn.com/bphoto/190lfu53lHidZ2-o4ZAjbA/o.jpg", "is_closed": false, "url": "https://www.yelp.com/biz/solas-irish-pub-boston-3?adjust_creative=a2JdNtFqB-C38ga_06BHvw&utm_campaign=yelp_api_v3&utm_medium=api_v3_business_search&utm_source=a2JdNtFqB-C38ga_06BHvw", "review_count": 378, "categories": [{"alias": "pubs", "title": "Pubs"}, {"alias": "irish", "title": "Irish"}], "rating": 3.5, "coordinates": {"latitude": 42.34927, "longitude": -71.079759}, "transactions": ["delivery"], "price": "$$", "location": {"address1": "710 Boylston St", "address2": null, "address3": "", "city": "Boston", "zip_code": "02116", "country": "US", "state": "MA", "display_address": ["710 Boylston St", "Boston, MA 02116"]}, "phone": "+16179334803", "display_phone": "(617) 933-4803", "distance": 1516.2576462264112}, {"id": "DkhLETFI7Z49Kbsa6E1icA", "alias": "hojoko-boston-boston", "name": "Hojoko Boston", "image_url": "https://s3-media1.fl.yelpcdn.com/bphoto/zg_fAYOi2hXfLOBBHIWmLA/o.jpg", "is_closed": false, "url": "https://www.yelp.com/biz/hojoko-boston-boston?adjust_creative=a2JdNtFqB-C38ga_06BHvw&utm_campaign=yelp_api_v3&utm_medium=api_v3_business_search&utm_source=a2JdNtFqB-C38ga_06BHvw", "review_count": 407, "categories": [{"alias": "japanese", "title": "Japanese"}, {"alias": "cocktailbars", "title": "Cocktail Bars"}], "rating": 3.5, "coordinates": {"latitude": 42.3451899451252, "longitude": -71.0969520423279}, "transactions": ["delivery", "pickup"], "price": "$$", "location": {"address1": "1271 Boylston St", "address2": "", "address3": "", "city": "Boston", "zip_code": "02215", "country": "US", "state": "MA", "display_address": ["1271 Boylston St", "Boston, MA 02215"]}, "phone": "+16176700507", "display_phone": "(617) 670-0507", "distance": 134.88712390436123}, {"id": "W2YNtO5W_ZK6o-1t8uLcYw", "alias": "montien-thai-restaurant-boston-8", "name": "Montien Thai Restaurant", "image_url": "https://s3-media1.fl.yelpcdn.com/bphoto/mlo-LFb1nPLsrx0UuIuZ1w/o.jpg", "is_closed": false, "url": "https://www.yelp.com/biz/montien-thai-restaurant-boston-8?adjust_creative=a2JdNtFqB-C38ga_06BHvw&utm_campaign=yelp_api_v3&utm_medium=api_v3_business_search&utm_source=a2JdNtFqB-C38ga_06BHvw", "review_count": 453, "categories": [{"alias": "thai", "title": "Thai"}, {"alias": "seafood", "title": "Seafood"}, {"alias": "cocktailbars", "title": "Cocktail Bars"}], "rating": 3.5, "coordinates": {"latitude": 42.3512038320959, "longitude": -71.0643856379959}, "transactions": ["delivery", "pickup"], "price": "$$", "location": {"address1": "63 Stuart St", "address2": null, "address3": "", "city": "Boston", "zip_code": "02116", "country": "US", "state": "MA", "display_address": ["63 Stuart St", "Boston, MA 02116"]}, "phone": "+16173385600", "display_phone": "(617) 338-5600", "distance": 2796.649826148306}, {"id": "w2uRbCHkWjjHzHnYRsG-EQ", "alias": "the-lansdowne-pub-boston", "name": "The Lansdowne Pub", "image_url": "https://s3-media1.fl.yelpcdn.com/bphoto/Bi89xiNYhd8Sa-cBRCbgbg/o.jpg", "is_closed": false, "url": "https://www.yelp.com/biz/the-lansdowne-pub-boston?adjust_creative=a2JdNtFqB-C38ga_06BHvw&utm_campaign=yelp_api_v3&utm_medium=api_v3_business_search&utm_source=a2JdNtFqB-C38ga_06BHvw", "review_count": 371, "categories": [{"alias": "pubs", "title": "Pubs"}, {"alias": "salad", "title": "Salad"}, {"alias": "sandwiches", "title": "Sandwiches"}], "rating": 3.5, "coordinates": {"latitude": 42.347327, "longitude": -71.095093}, "transactions": ["delivery", "pickup"], "price": "$$", "location": {"address1": "9 Lansdowne St", "address2": "", "address3": "", "city": "Boston", "zip_code": "02215", "country": "US", "state": "MA", "display_address": ["9 Lansdowne St", "Boston, MA 02215"]}, "phone": "+16172471222", "display_phone": "(617) 247-1222", "distance": 246.69756496157862}, {"id": "JwJa6nY_wlZEjagVleWQ-Q", "alias": "cheers-boston", "name": "Cheers", "image_url": "https://s3-media3.fl.yelpcdn.com/bphoto/4KEPdX1MQl9IdDGKS9j0XA/o.jpg", "is_closed": false, "url": "https://www.yelp.com/biz/cheers-boston?adjust_creative=a2JdNtFqB-C38ga_06BHvw&utm_campaign=yelp_api_v3&utm_medium=api_v3_business_search&utm_source=a2JdNtFqB-C38ga_06BHvw", "review_count": 971, "categories": [{"alias": "tradamerican", "title": "American (Traditional)"}, {"alias": "sportsbars", "title": "Sports Bars"}], "rating": 3.5, "coordinates": {"latitude": 42.355936044299, "longitude": -71.0711767808}, "transactions": ["delivery"], "price": "$$", "location": {"address1": "84 Beacon St", "address2": "", "address3": "", "city": "Boston", "zip_code": "02108", "country": "US", "state": "MA", "display_address": ["84 Beacon St", "Boston, MA 02108"]}, "phone": "+16172279605", "display_phone": "(617) 227-9605", "distance": 2434.854221640552}, {"id": "4lMpwHFzxmirHqLSsj8BjQ", "alias": "csmica-boston-3", "name": "Csmica", "image_url": "https://s3-media3.fl.yelpcdn.com/bphoto/WXwCUKELSsbfbzrQcPryUw/o.jpg", "is_closed": false, "url": "https://www.yelp.com/biz/c%C3%B3smica-boston-3?adjust_creative=a2JdNtFqB-C38ga_06BHvw&utm_campaign=yelp_api_v3&utm_medium=api_v3_business_search&utm_source=a2JdNtFqB-C38ga_06BHvw", "review_count": 67, "categories": [{"alias": "mexican", "title": "Mexican"}, {"alias": "cocktailbars", "title": "Cocktail Bars"}], "rating": 4.0, "coordinates": {"latitude": 42.34594, "longitude": -71.07087}, "transactions": [], "location": {"address1": "40 Berkeley St", "address2": null, "address3": "", "city": "Boston", "zip_code": "02116", "country": "US", "state": "MA", "display_address": ["40 Berkeley St", "Boston, MA 02116"]}, "phone": "", "display_phone": "", "distance": 2206.8299909229304}, {"id": "cSvpRCBljhJiE6NFZUwK4w", "alias": "sunset-cantina-boston", "name": "Sunset Cantina", "image_url": "https://s3-media3.fl.yelpcdn.com/bphoto/LEc1CDwjyIRormqfR4gk0w/o.jpg", "is_closed": false, "url": "https://www.yelp.com/biz/sunset-cantina-boston?adjust_creative=a2JdNtFqB-C38ga_06BHvw&utm_campaign=yelp_api_v3&utm_medium=api_v3_business_search&utm_source=a2JdNtFqB-C38ga_06BHvw", "review_count": 634, "categories": [{"alias": "mexican", "title": "Mexican"}, {"alias": "sportsbars", "title": "Sports Bars"}, {"alias": "tradamerican", "title": "American (Traditional)"}], "rating": 3.5, "coordinates": {"latitude": 42.35085, "longitude": -71.117}, "transactions": ["delivery", "pickup"], "price": "$$", "location": {"address1": "916 Commonwealth Ave", "address2": "", "address3": "", "city": "Boston", "zip_code": "02215", "country": "US", "state": "MA", "display_address": ["916 Commonwealth Ave", "Boston, MA 02215"]}, "phone": "+16177318646", "display_phone": "(617) 731-8646", "distance": 1650.2724244185254}, {"id": "U4C0Bgoeqev9Ee1_upRccQ", "alias": "sip-wine-bar-and-kitchen-boston", "name": "Sip Wine Bar And Kitchen", "image_url": "https://s3-media2.fl.yelpcdn.com/bphoto/QANdvn0bvhDAchZW-c1NAg/o.jpg", "is_closed": false, "url": "https://www.yelp.com/biz/sip-wine-bar-and-kitchen-boston?adjust_creative=a2JdNtFqB-C38ga_06BHvw&utm_campaign=yelp_api_v3&utm_medium=api_v3_business_search&utm_source=a2JdNtFqB-C38ga_06BHvw", "review_count": 337, "categories": [{"alias": "wine_bars", "title": "Wine Bars"}, {"alias": "sushi", "title": "Sushi Bars"}, {"alias": "sandwiches", "title": "Sandwiches"}], "rating": 3.5, "coordinates": {"latitude": 42.3534477310604, "longitude": -71.0626994386251}, "transactions": ["delivery", "pickup"], "price": "$$", "location": {"address1": "581 Washington St", "address2": "", "address3": "", "city": "Boston", "zip_code": "02111", "country": "US", "state": "MA", "display_address": ["581 Washington St", "Boston, MA 02111"]}, "phone": "+16179560888", "display_phone": "(617) 956-0888", "distance": 2989.5111943663833}, {"id": "bsGuOhibpJc-MHNXj9kiUg", "alias": "caskn-flagon-boston-2", "name": "Cask'n Flagon", "image_url": "https://s3-media4.fl.yelpcdn.com/bphoto/NqhVaAfYZXxI1AyFyqqf3Q/o.jpg", "is_closed": false, "url": "https://www.yelp.com/biz/caskn-flagon-boston-2?adjust_creative=a2JdNtFqB-C38ga_06BHvw&utm_campaign=yelp_api_v3&utm_medium=api_v3_business_search&utm_source=a2JdNtFqB-C38ga_06BHvw", "review_count": 610, "categories": [{"alias": "sportsbars", "title": "Sports Bars"}, {"alias": "tradamerican", "title": "American (Traditional)"}], "rating": 3.5, "coordinates": {"latitude": 42.347299978137, "longitude": -71.0983470082283}, "transactions": ["delivery", "pickup"], "price": "$$", "location": {"address1": "62 Brookline Ave", "address2": "", "address3": "", "city": "Boston", "zip_code": "02215", "country": "US", "state": "MA", "display_address": ["62 Brookline Ave", "Boston, MA 02215"]}, "phone": "+16175364840", "display_phone": "(617) 536-4840", "distance": 124.88389122222284}, {"id": "0AOdsO0aRRRlwxH_MGeoWg", "alias": "suya-joint-all-african-cuisine-roxbury", "name": "Suya Joint All African Cuisine", "image_url": "https://s3-media3.fl.yelpcdn.com/bphoto/l5m5gwi9hL_jiviaGVzwGg/o.jpg", "is_closed": false, "url": "https://www.yelp.com/biz/suya-joint-all-african-cuisine-roxbury?adjust_creative=a2JdNtFqB-C38ga_06BHvw&utm_campaign=yelp_api_v3&utm_medium=api_v3_business_search&utm_source=a2JdNtFqB-C38ga_06BHvw", "review_count": 104, "categories": [{"alias": "african", "title": "African"}, {"alias": "wine_bars", "title": "Wine Bars"}, {"alias": "cocktailbars", "title": "Cocktail Bars"}], "rating": 3.5, "coordinates": {"latitude": 42.32833, "longitude": -71.08196}, "transactions": ["delivery", "pickup"], "price": "$$", "location": {"address1": "185 Dudley St", "address2": null, "address3": "", "city": "Roxbury", "zip_code": "02119", "country": "US", "state": "MA", "display_address": ["185 Dudley St", "Roxbury, MA 02119"]}, "phone": "+16177080245", "display_phone": "(617) 708-0245", "distance": 2382.6891321513804}, {"id": "SCXfxp-mF-S2YoLqfYMSEA", "alias": "map-room-tea-lounge-boston-2", "name": "Map Room Tea Lounge", "image_url": "https://s3-media2.fl.yelpcdn.com/bphoto/ykQxkQxfkw5J4EEmpiZ-2A/o.jpg", "is_closed": false, "url": "https://www.yelp.com/biz/map-room-tea-lounge-boston-2?adjust_creative=a2JdNtFqB-C38ga_06BHvw&utm_campaign=yelp_api_v3&utm_medium=api_v3_business_search&utm_source=a2JdNtFqB-C38ga_06BHvw", "review_count": 73, "categories": [{"alias": "lounges", "title": "Lounges"}, {"alias": "cocktailbars", "title": "Cocktail Bars"}, {"alias": "sandwiches", "title": "Sandwiches"}], "rating": 3.5, "coordinates": {"latitude": 42.349713, "longitude": -71.07779}, "transactions": ["delivery"], "price": "$$", "location": {"address1": "700 Boylston St", "address2": "", "address3": "", "city": "Boston", "zip_code": "02116", "country": "US", "state": "MA", "display_address": ["700 Boylston St", "Boston, MA 02116"]}, "phone": "+16178592251", "display_phone": "(617) 859-2251", "distance": 1684.9129469407055}, {"id": "XE3oEdVJ2wu_J5X8TdLU-w", "alias": "730-tavern-kitchen-and-patio-cambridge-2", "name": "730 Tavern, Kitchen & Patio", "image_url": "https://s3-media3.fl.yelpcdn.com/bphoto/18tkE6X3A8BC1ND1d-q_5A/o.jpg", "is_closed": false, "url": "https://www.yelp.com/biz/730-tavern-kitchen-and-patio-cambridge-2?adjust_creative=a2JdNtFqB-C38ga_06BHvw&utm_campaign=yelp_api_v3&utm_medium=api_v3_business_search&utm_source=a2JdNtFqB-C38ga_06BHvw", "review_count": 98, "categories": [{"alias": "tradamerican", "title": "American (Traditional)"}, {"alias": "sportsbars", "title": "Sports Bars"}], "rating": 3.5, "coordinates": {"latitude": 42.36591, "longitude": -71.10514}, "transactions": ["delivery", "pickup"], "price": "$$", "location": {"address1": "730 Massachusetts Ave", "address2": null, "address3": "", "city": "Cambridge", "zip_code": "02139", "country": "US", "state": "MA", "display_address": ["730 Massachusetts Ave", "Cambridge, MA 02139"]}, "phone": "+16178688800", "display_phone": "(617) 868-8800", "distance": 2278.821434755242}, {"id": "DMMIU3G8CngajT2ymBfXxw", "alias": "flann-o-briens-roxbury-crossing", "name": "Flann O'Brien's", "image_url": "https://s3-media1.fl.yelpcdn.com/bphoto/dcnayuTys3O_HUNca2aWVg/o.jpg", "is_closed": false, "url": "https://www.yelp.com/biz/flann-o-briens-roxbury-crossing?adjust_creative=a2JdNtFqB-C38ga_06BHvw&utm_campaign=yelp_api_v3&utm_medium=api_v3_business_search&utm_source=a2JdNtFqB-C38ga_06BHvw", "review_count": 150, "categories": [{"alias": "pubs", "title": "Pubs"}, {"alias": "irish", "title": "Irish"}], "rating": 3.5, "coordinates": {"latitude": 42.33386, "longitude": -71.103309}, "transactions": ["delivery"], "price": "$$", "location": {"address1": "1619 Tremont St", "address2": "", "address3": "", "city": "Roxbury Crossing", "zip_code": "02120", "country": "US", "state": "MA", "display_address": ["1619 Tremont St", "Roxbury Crossing, MA 02120"]}, "phone": "+16175667744", "display_phone": "(617) 566-7744", "distance": 1451.490134744155}, {"id": "E_vKoJ0zvpfAcEkQGS4d2A", "alias": "daedalus-restaurant-cambridge", "name": "Daedalus Restaurant", "image_url": "https://s3-media2.fl.yelpcdn.com/bphoto/eb8gztaZdEtUJZtdNGiWRw/o.jpg", "is_closed": false, "url": "https://www.yelp.com/biz/daedalus-restaurant-cambridge?adjust_creative=a2JdNtFqB-C38ga_06BHvw&utm_campaign=yelp_api_v3&utm_medium=api_v3_business_search&utm_source=a2JdNtFqB-C38ga_06BHvw", "review_count": 460, "categories": [{"alias": "pubs", "title": "Pubs"}, {"alias": "newamerican", "title": "American (New)"}], "rating": 3.5, "coordinates": {"latitude": 42.3712908462239, "longitude": -71.11647605896}, "transactions": ["delivery"], "price": "$$", "location": {"address1": "45 Mt Auburn St", "address2": "", "address3": "", "city": "Cambridge", "zip_code": "02138", "country": "US", "state": "MA", "display_address": ["45 Mt Auburn St", "Cambridge, MA 02138"]}, "phone": "+16173490071", "display_phone": "(617) 349-0071", "distance": 3181.257362176361}, {"id": "nBG0C0J7bnBnUMB39F5O-A", "alias": "bin-26-enoteca-boston", "name": "Bin 26 Enoteca", "image_url": "https://s3-media2.fl.yelpcdn.com/bphoto/dMY25XJOSKvvk35Vc1MRcQ/o.jpg", "is_closed": false, "url": "https://www.yelp.com/biz/bin-26-enoteca-boston?adjust_creative=a2JdNtFqB-C38ga_06BHvw&utm_campaign=yelp_api_v3&utm_medium=api_v3_business_search&utm_source=a2JdNtFqB-C38ga_06BHvw", "review_count": 289, "categories": [{"alias": "italian", "title": "Italian"}, {"alias": "wine_bars", "title": "Wine Bars"}], "rating": 3.5, "coordinates": {"latitude": 42.3567997335806, "longitude": -71.0697841644287}, "transactions": ["delivery"], "price": "$$$", "location": {"address1": "26 Charles St", "address2": null, "address3": "", "city": "Boston", "zip_code": "02114", "country": "US", "state": "MA", "display_address": ["26 Charles St", "Boston, MA 02114"]}, "phone": "+16177235939", "display_phone": "(617) 723-5939", "distance": 2580.201284287825}, {"id": "TLtykd3vG5_BG-8MP66RHg", "alias": "kings-dining-and-entertainment-boston", "name": "Kings Dining & Entertainment", "image_url": "https://s3-media4.fl.yelpcdn.com/bphoto/gy4wfdRQrK6Ofa2jv92hrg/o.jpg", "is_closed": false, "url": "https://www.yelp.com/biz/kings-dining-and-entertainment-boston?adjust_creative=a2JdNtFqB-C38ga_06BHvw&utm_campaign=yelp_api_v3&utm_medium=api_v3_business_search&utm_source=a2JdNtFqB-C38ga_06BHvw", "review_count": 514, "categories": [{"alias": "bowling", "title": "Bowling"}, {"alias": "sportsbars", "title": "Sports Bars"}, {"alias": "tradamerican", "title": "American (Traditional)"}], "rating": 3.0, "coordinates": {"latitude": 42.34706, "longitude": -71.08565}, "transactions": ["delivery"], "price": "$$", "location": {"address1": "50 Dalton St", "address2": "", "address3": "", "city": "Boston", "zip_code": "02115", "country": "US", "state": "MA", "display_address": ["50 Dalton St", "Boston, MA 02115"]}, "phone": "+16172662695", "display_phone": "(617) 266-2695", "distance": 999.9214152194827}, {"id": "vCaaXCYqpBsxJy2kBR67IA", "alias": "the-brahmin-boston", "name": "The Brahmin", "image_url": "https://s3-media1.fl.yelpcdn.com/bphoto/UMklcvMYPM0BOcEWmYMlUQ/o.jpg", "is_closed": false, "url": "https://www.yelp.com/biz/the-brahmin-boston?adjust_creative=a2JdNtFqB-C38ga_06BHvw&utm_campaign=yelp_api_v3&utm_medium=api_v3_business_search&utm_source=a2JdNtFqB-C38ga_06BHvw", "review_count": 398, "categories": [{"alias": "newamerican", "title": "American (New)"}, {"alias": "cocktailbars", "title": "Cocktail Bars"}], "rating": 3.5, "coordinates": {"latitude": 42.3484325, "longitude": -71.0731806}, "transactions": ["delivery"], "price": "$$", "location": {"address1": "33 Stanhope St", "address2": "", "address3": "", "city": "Boston", "zip_code": "02116", "country": "US", "state": "MA", "display_address": ["33 Stanhope St", "Boston, MA 02116"]}, "phone": "+16177233131", "display_phone": "(617) 723-3131", "distance": 2033.6763697695453}, {"id": "x1RMxTftVIjS8HvWf8tpoA", "alias": "the-red-house-cambridge", "name": "The Red House", "image_url": "https://s3-media3.fl.yelpcdn.com/bphoto/Tn8ij9klTnfs2gmLN3eCkg/o.jpg", "is_closed": false, "url": "https://www.yelp.com/biz/the-red-house-cambridge?adjust_creative=a2JdNtFqB-C38ga_06BHvw&utm_campaign=yelp_api_v3&utm_medium=api_v3_business_search&utm_source=a2JdNtFqB-C38ga_06BHvw", "review_count": 557, "categories": [{"alias": "newamerican", "title": "American (New)"}, {"alias": "seafood", "title": "Seafood"}, {"alias": "cocktailbars", "title": "Cocktail Bars"}], "rating": 3.0, "coordinates": {"latitude": 42.37248, "longitude": -71.1211576}, "transactions": ["pickup", "delivery"], "price": "$$", "location": {"address1": "98 Winthrop St", "address2": "", "address3": "", "city": "Cambridge", "zip_code": "02138", "country": "US", "state": "MA", "display_address": ["98 Winthrop St", "Cambridge, MA 02138"]}, "phone": "+16175760605", "display_phone": "(617) 576-0605", "distance": 3493.6890908686514}, {"id": "aehgQxttnq8h6LEKsu9T7g", "alias": "the-hill-tavern-boston", "name": "The Hill Tavern", "image_url": "https://s3-media4.fl.yelpcdn.com/bphoto/oryPa_42LPgBPkmabZ1f4w/o.jpg", "is_closed": false, "url": "https://www.yelp.com/biz/the-hill-tavern-boston?adjust_creative=a2JdNtFqB-C38ga_06BHvw&utm_campaign=yelp_api_v3&utm_medium=api_v3_business_search&utm_source=a2JdNtFqB-C38ga_06BHvw", "review_count": 251, "categories": [{"alias": "pubs", "title": "Pubs"}, {"alias": "breakfast_brunch", "title": "Breakfast & Brunch"}, {"alias": "sandwiches", "title": "Sandwiches"}], "rating": 3.5, "coordinates": {"latitude": 42.36098, "longitude": -71.06666}, "transactions": ["pickup", "delivery"], "price": "$$", "location": {"address1": "228 Cambridge St", "address2": "", "address3": "", "city": "Boston", "zip_code": "02114", "country": "US", "state": "MA", "display_address": ["228 Cambridge St", "Boston, MA 02114"]}, "phone": "+16177426192", "display_phone": "(617) 742-6192", "distance": 3035.9561734505733}, {"id": "ZPCrCl8K5slskpZ7Zz2uqg", "alias": "lily-ps-cambridge", "name": "Lily P's", "image_url": "https://s3-media3.fl.yelpcdn.com/bphoto/-unjDB42vDpAtv8L-FSlQA/o.jpg", "is_closed": false, "url": "https://www.yelp.com/biz/lily-ps-cambridge?adjust_creative=a2JdNtFqB-C38ga_06BHvw&utm_campaign=yelp_api_v3&utm_medium=api_v3_business_search&utm_source=a2JdNtFqB-C38ga_06BHvw", "review_count": 52, "categories": [{"alias": "venues", "title": "Venues & Event Spaces"}, {"alias": "chickenshop", "title": "Chicken Shop"}, {"alias": "cocktailbars", "title": "Cocktail Bars"}], "rating": 4.0, "coordinates": {"latitude": 42.365049, "longitude": -71.0786666}, "transactions": ["delivery"], "location": {"address1": "50 Binney St", "address2": "Ste 1", "address3": null, "city": "Cambridge", "zip_code": "02142", "country": "US", "state": "MA", "display_address": ["50 Binney St", "Ste 1", "Cambridge, MA 02142"]}, "phone": "+16172252900", "display_phone": "(617) 225-2900", "distance": 2613.135365020503}, {"id": "q2EXggq1IIrw20YPSfvJeQ", "alias": "phoenix-landing-cambridge-2", "name": "Phoenix Landing", "image_url": "https://s3-media2.fl.yelpcdn.com/bphoto/ExNntLeH72MccB2DUb6kTg/o.jpg", "is_closed": false, "url": "https://www.yelp.com/biz/phoenix-landing-cambridge-2?adjust_creative=a2JdNtFqB-C38ga_06BHvw&utm_campaign=yelp_api_v3&utm_medium=api_v3_business_search&utm_source=a2JdNtFqB-C38ga_06BHvw", "review_count": 322, "categories": [{"alias": "irish", "title": "Irish"}, {"alias": "pubs", "title": "Pubs"}, {"alias": "danceclubs", "title": "Dance Clubs"}], "rating": 3.5, "coordinates": {"latitude": 42.36403, "longitude": -71.10199}, "transactions": ["delivery"], "price": "$$", "location": {"address1": "512 Massachusetts Ave", "address2": "", "address3": "", "city": "Cambridge", "zip_code": "02139", "country": "US", "state": "MA", "display_address": ["512 Massachusetts Ave", "Cambridge, MA 02139"]}, "phone": "+16175766260", "display_phone": "(617) 576-6260", "distance": 2001.5953175608372}, {"id": "5P5ycXMBRKvIZaEAKTdBBg", "alias": "parlour-brookline", "name": "Parlour", "image_url": "https://s3-media2.fl.yelpcdn.com/bphoto/HOZlFw042E4_RgoqArFDXg/o.jpg", "is_closed": false, "url": "https://www.yelp.com/biz/parlour-brookline?adjust_creative=a2JdNtFqB-C38ga_06BHvw&utm_campaign=yelp_api_v3&utm_medium=api_v3_business_search&utm_source=a2JdNtFqB-C38ga_06BHvw", "review_count": 31, "categories": [{"alias": "newamerican", "title": "American (New)"}, {"alias": "cocktailbars", "title": "Cocktail Bars"}, {"alias": "tapasmallplates", "title": "Tapas/Small Plates"}], "rating": 4.0, "coordinates": {"latitude": 42.34301, "longitude": -71.12334}, "transactions": ["delivery"], "price": "$$", "location": {"address1": "308 Harvard St", "address2": null, "address3": "", "city": "Brookline", "zip_code": "02446", "country": "US", "state": "MA", "display_address": ["308 Harvard St", "Brookline, MA 02446"]}, "phone": "+16175053948", "display_phone": "(617) 505-3948", "distance": 2143.2696160394826}, {"id": "m0b79jiAXpcvJXyZlu82UA", "alias": "orfano-boston", "name": "Orfano", "image_url": "https://s3-media3.fl.yelpcdn.com/bphoto/--xjhvOSd5YWPO2bPBChDQ/o.jpg", "is_closed": false, "url": "https://www.yelp.com/biz/orfano-boston?adjust_creative=a2JdNtFqB-C38ga_06BHvw&utm_campaign=yelp_api_v3&utm_medium=api_v3_business_search&utm_source=a2JdNtFqB-C38ga_06BHvw", "review_count": 67, "categories": [{"alias": "italian", "title": "Italian"}, {"alias": "cocktailbars", "title": "Cocktail Bars"}], "rating": 3.5, "coordinates": {"latitude": 42.3436005155368, "longitude": -71.1014881168698}, "transactions": ["delivery"], "price": "$$$", "location": {"address1": "1391 Boylston St", "address2": "", "address3": null, "city": "Boston", "zip_code": "02215", "country": "US", "state": "MA", "display_address": ["1391 Boylston St", "Boston, MA 02215"]}, "phone": "+16179169600", "display_phone": "(617) 916-9600", "distance": 425.64711536092}, {"id": "pOtm0huSB2_ydAhPLU7EwQ", "alias": "tavern-in-the-square-allston-4", "name": "Tavern in the Square", "image_url": "https://s3-media1.fl.yelpcdn.com/bphoto/Y5Ef61q8W7G19-soJKeH5A/o.jpg", "is_closed": false, "url": "https://www.yelp.com/biz/tavern-in-the-square-allston-4?adjust_creative=a2JdNtFqB-C38ga_06BHvw&utm_campaign=yelp_api_v3&utm_medium=api_v3_business_search&utm_source=a2JdNtFqB-C38ga_06BHvw", "review_count": 487, "categories": [{"alias": "sportsbars", "title": "Sports Bars"}, {"alias": "desserts", "title": "Desserts"}, {"alias": "tradamerican", "title": "American (Traditional)"}], "rating": 3.0, "coordinates": {"latitude": 42.35330745278515, "longitude": -71.1326381055454}, "transactions": ["delivery"], "price": "$$", "location": {"address1": "161 Brighton Ave", "address2": "", "address3": null, "city": "Allston", "zip_code": "02134", "country": "US", "state": "MA", "display_address": ["161 Brighton Ave", "Allston, MA 02134"]}, "phone": "+16177828100", "display_phone": "(617) 782-8100", "distance": 2972.4974385655355}, {"id": "PLuitJs0KkdjVE8wVlTZ_A", "alias": "champions-boston-2", "name": "Champions", "image_url": "https://s3-media2.fl.yelpcdn.com/bphoto/1enUkyX8mWbPcugPUfFE4w/o.jpg", "is_closed": false, "url": "https://www.yelp.com/biz/champions-boston-2?adjust_creative=a2JdNtFqB-C38ga_06BHvw&utm_campaign=yelp_api_v3&utm_medium=api_v3_business_search&utm_source=a2JdNtFqB-C38ga_06BHvw", "review_count": 263, "categories": [{"alias": "sportsbars", "title": "Sports Bars"}, {"alias": "tradamerican", "title": "American (Traditional)"}], "rating": 3.0, "coordinates": {"latitude": 42.3468789540231, "longitude": -71.079801833755}, "transactions": ["delivery"], "price": "$$", "location": {"address1": "110 Huntington Avenue", "address2": null, "address3": null, "city": "Boston", "zip_code": "02116", "country": "US", "state": "MA", "display_address": ["110 Huntington Avenue", "Boston, MA 02116"]}, "phone": "+16179275304", "display_phone": "(617) 927-5304", "distance": 1525.0795233558297}, {"id": "wFSkfP9aE_F99p-K00JA4w", "alias": "time-out-market-boston-boston-2", "name": "Time Out Market - Boston", "image_url": "https://s3-media4.fl.yelpcdn.com/bphoto/NZ3T-2KYxH8QCvKwQpA2yQ/o.jpg", "is_closed": false, "url": "https://www.yelp.com/biz/time-out-market-boston-boston-2?adjust_creative=a2JdNtFqB-C38ga_06BHvw&utm_campaign=yelp_api_v3&utm_medium=api_v3_business_search&utm_source=a2JdNtFqB-C38ga_06BHvw", "review_count": 283, "categories": [{"alias": "cocktailbars", "title": "Cocktail Bars"}, {"alias": "desserts", "title": "Desserts"}, {"alias": "newamerican", "title": "American (New)"}], "rating": 3.0, "coordinates": {"latitude": 42.344685, "longitude": -71.102731}, "transactions": [], "price": "$$", "location": {"address1": "401 Park Dr", "address2": "", "address3": null, "city": "Boston", "zip_code": "02215", "country": "US", "state": "MA", "display_address": ["401 Park Dr", "Boston, MA 02215"]}, "phone": "+19783938088", "display_phone": "(978) 393-8088", "distance": 407.4948152410296}, {"id": "dz2OSto01aMIWkGHXd8lOg", "alias": "fire-ice-grill-bar-boston", "name": "FiRE + iCE  Grill + Bar", "image_url": "https://s3-media3.fl.yelpcdn.com/bphoto/iBe5k9o2RPk67Vx8oPTUUQ/o.jpg", "is_closed": false, "url": "https://www.yelp.com/biz/fire-ice-grill-bar-boston?adjust_creative=a2JdNtFqB-C38ga_06BHvw&utm_campaign=yelp_api_v3&utm_medium=api_v3_business_search&utm_source=a2JdNtFqB-C38ga_06BHvw", "review_count": 750, "categories": [{"alias": "tradamerican", "title": "American (Traditional)"}, {"alias": "cocktailbars", "title": "Cocktail Bars"}, {"alias": "comfortfood", "title": "Comfort Food"}], "rating": 3.0, "coordinates": {"latitude": 42.35066, "longitude": -71.07249}, "transactions": ["delivery"], "price": "$$", "location": {"address1": "205 Berkeley St", "address2": "", "address3": "", "city": "Boston", "zip_code": "02116", "country": "US", "state": "MA", "display_address": ["205 Berkeley St", "Boston, MA 02116"]}, "phone": "+16174823473", "display_phone": "(617) 482-3473", "distance": 2130.5231814329622}, {"id": "ev0CyR6RXtt-2mjQciY3nw", "alias": "the-bullpen-boston", "name": "The Bullpen", "image_url": "https://s3-media2.fl.yelpcdn.com/bphoto/YCPdQEnc_a1GrKf5hcqu4Q/o.jpg", "is_closed": false, "url": "https://www.yelp.com/biz/the-bullpen-boston?adjust_creative=a2JdNtFqB-C38ga_06BHvw&utm_campaign=yelp_api_v3&utm_medium=api_v3_business_search&utm_source=a2JdNtFqB-C38ga_06BHvw", "review_count": 17, "categories": [{"alias": "sportsbars", "title": "Sports Bars"}, {"alias": "tradamerican", "title": "American (Traditional)"}, {"alias": "burgers", "title": "Burgers"}], "rating": 4.5, "coordinates": {"latitude": 42.34613, "longitude": -71.09884}, "transactions": [], "price": "$", "location": {"address1": "19-21 Jersey St", "address2": "", "address3": null, "city": "Boston", "zip_code": "02215", "country": "US", "state": "MA", "display_address": ["19-21 Jersey St", "Boston, MA 02215"]}, "phone": "+16172473353", "display_phone": "(617) 247-3353", "distance": 84.80065555007438}, {"id": "ZFCJr_QRGPVKerWCkvR7SA", "alias": "bar-10-boston-2", "name": "Bar 10", "image_url": "https://s3-media4.fl.yelpcdn.com/bphoto/kJBMD78bhXPkFtUd86nPDg/o.jpg", "is_closed": false, "url": "https://www.yelp.com/biz/bar-10-boston-2?adjust_creative=a2JdNtFqB-C38ga_06BHvw&utm_campaign=yelp_api_v3&utm_medium=api_v3_business_search&utm_source=a2JdNtFqB-C38ga_06BHvw", "review_count": 119, "categories": [{"alias": "lounges", "title": "Lounges"}, {"alias": "newamerican", "title": "American (New)"}, {"alias": "cocktailbars", "title": "Cocktail Bars"}], "rating": 3.5, "coordinates": {"latitude": 42.3485, "longitude": -71.077169}, "transactions": ["delivery"], "price": "$$", "location": {"address1": "10 Huntington Ave", "address2": "", "address3": "", "city": "Boston", "zip_code": "02116", "country": "US", "state": "MA", "display_address": ["10 Huntington Ave", "Boston, MA 02116"]}, "phone": "+16174247488", "display_phone": "(617) 424-7488", "distance": 1709.7756995779766}, {"id": "3edYNqlyo-x9ygEuw-SmOw", "alias": "banners-kitchen-and-tap-boston-2", "name": "Banners Kitchen & Tap", "image_url": "https://s3-media2.fl.yelpcdn.com/bphoto/NeyyPZUQvdFFsapjVfiwuA/o.jpg", "is_closed": false, "url": "https://www.yelp.com/biz/banners-kitchen-and-tap-boston-2?adjust_creative=a2JdNtFqB-C38ga_06BHvw&utm_campaign=yelp_api_v3&utm_medium=api_v3_business_search&utm_source=a2JdNtFqB-C38ga_06BHvw", "review_count": 90, "categories": [{"alias": "sportsbars", "title": "Sports Bars"}, {"alias": "newamerican", "title": "American (New)"}, {"alias": "venues", "title": "Venues & Event Spaces"}], "rating": 3.5, "coordinates": {"latitude": 42.36556, "longitude": -71.061494}, "transactions": ["pickup", "delivery"], "price": "$$", "location": {"address1": "82 Causeway St", "address2": "The Hub On Causeway", "address3": null, "city": "Boston", "zip_code": "02114", "country": "US", "state": "MA", "display_address": ["82 Causeway St", "The Hub On Causeway", "Boston, MA 02114"]}, "phone": "+16172638200", "display_phone": "(617) 263-8200", "distance": 3672.2921606791106}, {"id": "dv56VSw7tClqOuTYUrOwJw", "alias": "the-asgard-cambridge", "name": "The Asgard", "image_url": "https://s3-media2.fl.yelpcdn.com/bphoto/ZtuHgl_MUh9vuyQABBYjww/o.jpg", "is_closed": false, "url": "https://www.yelp.com/biz/the-asgard-cambridge?adjust_creative=a2JdNtFqB-C38ga_06BHvw&utm_campaign=yelp_api_v3&utm_medium=api_v3_business_search&utm_source=a2JdNtFqB-C38ga_06BHvw", "review_count": 547, "categories": [{"alias": "pubs", "title": "Pubs"}, {"alias": "irish", "title": "Irish"}], "rating": 3.0, "coordinates": {"latitude": 42.3624687194824, "longitude": -71.0996475219727}, "transactions": ["pickup", "delivery"], "price": "$$", "location": {"address1": "350 Massachusetts Ave", "address2": "", "address3": "", "city": "Cambridge", "zip_code": "02139", "country": "US", "state": "MA", "display_address": ["350 Massachusetts Ave", "Cambridge, MA 02139"]}, "phone": "+16175779100", "display_phone": "(617) 577-9100", "distance": 1809.2753574236217}, {"id": "JX8z_4daLZFoeju7cccS-w", "alias": "avery-bar-boston", "name": "Avery Bar", "image_url": "https://s3-media3.fl.yelpcdn.com/bphoto/aoWjWLchmWUijeHNf-zdEw/o.jpg", "is_closed": false, "url": "https://www.yelp.com/biz/avery-bar-boston?adjust_creative=a2JdNtFqB-C38ga_06BHvw&utm_campaign=yelp_api_v3&utm_medium=api_v3_business_search&utm_source=a2JdNtFqB-C38ga_06BHvw", "review_count": 38, "categories": [{"alias": "cocktailbars", "title": "Cocktail Bars"}, {"alias": "tapas", "title": "Tapas Bars"}], "rating": 3.5, "coordinates": {"latitude": 42.35314, "longitude": -71.06313}, "transactions": ["delivery"], "price": "$$$", "location": {"address1": "10 Avery Street", "address2": "", "address3": "", "city": "Boston", "zip_code": "02111", "country": "US", "state": "MA", "display_address": ["10 Avery Street", "Boston, MA 02111"]}, "phone": "+16175747176", "display_phone": "(617) 574-7176", "distance": 2928.598751438813}, {"id": "0gCdE3fsWJ86YCT8Hnk9oQ", "alias": "causeway-restaurant-and-bar-boston-3", "name": "Causeway Restaurant & Bar", "image_url": "https://s3-media3.fl.yelpcdn.com/bphoto/0_7rcsv-KzWVADglBXNOBw/o.jpg", "is_closed": false, "url": "https://www.yelp.com/biz/causeway-restaurant-and-bar-boston-3?adjust_creative=a2JdNtFqB-C38ga_06BHvw&utm_campaign=yelp_api_v3&utm_medium=api_v3_business_search&utm_source=a2JdNtFqB-C38ga_06BHvw", "review_count": 178, "categories": [{"alias": "sandwiches", "title": "Sandwiches"}, {"alias": "sportsbars", "title": "Sports Bars"}, {"alias": "breakfast_brunch", "title": "Breakfast & Brunch"}], "rating": 3.0, "coordinates": {"latitude": 42.3645493372538, "longitude": -71.0627413541079}, "transactions": ["pickup", "delivery"], "price": "$$", "location": {"address1": "65 Causeway St", "address2": "", "address3": "", "city": "Boston", "zip_code": "02114", "country": "US", "state": "MA", "display_address": ["65 Causeway St", "Boston, MA 02114"]}, "phone": "+16172279100", "display_phone": "(617) 227-9100", "distance": 3523.591709635321}, {"id": "435AFqUlpfkv2MvSHw6S8A", "alias": "coolidge-corner-clubhouse-brookline", "name": "Coolidge Corner Clubhouse", "image_url": "https://s3-media2.fl.yelpcdn.com/bphoto/RZafGWKO-NGbSakH74fNeg/o.jpg", "is_closed": false, "url": "https://www.yelp.com/biz/coolidge-corner-clubhouse-brookline?adjust_creative=a2JdNtFqB-C38ga_06BHvw&utm_campaign=yelp_api_v3&utm_medium=api_v3_business_search&utm_source=a2JdNtFqB-C38ga_06BHvw", "review_count": 432, "categories": [{"alias": "sportsbars", "title": "Sports Bars"}, {"alias": "tradamerican", "title": "American (Traditional)"}], "rating": 3.0, "coordinates": {"latitude": 42.3432707, "longitude": -71.1227847}, "transactions": ["pickup", "delivery"], "price": "$$", "location": {"address1": "307 Harvard St", "address2": "", "address3": "", "city": "Brookline", "zip_code": "02446", "country": "US", "state": "MA", "display_address": ["307 Harvard St", "Brookline, MA 02446"]}, "phone": "+16175664948", "display_phone": "(617) 566-4948", "distance": 2088.570846702277}, {"id": "9jStwuAp2D0gdMFe6FNrTw", "alias": "the-draft-allston", "name": "The Draft", "image_url": "https://s3-media1.fl.yelpcdn.com/bphoto/bloc-onxBPhFBHFa-ZTatw/o.jpg", "is_closed": false, "url": "https://www.yelp.com/biz/the-draft-allston?adjust_creative=a2JdNtFqB-C38ga_06BHvw&utm_campaign=yelp_api_v3&utm_medium=api_v3_business_search&utm_source=a2JdNtFqB-C38ga_06BHvw", "review_count": 241, "categories": [{"alias": "pubs", "title": "Pubs"}, {"alias": "sportsbars", "title": "Sports Bars"}, {"alias": "tradamerican", "title": "American (Traditional)"}], "rating": 3.0, "coordinates": {"latitude": 42.35486, "longitude": -71.13238}, "transactions": ["delivery"], "price": "$", "location": {"address1": "34 Harvard Ave", "address2": null, "address3": "", "city": "Allston", "zip_code": "02134", "country": "US", "state": "MA", "display_address": ["34 Harvard Ave", "Allston, MA 02134"]}, "phone": "+16177839400", "display_phone": "(617) 783-9400", "distance": 3004.0590111360066}, {"id": "sXLcNEfvFvIe1-HPAhRh8w", "alias": "fajitas-and-ritas-boston-2", "name": "Fajitas & 'Ritas", "image_url": "https://s3-media2.fl.yelpcdn.com/bphoto/A60olxEGdvUL-SoG2R-R9A/o.jpg", "is_closed": false, "url": "https://www.yelp.com/biz/fajitas-and-ritas-boston-2?adjust_creative=a2JdNtFqB-C38ga_06BHvw&utm_campaign=yelp_api_v3&utm_medium=api_v3_business_search&utm_source=a2JdNtFqB-C38ga_06BHvw", "review_count": 696, "categories": [{"alias": "tex-mex", "title": "Tex-Mex"}, {"alias": "venues", "title": "Venues & Event Spaces"}, {"alias": "cocktailbars", "title": "Cocktail Bars"}], "rating": 3.0, "coordinates": {"latitude": 42.354779, "longitude": -71.062376}, "transactions": ["delivery", "pickup"], "price": "$$", "location": {"address1": "25 West St", "address2": "", "address3": "", "city": "Boston", "zip_code": "02111", "country": "US", "state": "MA", "display_address": ["25 West St", "Boston, MA 02111"]}, "phone": "+16174261222", "display_phone": "(617) 426-1222", "distance": 3057.7259842785083}, {"id": "AHZMbcuI2tGmwxe9LB85BA", "alias": "papagayo-downtown-boston", "name": "Papagayo Downtown", "image_url": "https://s3-media1.fl.yelpcdn.com/bphoto/F1YhEEAr4kaY6jp4uf2BRQ/o.jpg", "is_closed": false, "url": "https://www.yelp.com/biz/papagayo-downtown-boston?adjust_creative=a2JdNtFqB-C38ga_06BHvw&utm_campaign=yelp_api_v3&utm_medium=api_v3_business_search&utm_source=a2JdNtFqB-C38ga_06BHvw", "review_count": 229, "categories": [{"alias": "mexican", "title": "Mexican"}, {"alias": "cocktailbars", "title": "Cocktail Bars"}], "rating": 3.0, "coordinates": {"latitude": 42.3545929246999, "longitude": -71.062154956162}, "transactions": ["delivery", "pickup"], "price": "$$", "location": {"address1": "15 W St", "address2": "", "address3": "", "city": "Boston", "zip_code": "02111", "country": "US", "state": "MA", "display_address": ["15 W St", "Boston, MA 02111"]}, "phone": "+16174233600", "display_phone": "(617) 423-3600", "distance": 3068.686017343378}, {"id": "x4fNltn_RTWU4xLY3gJQUA", "alias": "champions-cambridge", "name": "Champions", "image_url": "https://s3-media2.fl.yelpcdn.com/bphoto/3jADU731Hp_S1fvRheChbw/o.jpg", "is_closed": false, "url": "https://www.yelp.com/biz/champions-cambridge?adjust_creative=a2JdNtFqB-C38ga_06BHvw&utm_campaign=yelp_api_v3&utm_medium=api_v3_business_search&utm_source=a2JdNtFqB-C38ga_06BHvw", "review_count": 110, "categories": [{"alias": "sportsbars", "title": "Sports Bars"}, {"alias": "tradamerican", "title": "American (Traditional)"}], "rating": 3.0, "coordinates": {"latitude": 42.362650976746, "longitude": -71.085554223037}, "transactions": ["delivery", "pickup"], "price": "$$", "location": {"address1": "50 Broadway", "address2": "", "address3": "", "city": "Cambridge", "zip_code": "02142", "country": "US", "state": "MA", "display_address": ["50 Broadway", "Cambridge, MA 02142"]}, "phone": "+16172524444", "display_phone": "(617) 252-4444", "distance": 2080.9134678809764}, {"id": "MjopvJwjCbOtsLvkUxUZNQ", "alias": "the-harp-boston", "name": "The Harp", "image_url": "https://s3-media3.fl.yelpcdn.com/bphoto/pGaZVOqAMQZ_eAWutqppKA/o.jpg", "is_closed": false, "url": "https://www.yelp.com/biz/the-harp-boston?adjust_creative=a2JdNtFqB-C38ga_06BHvw&utm_campaign=yelp_api_v3&utm_medium=api_v3_business_search&utm_source=a2JdNtFqB-C38ga_06BHvw", "review_count": 280, "categories": [{"alias": "sportsbars", "title": "Sports Bars"}, {"alias": "tradamerican", "title": "American (Traditional)"}], "rating": 2.5, "coordinates": {"latitude": 42.36451753, "longitude": -71.06231418}, "transactions": ["delivery"], "price": "$$", "location": {"address1": "85 Causeway St", "address2": "", "address3": "", "city": "Boston", "zip_code": "02114", "country": "US", "state": "MA", "display_address": ["85 Causeway St", "Boston, MA 02114"]}, "phone": "+16177421010", "display_phone": "(617) 742-1010", "distance": 3550.2823067045197}, {"id": "F9CV9OuIhW-pm-PKKFXVBA", "alias": "finch-boston", "name": "Finch", "image_url": "https://s3-media1.fl.yelpcdn.com/bphoto/jyz2P_FjBe4mTN6KY6lXow/o.jpg", "is_closed": false, "url": "https://www.yelp.com/biz/finch-boston?adjust_creative=a2JdNtFqB-C38ga_06BHvw&utm_campaign=yelp_api_v3&utm_medium=api_v3_business_search&utm_source=a2JdNtFqB-C38ga_06BHvw", "review_count": 34, "categories": [{"alias": "wine_bars", "title": "Wine Bars"}, {"alias": "tradamerican", "title": "American (Traditional)"}], "rating": 3.5, "coordinates": {"latitude": 42.36389, "longitude": -71.06241}, "transactions": ["delivery"], "price": "$$", "location": {"address1": "107 Merrimac St", "address2": "The Boxer Boston", "address3": "", "city": "Boston", "zip_code": "02114", "country": "US", "state": "MA", "display_address": ["107 Merrimac St", "The Boxer Boston", "Boston, MA 02114"]}, "phone": "+16176240202", "display_phone": "(617) 624-0202", "distance": 3496.786174607277}, {"id": "JoygPx7-luRucKGtik8pWw", "alias": "blakes-boston", "name": "Blake's", "image_url": "https://s3-media2.fl.yelpcdn.com/bphoto/XRGaJe5VAu_xK5VFQ341Wg/o.jpg", "is_closed": false, "url": "https://www.yelp.com/biz/blakes-boston?adjust_creative=a2JdNtFqB-C38ga_06BHvw&utm_campaign=yelp_api_v3&utm_medium=api_v3_business_search&utm_source=a2JdNtFqB-C38ga_06BHvw", "review_count": 20, "categories": [{"alias": "newamerican", "title": "American (New)"}, {"alias": "cocktailbars", "title": "Cocktail Bars"}, {"alias": "breakfast_brunch", "title": "Breakfast & Brunch"}], "rating": 3.5, "coordinates": {"latitude": 42.36468, "longitude": -71.06155}, "transactions": ["delivery"], "location": {"address1": "276 Friend St", "address2": "", "address3": null, "city": "Boston", "zip_code": "02114", "country": "US", "state": "MA", "display_address": ["276 Friend St", "Boston, MA 02114"]}, "phone": "+16177207834", "display_phone": "(617) 720-7834", "distance": 3613.3748076462966}, {"id": "uog_FdVRIPtReDYuxLdNGw", "alias": "world-of-beer-cambridge", "name": "World of Beer", "image_url": "https://s3-media3.fl.yelpcdn.com/bphoto/dSYjwuBnRGeHBsnqbgGGQw/o.jpg", "is_closed": false, "url": "https://www.yelp.com/biz/world-of-beer-cambridge?adjust_creative=a2JdNtFqB-C38ga_06BHvw&utm_campaign=yelp_api_v3&utm_medium=api_v3_business_search&utm_source=a2JdNtFqB-C38ga_06BHvw", "review_count": 196, "categories": [{"alias": "tradamerican", "title": "American (Traditional)"}, {"alias": "pubs", "title": "Pubs"}], "rating": 2.5, "coordinates": {"latitude": 42.368131, "longitude": -71.076239}, "transactions": ["delivery", "pickup"], "price": "$$", "location": {"address1": "100 Cambridgeside Pl", "address2": "", "address3": null, "city": "Cambridge", "zip_code": "02141", "country": "US", "state": "MA", "display_address": ["100 Cambridgeside Pl", "Cambridge, MA 02141"]}, "phone": "+16179455107", "display_phone": "(617) 945-5107", "distance": 3007.306347350143}, {"id": "sTpZYdIjbe-JqpPmINo43Q", "alias": "royal-rooters-club-boston", "name": "Royal Rooters Club", "image_url": "https://s3-media2.fl.yelpcdn.com/bphoto/_ZZEM5aW-ZtP1hnrNLcQBg/o.jpg", "is_closed": false, "url": "https://www.yelp.com/biz/royal-rooters-club-boston?adjust_creative=a2JdNtFqB-C38ga_06BHvw&utm_campaign=yelp_api_v3&utm_medium=api_v3_business_search&utm_source=a2JdNtFqB-C38ga_06BHvw", "review_count": 22, "categories": [{"alias": "tradamerican", "title": "American (Traditional)"}, {"alias": "sportsbars", "title": "Sports Bars"}], "rating": 3.5, "coordinates": {"latitude": 42.3465666, "longitude": -71.0986173}, "transactions": [], "price": "$$", "location": {"address1": "4 Yawkey Way", "address2": "", "address3": "", "city": "Boston", "zip_code": "02215", "country": "US", "state": "MA", "display_address": ["4 Yawkey Way", "Boston, MA 02215"]}, "phone": "", "display_phone": "", "distance": 96.36084373129941}, {"id": "eqr5t-Py3oOhIuukz27dEA", "alias": "applebees-grill-bar-dorchester", "name": "Applebee's Grill + Bar", "image_url": "https://s3-media2.fl.yelpcdn.com/bphoto/fzeRVpfkPufvgg-JRDJWDw/o.jpg", "is_closed": false, "url": "https://www.yelp.com/biz/applebees-grill-bar-dorchester?adjust_creative=a2JdNtFqB-C38ga_06BHvw&utm_campaign=yelp_api_v3&utm_medium=api_v3_business_search&utm_source=a2JdNtFqB-C38ga_06BHvw", "review_count": 163, "categories": [{"alias": "sportsbars", "title": "Sports Bars"}, {"alias": "burgers", "title": "Burgers"}, {"alias": "tradamerican", "title": "American (Traditional)"}], "rating": 2.5, "coordinates": {"latitude": 42.326094, "longitude": -71.063618}, "transactions": ["delivery", "pickup"], "price": "$$", "location": {"address1": "11A Allstate Rd", "address2": "South Bay Shopping Center", "address3": "South Bay Shopping Center", "city": "Dorchester", "zip_code": "02125", "country": "US", "state": "MA", "display_address": ["11A Allstate Rd", "South Bay Shopping Center", "South Bay Shopping Center", "Dorchester, MA 02125"]}, "phone": "+16174427139", "display_phone": "(617) 442-7139", "distance": 3590.8287395465945}, {"id": "j26j_w7dt3YiSqyBZBwadg", "alias": "465-bar-and-restaurant-boston", "name": "465 Bar and Restaurant", "image_url": "https://s3-media2.fl.yelpcdn.com/bphoto/NxOnB66vy3hPwvt4PgAzpQ/o.jpg", "is_closed": false, "url": "https://www.yelp.com/biz/465-bar-and-restaurant-boston?adjust_creative=a2JdNtFqB-C38ga_06BHvw&utm_campaign=yelp_api_v3&utm_medium=api_v3_business_search&utm_source=a2JdNtFqB-C38ga_06BHvw", "review_count": 10, "categories": [{"alias": "newamerican", "title": "American (New)"}, {"alias": "cocktailbars", "title": "Cocktail Bars"}], "rating": 4.0, "coordinates": {"latitude": 42.33939, "longitude": -71.093965}, "transactions": ["delivery"], "location": {"address1": "465 Huntington Ave", "address2": null, "address3": "", "city": "Boston", "zip_code": "02115", "country": "US", "state": "MA", "display_address": ["465 Huntington Ave", "Boston, MA 02115"]}, "phone": "+16173693474", "display_phone": "(617) 369-3474", "distance": 823.7888670558247}, {"id": "-iQO1GmmIReyXyFRYuA8Pw", "alias": "la-piazza-at-eataly-boston-boston", "name": "La Piazza at Eataly Boston", "image_url": "https://s3-media4.fl.yelpcdn.com/bphoto/HDcsEZBjjjRKUEXZcc8TDQ/o.jpg", "is_closed": false, "url": "https://www.yelp.com/biz/la-piazza-at-eataly-boston-boston?adjust_creative=a2JdNtFqB-C38ga_06BHvw&utm_campaign=yelp_api_v3&utm_medium=api_v3_business_search&utm_source=a2JdNtFqB-C38ga_06BHvw", "review_count": 16, "categories": [{"alias": "wine_bars", "title": "Wine Bars"}, {"alias": "italian", "title": "Italian"}], "rating": 3.0, "coordinates": {"latitude": 42.347664, "longitude": -71.082507}, "transactions": ["delivery"], "price": "$$", "location": {"address1": "800 Boylston St", "address2": "", "address3": "Eataly Boston", "city": "Boston", "zip_code": "02115", "country": "US", "state": "MA", "display_address": ["800 Boylston St", "Eataly Boston", "Boston, MA 02115"]}, "phone": "", "display_phone": "", "distance": 1262.5253862521333}, {"id": "h4zAQs9BHUrErZod0u48JA", "alias": "wisteria-restaurant-boston", "name": "Wisteria Restaurant", "image_url": "https://s3-media4.fl.yelpcdn.com/bphoto/-tEMcEZiaNxeaZpoTjOFLA/o.jpg", "is_closed": false, "url": "https://www.yelp.com/biz/wisteria-restaurant-boston?adjust_creative=a2JdNtFqB-C38ga_06BHvw&utm_campaign=yelp_api_v3&utm_medium=api_v3_business_search&utm_source=a2JdNtFqB-C38ga_06BHvw", "review_count": 26, "categories": [{"alias": "wine_bars", "title": "Wine Bars"}, {"alias": "tradamerican", "title": "American (Traditional)"}], "rating": 2.5, "coordinates": {"latitude": 42.3487672107925, "longitude": -71.0642162465513}, "transactions": [], "price": "$$", "location": {"address1": "821 Washington St", "address2": "", "address3": "", "city": "Boston", "zip_code": "02111", "country": "US", "state": "MA", "display_address": ["821 Washington St", "Boston, MA 02111"]}, "phone": "+16179565110", "display_phone": "(617) 956-5110", "distance": 2770.016964059744}, {"id": "3sEt2ACT-X6I6W0KZzKbRA", "alias": "the-pearl-boston", "name": "The Pearl", "image_url": "https://s3-media1.fl.yelpcdn.com/bphoto/6kkNMyr2fJmNF_QKVt97qQ/o.jpg", "is_closed": false, "url": "https://www.yelp.com/biz/the-pearl-boston?adjust_creative=a2JdNtFqB-C38ga_06BHvw&utm_campaign=yelp_api_v3&utm_medium=api_v3_business_search&utm_source=a2JdNtFqB-C38ga_06BHvw", "review_count": 3, "categories": [{"alias": "seafood", "title": "Seafood"}, {"alias": "wine_bars", "title": "Wine Bars"}, {"alias": "cocktailbars", "title": "Cocktail Bars"}], "rating": 4.5, "coordinates": {"latitude": 42.32508755340025, "longitude": -71.06228706441821}, "transactions": [], "location": {"address1": "20 District Ave", "address2": "", "address3": null, "city": "Boston", "zip_code": "02125", "country": "US", "state": "MA", "display_address": ["20 District Ave", "Boston, MA 02125"]}, "phone": "+16172888810", "display_phone": "(617) 288-8810", "distance": 3746.218374904229}, {"id": "XW7io20_FAsbf66FJqsOVw", "alias": "little-lingo-cambridge-3", "name": "Little Lingo", "image_url": "https://s3-media2.fl.yelpcdn.com/bphoto/OQqPq_9CGifZkwVxkAXNXA/o.jpg", "is_closed": false, "url": "https://www.yelp.com/biz/little-lingo-cambridge-3?adjust_creative=a2JdNtFqB-C38ga_06BHvw&utm_campaign=yelp_api_v3&utm_medium=api_v3_business_search&utm_source=a2JdNtFqB-C38ga_06BHvw", "review_count": 2, "categories": [{"alias": "salad", "title": "Salad"}, {"alias": "breakfast_brunch", "title": "Breakfast & Brunch"}, {"alias": "cocktailbars", "title": "Cocktail Bars"}], "rating": 4.5, "coordinates": {"latitude": 42.36988, "longitude": -71.07072}, "transactions": [], "location": {"address1": "1 Education St", "address2": "", "address3": "", "city": "Cambridge", "zip_code": "02141", "country": "US", "state": "MA", "display_address": ["1 Education St", "Cambridge, MA 02141"]}, "phone": "+16176191047", "display_phone": "(617) 619-1047", "distance": 3451.2556060143243}, {"id": "5aB31ecKPzcK1kzW0zCzzQ", "alias": "the-bar-by-the-elevator-cambridge-2", "name": "The Bar By the Elevator", "image_url": "https://s3-media1.fl.yelpcdn.com/bphoto/759-_Mb93rL3baGw-XXO4A/o.jpg", "is_closed": false, "url": "https://www.yelp.com/biz/the-bar-by-the-elevator-cambridge-2?adjust_creative=a2JdNtFqB-C38ga_06BHvw&utm_campaign=yelp_api_v3&utm_medium=api_v3_business_search&utm_source=a2JdNtFqB-C38ga_06BHvw", "review_count": 3, "categories": [{"alias": "cocktailbars", "title": "Cocktail Bars"}, {"alias": "newamerican", "title": "American (New)"}], "rating": 3.5, "coordinates": {"latitude": 42.3673039, "longitude": -71.0901213}, "transactions": [], "location": {"address1": "17 Hampshire St", "address2": "", "address3": null, "city": "Cambridge", "zip_code": "02139", "country": "US", "state": "MA", "display_address": ["17 Hampshire St", "Cambridge, MA 02139"]}, "phone": "+16179583354", "display_phone": "(617) 958-3354", "distance": 2423.5524828300386}], "absolute total": 116, "total": 116}