{"league": "NBA", "team": "Brooklyn Nets", "stadium": "Barclays Center", "stadium latitude": 40.682660999999996, "stadium longitude": -73.975225, "radius": "3000 meters", "city": "Brooklyn", "state": "New York", "businesses": [{"id": "xTnivXEdEtXrnhp-z4JGvg", "alias": "la-parisienne-new-york-5", "name": "La Parisienne", "image_url": "https://s3-media2.fl.yelpcdn.com/bphoto/ywbWsBIM-z7OHvhMoHUg5A/o.jpg", "is_closed": false, "url": "https://www.yelp.com/biz/la-parisienne-new-york-5?adjust_creative=a2JdNtFqB-C38ga_06BHvw&utm_campaign=yelp_api_v3&utm_medium=api_v3_business_search&utm_source=a2JdNtFqB-C38ga_06BHvw", "review_count": 550, "categories": [{"alias": "cafes", "title": "Cafes"}, {"alias": "breakfast_brunch", "title": "Breakfast & Brunch"}, {"alias": "wine_bars", "title": "Wine Bars"}], "rating": 4.5, "coordinates": {"latitude": 40.70961, "longitude": -74.0093799}, "transactions": ["pickup", "delivery"], "price": "$$", "location": {"address1": "9 Maiden Ln", "address2": null, "address3": "", "city": "New York", "zip_code": "10038", "country": "US", "state": "NY", "display_address": ["9 Maiden Ln", "New York, NY 10038"]}, "phone": "+16467564911", "display_phone": "(646) 756-4911", "distance": 4154.064679281198}, {"id": "6xL5htjdKmPmM-Y9A2n2Pg", "alias": "santo-bruklin-new-york-3", "name": "Santo Bruklin", "image_url": "https://s3-media2.fl.yelpcdn.com/bphoto/owCA49SYNKOOyTGU923lWw/o.jpg", "is_closed": false, "url": "https://www.yelp.com/biz/santo-bruklin-new-york-3?adjust_creative=a2JdNtFqB-C38ga_06BHvw&utm_campaign=yelp_api_v3&utm_medium=api_v3_business_search&utm_source=a2JdNtFqB-C38ga_06BHvw", "review_count": 117, "categories": [{"alias": "brazilian", "title": "Brazilian"}, {"alias": "breakfast_brunch", "title": "Breakfast & Brunch"}, {"alias": "cocktailbars", "title": "Cocktail Bars"}], "rating": 4.5, "coordinates": {"latitude": 40.67509, "longitude": -73.99956}, "transactions": ["pickup", "delivery"], "location": {"address1": "548 Court St", "address2": null, "address3": "", "city": "New York", "zip_code": "11231", "country": "US", "state": "NY", "display_address": ["548 Court St", "New York, NY 11231"]}, "phone": "+19179091231", "display_phone": "(917) 909-1231", "distance": 2219.8506576013565}, {"id": "eT39RKlQ8i5Z4ml0ZwUK-Q", "alias": "tambour-brooklyn-3", "name": "Tambour", "image_url": "https://s3-media1.fl.yelpcdn.com/bphoto/Vbi8H0DkRh_dIiIIKTKezg/o.jpg", "is_closed": false, "url": "https://www.yelp.com/biz/tambour-brooklyn-3?adjust_creative=a2JdNtFqB-C38ga_06BHvw&utm_campaign=yelp_api_v3&utm_medium=api_v3_business_search&utm_source=a2JdNtFqB-C38ga_06BHvw", "review_count": 115, "categories": [{"alias": "wine_bars", "title": "Wine Bars"}, {"alias": "modern_european", "title": "Modern European"}, {"alias": "tradamerican", "title": "American (Traditional)"}], "rating": 4.5, "coordinates": {"latitude": 40.662504, "longitude": -73.992533}, "transactions": ["pickup", "delivery"], "price": "$$$", "location": {"address1": "652 5th Ave", "address2": null, "address3": null, "city": "Brooklyn", "zip_code": "11215", "country": "US", "state": "NY", "display_address": ["652 5th Ave", "Brooklyn, NY 11215"]}, "phone": "+13479161747", "display_phone": "(347) 916-1747", "distance": 2676.0949470493874}, {"id": "MYh3iKpuo1HQUoHUyzA0BQ", "alias": "bar-crudo-brooklyn-2", "name": "Bar Crudo", "image_url": "https://s3-media1.fl.yelpcdn.com/bphoto/bhzuLUMCrcDa2wUpw7sAMA/o.jpg", "is_closed": false, "url": "https://www.yelp.com/biz/bar-crudo-brooklyn-2?adjust_creative=a2JdNtFqB-C38ga_06BHvw&utm_campaign=yelp_api_v3&utm_medium=api_v3_business_search&utm_source=a2JdNtFqB-C38ga_06BHvw", "review_count": 114, "categories": [{"alias": "seafood", "title": "Seafood"}, {"alias": "cocktailbars", "title": "Cocktail Bars"}], "rating": 4.5, "coordinates": {"latitude": 40.670226, "longitude": -73.985768}, "transactions": ["pickup", "delivery"], "location": {"address1": "412 Fifth Ave", "address2": null, "address3": "", "city": "Brooklyn", "zip_code": "11215", "country": "US", "state": "NY", "display_address": ["412 Fifth Ave", "Brooklyn, NY 11215"]}, "phone": "+17187011894", "display_phone": "(718) 701-1894", "distance": 1643.8887989695677}, {"id": "XLT7aNLJEhIdoieNjPw8Gg", "alias": "blueprint-brooklyn-2", "name": "Blueprint", "image_url": "https://s3-media1.fl.yelpcdn.com/bphoto/xJSV7SP2iMg3yq72yzvXwQ/o.jpg", "is_closed": false, "url": "https://www.yelp.com/biz/blueprint-brooklyn-2?adjust_creative=a2JdNtFqB-C38ga_06BHvw&utm_campaign=yelp_api_v3&utm_medium=api_v3_business_search&utm_source=a2JdNtFqB-C38ga_06BHvw", "review_count": 335, "categories": [{"alias": "cocktailbars", "title": "Cocktail Bars"}, {"alias": "tapasmallplates", "title": "Tapas/Small Plates"}], "rating": 4.5, "coordinates": {"latitude": 40.6769, "longitude": -73.980411}, "transactions": ["delivery"], "price": "$$", "location": {"address1": "196 5th Ave", "address2": "", "address3": "", "city": "Brooklyn", "zip_code": "11217", "country": "US", "state": "NY", "display_address": ["196 5th Ave", "Brooklyn, NY 11217"]}, "phone": "+17186226644", "display_phone": "(718) 622-6644", "distance": 775.8542995581461}, {"id": "cg7IxNN5wyrXVP5tkCaZRg", "alias": "miss-ada-brooklyn-2", "name": "Miss Ada", "image_url": "https://s3-media1.fl.yelpcdn.com/bphoto/sf_KzbQO_8ru0JYYz7iO4w/o.jpg", "is_closed": false, "url": "https://www.yelp.com/biz/miss-ada-brooklyn-2?adjust_creative=a2JdNtFqB-C38ga_06BHvw&utm_campaign=yelp_api_v3&utm_medium=api_v3_business_search&utm_source=a2JdNtFqB-C38ga_06BHvw", "review_count": 279, "categories": [{"alias": "mediterranean", "title": "Mediterranean"}, {"alias": "cocktailbars", "title": "Cocktail Bars"}], "rating": 4.5, "coordinates": {"latitude": 40.689436, "longitude": -73.9723809}, "transactions": ["pickup", "delivery"], "price": "$$$", "location": {"address1": "184 Dekalb Ave", "address2": "", "address3": null, "city": "Brooklyn", "zip_code": "11205", "country": "US", "state": "NY", "display_address": ["184 Dekalb Ave", "Brooklyn, NY 11205"]}, "phone": "+19179091023", "display_phone": "(917) 909-1023", "distance": 790.5928104448144}, {"id": "hpRrYBbKUqv8ewFKDjbjoA", "alias": "gersi-brooklyn", "name": "Gersi", "image_url": "https://s3-media2.fl.yelpcdn.com/bphoto/RMGHrJ6jX7NVsoYjOnqoKg/o.jpg", "is_closed": false, "url": "https://www.yelp.com/biz/gersi-brooklyn?adjust_creative=a2JdNtFqB-C38ga_06BHvw&utm_campaign=yelp_api_v3&utm_medium=api_v3_business_search&utm_source=a2JdNtFqB-C38ga_06BHvw", "review_count": 285, "categories": [{"alias": "italian", "title": "Italian"}, {"alias": "wine_bars", "title": "Wine Bars"}, {"alias": "breakfast_brunch", "title": "Breakfast & Brunch"}], "rating": 4.5, "coordinates": {"latitude": 40.683438, "longitude": -73.995711}, "transactions": ["pickup", "delivery"], "price": "$$", "location": {"address1": "316 Court St", "address2": "", "address3": "", "city": "Brooklyn", "zip_code": "11231", "country": "US", "state": "NY", "display_address": ["316 Court St", "Brooklyn, NY 11231"]}, "phone": "+13478895077", "display_phone": "(347) 889-5077", "distance": 1724.757764251366}, {"id": "ZTsN8TdMXl8SW_AKd_ablw", "alias": "forno-rosso-brooklyn", "name": "Forno Rosso", "image_url": "https://s3-media2.fl.yelpcdn.com/bphoto/9aKNymymd9out1HSpkLuiA/o.jpg", "is_closed": false, "url": "https://www.yelp.com/biz/forno-rosso-brooklyn?adjust_creative=a2JdNtFqB-C38ga_06BHvw&utm_campaign=yelp_api_v3&utm_medium=api_v3_business_search&utm_source=a2JdNtFqB-C38ga_06BHvw", "review_count": 701, "categories": [{"alias": "italian", "title": "Italian"}, {"alias": "pizza", "title": "Pizza"}, {"alias": "cocktailbars", "title": "Cocktail Bars"}], "rating": 4.5, "coordinates": {"latitude": 40.694467, "longitude": -73.98293}, "transactions": ["pickup", "delivery"], "price": "$$", "location": {"address1": "327 Gold St", "address2": "", "address3": "", "city": "Brooklyn", "zip_code": "11201", "country": "US", "state": "NY", "display_address": ["327 Gold St", "Brooklyn, NY 11201"]}, "phone": "+17184513800", "display_phone": "(718) 451-3800", "distance": 1468.0818062853473}, {"id": "XvEz60Y0NbLxooK9AmRU8g", "alias": "piccoli-trattoria-brooklyn", "name": "Piccoli Trattoria", "image_url": "https://s3-media1.fl.yelpcdn.com/bphoto/7FoKTPDjJjp0K02SgYZFrg/o.jpg", "is_closed": false, "url": "https://www.yelp.com/biz/piccoli-trattoria-brooklyn?adjust_creative=a2JdNtFqB-C38ga_06BHvw&utm_campaign=yelp_api_v3&utm_medium=api_v3_business_search&utm_source=a2JdNtFqB-C38ga_06BHvw", "review_count": 498, "categories": [{"alias": "italian", "title": "Italian"}, {"alias": "pastashops", "title": "Pasta Shops"}, {"alias": "wine_bars", "title": "Wine Bars"}], "rating": 4.5, "coordinates": {"latitude": 40.665184, "longitude": -73.98654}, "transactions": ["pickup", "delivery"], "price": "$$", "location": {"address1": "522 6th Ave", "address2": null, "address3": "", "city": "Brooklyn", "zip_code": "11215", "country": "US", "state": "NY", "display_address": ["522 6th Ave", "Brooklyn, NY 11215"]}, "phone": "+17187880066", "display_phone": "(718) 788-0066", "distance": 2164.989372620329}, {"id": "P9x0uX9nmPCph1mWM3k4vg", "alias": "barely-disfigured-brooklyn-3", "name": "Barely Disfigured", "image_url": "https://s3-media1.fl.yelpcdn.com/bphoto/Y_dgfZIDct0Mbk-AQOFz9A/o.jpg", "is_closed": false, "url": "https://www.yelp.com/biz/barely-disfigured-brooklyn-3?adjust_creative=a2JdNtFqB-C38ga_06BHvw&utm_campaign=yelp_api_v3&utm_medium=api_v3_business_search&utm_source=a2JdNtFqB-C38ga_06BHvw", "review_count": 94, "categories": [{"alias": "cocktailbars", "title": "Cocktail Bars"}, {"alias": "tapas", "title": "Tapas Bars"}], "rating": 4.5, "coordinates": {"latitude": 40.68309, "longitude": -73.9928}, "transactions": [], "price": "$$", "location": {"address1": "257 Smith St", "address2": null, "address3": "", "city": "Brooklyn", "zip_code": "11231", "country": "US", "state": "NY", "display_address": ["257 Smith St", "Brooklyn, NY 11231"]}, "phone": "+17188585646", "display_phone": "(718) 858-5646", "distance": 1476.3194186855924}, {"id": "d7Asc4q2ImoPlA_BhfroTQ", "alias": "kesté-pizza-and-vino-new-york-5", "name": "Kesté Pizza & Vino", "image_url": "https://s3-media3.fl.yelpcdn.com/bphoto/QmCGZCd9KsysWQddAnHTdg/o.jpg", "is_closed": false, "url": "https://www.yelp.com/biz/kest%C3%A9-pizza-and-vino-new-york-5?adjust_creative=a2JdNtFqB-C38ga_06BHvw&utm_campaign=yelp_api_v3&utm_medium=api_v3_business_search&utm_source=a2JdNtFqB-C38ga_06BHvw", "review_count": 1426, "categories": [{"alias": "pizza", "title": "Pizza"}, {"alias": "italian", "title": "Italian"}, {"alias": "wine_bars", "title": "Wine Bars"}], "rating": 4.0, "coordinates": {"latitude": 40.7093947, "longitude": -74.0048977}, "transactions": ["pickup", "delivery"], "price": "$$", "location": {"address1": "66 Gold S", "address2": "", "address3": "", "city": "New York", "zip_code": "10038", "country": "US", "state": "NY", "display_address": ["66 Gold S", "New York, NY 10038"]}, "phone": "+12122431500", "display_phone": "(212) 243-1500", "distance": 3877.315135867917}, {"id": "E8gpCgCVaO2hNEPTrh4n2A", "alias": "the-ryerson-brooklyn", "name": "The Ryerson", "image_url": "https://s3-media3.fl.yelpcdn.com/bphoto/NNZuHkBngqQ0jNsMaLLLeQ/o.jpg", "is_closed": false, "url": "https://www.yelp.com/biz/the-ryerson-brooklyn?adjust_creative=a2JdNtFqB-C38ga_06BHvw&utm_campaign=yelp_api_v3&utm_medium=api_v3_business_search&utm_source=a2JdNtFqB-C38ga_06BHvw", "review_count": 75, "categories": [{"alias": "southern", "title": "Southern"}, {"alias": "cocktailbars", "title": "Cocktail Bars"}], "rating": 4.5, "coordinates": {"latitude": 40.67478, "longitude": -73.95018}, "transactions": ["pickup", "delivery"], "location": {"address1": "698 Nostrand Ave", "address2": "", "address3": null, "city": "Brooklyn", "zip_code": "11216", "country": "US", "state": "NY", "display_address": ["698 Nostrand Ave", "Brooklyn, NY 11216"]}, "phone": "+13474069703", "display_phone": "(347) 406-9703", "distance": 2276.9919434830963}, {"id": "74zaTegd7fnS6llTesn_Dg", "alias": "fragole-ristorante-brooklyn", "name": "Fragole Ristorante", "image_url": "https://s3-media2.fl.yelpcdn.com/bphoto/Ss4i4Q0d1KG1D85p6Z4-vg/o.jpg", "is_closed": false, "url": "https://www.yelp.com/biz/fragole-ristorante-brooklyn?adjust_creative=a2JdNtFqB-C38ga_06BHvw&utm_campaign=yelp_api_v3&utm_medium=api_v3_business_search&utm_source=a2JdNtFqB-C38ga_06BHvw", "review_count": 365, "categories": [{"alias": "italian", "title": "Italian"}, {"alias": "wine_bars", "title": "Wine Bars"}], "rating": 4.5, "coordinates": {"latitude": 40.68087, "longitude": -73.99688}, "transactions": ["pickup", "delivery"], "price": "$$", "location": {"address1": "394 Court St", "address2": null, "address3": "", "city": "Brooklyn", "zip_code": "11231", "country": "US", "state": "NY", "display_address": ["394 Court St", "Brooklyn, NY 11231"]}, "phone": "+17185227133", "display_phone": "(718) 522-7133", "distance": 1832.756138821123}, {"id": "OkiPb6gNNRmcbB4zIIMx0g", "alias": "big-tiny-brooklyn-4", "name": "Big Tiny", "image_url": "https://s3-media1.fl.yelpcdn.com/bphoto/HVKFUDb7zcv4Hytu7qWcTw/o.jpg", "is_closed": false, "url": "https://www.yelp.com/biz/big-tiny-brooklyn-4?adjust_creative=a2JdNtFqB-C38ga_06BHvw&utm_campaign=yelp_api_v3&utm_medium=api_v3_business_search&utm_source=a2JdNtFqB-C38ga_06BHvw", "review_count": 54, "categories": [{"alias": "wine_bars", "title": "Wine Bars"}, {"alias": "french", "title": "French"}, {"alias": "tapasmallplates", "title": "Tapas/Small Plates"}], "rating": 4.5, "coordinates": {"latitude": 40.6834507, "longitude": -73.992855}, "transactions": ["pickup", "delivery"], "price": "$$", "location": {"address1": "244 Smith St", "address2": "", "address3": null, "city": "Brooklyn", "zip_code": "11231", "country": "US", "state": "NY", "display_address": ["244 Smith St", "Brooklyn, NY 11231"]}, "phone": "", "display_phone": "", "distance": 1489.1886743334458}, {"id": "_0WFGjXuenlBixOlbSlGeQ", "alias": "crown-shy-new-york-2", "name": "Crown Shy", "image_url": "https://s3-media2.fl.yelpcdn.com/bphoto/ljYpQWeI2XLjJGhgBHyAyA/o.jpg", "is_closed": false, "url": "https://www.yelp.com/biz/crown-shy-new-york-2?adjust_creative=a2JdNtFqB-C38ga_06BHvw&utm_campaign=yelp_api_v3&utm_medium=api_v3_business_search&utm_source=a2JdNtFqB-C38ga_06BHvw", "review_count": 322, "categories": [{"alias": "newamerican", "title": "American (New)"}, {"alias": "cocktailbars", "title": "Cocktail Bars"}], "rating": 4.5, "coordinates": {"latitude": 40.7063449, "longitude": -74.0076944}, "transactions": [], "location": {"address1": "70 Pine St", "address2": null, "address3": "", "city": "New York", "zip_code": "10005", "country": "US", "state": "NY", "display_address": ["70 Pine St", "New York, NY 10005"]}, "phone": "+12125171932", "display_phone": "(212) 517-1932", "distance": 3815.550233798555}, {"id": "KWIPsr4kQBLIpPTSwKTlig", "alias": "brookvin-brooklyn", "name": "Brookvin", "image_url": "https://s3-media4.fl.yelpcdn.com/bphoto/6P2m2eydF0cFnW_n8woD7A/o.jpg", "is_closed": false, "url": "https://www.yelp.com/biz/brookvin-brooklyn?adjust_creative=a2JdNtFqB-C38ga_06BHvw&utm_campaign=yelp_api_v3&utm_medium=api_v3_business_search&utm_source=a2JdNtFqB-C38ga_06BHvw", "review_count": 303, "categories": [{"alias": "wine_bars", "title": "Wine Bars"}, {"alias": "tapas", "title": "Tapas Bars"}], "rating": 4.5, "coordinates": {"latitude": 40.6652526855469, "longitude": -73.9825668334961}, "transactions": ["delivery"], "price": "$$", "location": {"address1": "381 7th Ave", "address2": "", "address3": "", "city": "Brooklyn", "zip_code": "11215", "country": "US", "state": "NY", "display_address": ["381 7th Ave", "Brooklyn, NY 11215"]}, "phone": "+17187689463", "display_phone": "(718) 768-9463", "distance": 2029.6722288247233}, {"id": "4pj4ol7lXiytDD-BTKe3kg", "alias": "las-santas-brooklyn-2", "name": "Las Santas", "image_url": "https://s3-media1.fl.yelpcdn.com/bphoto/m6bIlG5fhb3C-wbJr3-yzg/o.jpg", "is_closed": false, "url": "https://www.yelp.com/biz/las-santas-brooklyn-2?adjust_creative=a2JdNtFqB-C38ga_06BHvw&utm_campaign=yelp_api_v3&utm_medium=api_v3_business_search&utm_source=a2JdNtFqB-C38ga_06BHvw", "review_count": 171, "categories": [{"alias": "mexican", "title": "Mexican"}, {"alias": "cocktailbars", "title": "Cocktail Bars"}, {"alias": "breakfast_brunch", "title": "Breakfast & Brunch"}], "rating": 4.5, "coordinates": {"latitude": 40.6882, "longitude": -73.97953}, "transactions": ["pickup", "delivery"], "price": "$$", "location": {"address1": "572 Fulton St", "address2": null, "address3": "", "city": "Brooklyn", "zip_code": "11217", "country": "US", "state": "NY", "display_address": ["572 Fulton St", "Brooklyn, NY 11217"]}, "phone": "+17182225919", "display_phone": "(718) 222-5919", "distance": 716.9071589618936}, {"id": "UZ7C31NlfVQiUamJYbsiGA", "alias": "kind-of-soul-brooklyn", "name": "Kind Of Soul", "image_url": "https://s3-media1.fl.yelpcdn.com/bphoto/L0IZJhdOAFmRDSCWKTXBCQ/o.jpg", "is_closed": false, "url": "https://www.yelp.com/biz/kind-of-soul-brooklyn?adjust_creative=a2JdNtFqB-C38ga_06BHvw&utm_campaign=yelp_api_v3&utm_medium=api_v3_business_search&utm_source=a2JdNtFqB-C38ga_06BHvw", "review_count": 114, "categories": [{"alias": "southern", "title": "Southern"}, {"alias": "newamerican", "title": "American (New)"}, {"alias": "cocktailbars", "title": "Cocktail Bars"}], "rating": 4.5, "coordinates": {"latitude": 40.68573, "longitude": -73.9813}, "transactions": ["pickup", "delivery"], "price": "$$", "location": {"address1": "497 Atlantic Ave", "address2": null, "address3": "", "city": "Brooklyn", "zip_code": "11217", "country": "US", "state": "NY", "display_address": ["497 Atlantic Ave", "Brooklyn, NY 11217"]}, "phone": "+13475992699", "display_phone": "(347) 599-2699", "distance": 617.1086405841766}, {"id": "o1lSerEqXv74L7n3OghwVQ", "alias": "the-hop-shop-brooklyn-brooklyn", "name": "The Hop Shop Brooklyn", "image_url": "https://s3-media3.fl.yelpcdn.com/bphoto/Ag4P6yl8cA0rWgRsf7ZhTA/o.jpg", "is_closed": false, "url": "https://www.yelp.com/biz/the-hop-shop-brooklyn-brooklyn?adjust_creative=a2JdNtFqB-C38ga_06BHvw&utm_campaign=yelp_api_v3&utm_medium=api_v3_business_search&utm_source=a2JdNtFqB-C38ga_06BHvw", "review_count": 52, "categories": [{"alias": "cocktailbars", "title": "Cocktail Bars"}, {"alias": "hotdog", "title": "Hot Dogs"}], "rating": 4.5, "coordinates": {"latitude": 40.6875, "longitude": -74.00135}, "transactions": ["delivery"], "price": "$", "location": {"address1": "121 Columbia St", "address2": "", "address3": "", "city": "Brooklyn", "zip_code": "11231", "country": "US", "state": "NY", "display_address": ["121 Columbia St", "Brooklyn, NY 11231"]}, "phone": "+17188522184", "display_phone": "(718) 852-2184", "distance": 2265.1945652380427}, {"id": "wnyX_yg4ddSDkupwFKftIA", "alias": "bonafini-brooklyn-2", "name": "Bonafini", "image_url": "https://s3-media2.fl.yelpcdn.com/bphoto/fvr6j4owUngMJqCBomFYYg/o.jpg", "is_closed": false, "url": "https://www.yelp.com/biz/bonafini-brooklyn-2?adjust_creative=a2JdNtFqB-C38ga_06BHvw&utm_campaign=yelp_api_v3&utm_medium=api_v3_business_search&utm_source=a2JdNtFqB-C38ga_06BHvw", "review_count": 371, "categories": [{"alias": "breakfast_brunch", "title": "Breakfast & Brunch"}, {"alias": "italian", "title": "Italian"}, {"alias": "wine_bars", "title": "Wine Bars"}], "rating": 4.0, "coordinates": {"latitude": 40.65704, "longitude": -73.96003}, "transactions": ["delivery"], "price": "$$", "location": {"address1": "663 Flatbush Ave", "address2": "", "address3": "", "city": "Brooklyn", "zip_code": "11225", "country": "US", "state": "NY", "display_address": ["663 Flatbush Ave", "Brooklyn, NY 11225"]}, "phone": "+13477709746", "display_phone": "(347) 770-9746", "distance": 3124.554575480737}, {"id": "4XX-zF8h5Lvrr22_tqU6-Q", "alias": "the-river-café-brooklyn-3", "name": "The River Café", "image_url": "https://s3-media1.fl.yelpcdn.com/bphoto/X5pxv0ydhNP7kPBDArEHsw/o.jpg", "is_closed": false, "url": "https://www.yelp.com/biz/the-river-caf%C3%A9-brooklyn-3?adjust_creative=a2JdNtFqB-C38ga_06BHvw&utm_campaign=yelp_api_v3&utm_medium=api_v3_business_search&utm_source=a2JdNtFqB-C38ga_06BHvw", "review_count": 1147, "categories": [{"alias": "newamerican", "title": "American (New)"}, {"alias": "wine_bars", "title": "Wine Bars"}, {"alias": "venues", "title": "Venues & Event Spaces"}], "rating": 4.0, "coordinates": {"latitude": 40.70318, "longitude": -73.9946499}, "transactions": [], "price": "$$$$", "location": {"address1": "1 Water St", "address2": "", "address3": "", "city": "Brooklyn", "zip_code": "11201", "country": "US", "state": "NY", "display_address": ["1 Water St", "Brooklyn, NY 11201"]}, "phone": "+17185225200", "display_phone": "(718) 522-5200", "distance": 2814.4407789555544}, {"id": "pK-TQMe7SE_erplC9EWjUA", "alias": "bella-gioia-brooklyn-3", "name": "Bella Gioia", "image_url": "https://s3-media1.fl.yelpcdn.com/bphoto/7tmCpKo4yeTfM_D8OgyjDA/o.jpg", "is_closed": false, "url": "https://www.yelp.com/biz/bella-gioia-brooklyn-3?adjust_creative=a2JdNtFqB-C38ga_06BHvw&utm_campaign=yelp_api_v3&utm_medium=api_v3_business_search&utm_source=a2JdNtFqB-C38ga_06BHvw", "review_count": 213, "categories": [{"alias": "italian", "title": "Italian"}, {"alias": "wine_bars", "title": "Wine Bars"}, {"alias": "pizza", "title": "Pizza"}], "rating": 4.5, "coordinates": {"latitude": 40.6775302, "longitude": -73.9827215}, "transactions": ["delivery", "pickup"], "price": "$$", "location": {"address1": "209 4th Ave", "address2": "", "address3": "", "city": "Brooklyn", "zip_code": "11217", "country": "US", "state": "NY", "display_address": ["209 4th Ave", "Brooklyn, NY 11217"]}, "phone": "+13472234176", "display_phone": "(347) 223-4176", "distance": 851.5295146046262}, {"id": "4MqJOLaeqCgBFQmMFPfe3g", "alias": "clover-club-brooklyn", "name": "Clover Club", "image_url": "https://s3-media1.fl.yelpcdn.com/bphoto/rTFP3ikw4UUsST892sav9Q/o.jpg", "is_closed": false, "url": "https://www.yelp.com/biz/clover-club-brooklyn?adjust_creative=a2JdNtFqB-C38ga_06BHvw&utm_campaign=yelp_api_v3&utm_medium=api_v3_business_search&utm_source=a2JdNtFqB-C38ga_06BHvw", "review_count": 783, "categories": [{"alias": "lounges", "title": "Lounges"}, {"alias": "tradamerican", "title": "American (Traditional)"}, {"alias": "cocktailbars", "title": "Cocktail Bars"}], "rating": 4.0, "coordinates": {"latitude": 40.6846046447754, "longitude": -73.9921875}, "transactions": ["delivery", "pickup"], "price": "$$", "location": {"address1": "210 Smith St", "address2": "", "address3": "", "city": "Brooklyn", "zip_code": "11201", "country": "US", "state": "NY", "display_address": ["210 Smith St", "Brooklyn, NY 11201"]}, "phone": "+17188557939", "display_phone": "(718) 855-7939", "distance": 1442.01780206459}, {"id": "ddyYKrNWkdc5mudrmLaTvA", "alias": "flora-brooklyn", "name": "Flora", "image_url": "https://s3-media1.fl.yelpcdn.com/bphoto/TAzsaTXzgFzxDz05uxQHXA/o.jpg", "is_closed": false, "url": "https://www.yelp.com/biz/flora-brooklyn?adjust_creative=a2JdNtFqB-C38ga_06BHvw&utm_campaign=yelp_api_v3&utm_medium=api_v3_business_search&utm_source=a2JdNtFqB-C38ga_06BHvw", "review_count": 76, "categories": [{"alias": "italian", "title": "Italian"}, {"alias": "cocktailbars", "title": "Cocktail Bars"}, {"alias": "sandwiches", "title": "Sandwiches"}], "rating": 4.5, "coordinates": {"latitude": 40.66452, "longitude": -73.97989}, "transactions": ["delivery", "pickup"], "price": "$$", "location": {"address1": "1021 8th Ave", "address2": "", "address3": null, "city": "Brooklyn", "zip_code": "11215", "country": "US", "state": "NY", "display_address": ["1021 8th Ave", "Brooklyn, NY 11215"]}, "phone": "+13478449480", "display_phone": "(347) 844-9480", "distance": 2055.531464651048}, {"id": "QxthR7-GAbqj1cLocOD6Nw", "alias": "pizza-secret-brooklyn", "name": "Pizza Secret", "image_url": "https://s3-media2.fl.yelpcdn.com/bphoto/bVxoM6BCgJ46yEFcxwhuHQ/o.jpg", "is_closed": false, "url": "https://www.yelp.com/biz/pizza-secret-brooklyn?adjust_creative=a2JdNtFqB-C38ga_06BHvw&utm_campaign=yelp_api_v3&utm_medium=api_v3_business_search&utm_source=a2JdNtFqB-C38ga_06BHvw", "review_count": 165, "categories": [{"alias": "pizza", "title": "Pizza"}, {"alias": "italian", "title": "Italian"}, {"alias": "wine_bars", "title": "Wine Bars"}], "rating": 4.5, "coordinates": {"latitude": 40.6808, "longitude": -73.97764}, "transactions": ["delivery", "pickup"], "price": "$$", "location": {"address1": "72 5th Ave", "address2": "", "address3": null, "city": "Brooklyn", "zip_code": "11217", "country": "US", "state": "NY", "display_address": ["72 5th Ave", "Brooklyn, NY 11217"]}, "phone": "+19293376245", "display_phone": "(929) 337-6245", "distance": 294.14862717419015}, {"id": "ud4-0gH8YlAExTBJoADPtw", "alias": "the-capital-grille-new-york-7", "name": "The Capital Grille", "image_url": "https://s3-media1.fl.yelpcdn.com/bphoto/SvPinOFZfhtyxL3wi7Wx_Q/o.jpg", "is_closed": false, "url": "https://www.yelp.com/biz/the-capital-grille-new-york-7?adjust_creative=a2JdNtFqB-C38ga_06BHvw&utm_campaign=yelp_api_v3&utm_medium=api_v3_business_search&utm_source=a2JdNtFqB-C38ga_06BHvw", "review_count": 605, "categories": [{"alias": "seafood", "title": "Seafood"}, {"alias": "steak", "title": "Steakhouses"}, {"alias": "wine_bars", "title": "Wine Bars"}], "rating": 4.0, "coordinates": {"latitude": 40.7078813982786, "longitude": -74.0102026698364}, "transactions": ["delivery", "pickup"], "price": "$$$", "location": {"address1": "120 Broadway", "address2": "", "address3": "", "city": "New York", "zip_code": "10271", "country": "US", "state": "NY", "display_address": ["120 Broadway", "New York, NY 10271"]}, "phone": "+12123741811", "display_phone": "(212) 374-1811", "distance": 4069.426798905409}, {"id": "6G0urbBDz_CnYnGXApgUcw", "alias": "boutros-brooklyn", "name": "Boutros", "image_url": "https://s3-media1.fl.yelpcdn.com/bphoto/4EBj2mVVTlEU-7GoDeZq5w/o.jpg", "is_closed": false, "url": "https://www.yelp.com/biz/boutros-brooklyn?adjust_creative=a2JdNtFqB-C38ga_06BHvw&utm_campaign=yelp_api_v3&utm_medium=api_v3_business_search&utm_source=a2JdNtFqB-C38ga_06BHvw", "review_count": 131, "categories": [{"alias": "newamerican", "title": "American (New)"}, {"alias": "mideastern", "title": "Middle Eastern"}, {"alias": "cocktailbars", "title": "Cocktail Bars"}], "rating": 4.5, "coordinates": {"latitude": 40.6901481293837, "longitude": -73.9935445412993}, "transactions": ["delivery", "pickup"], "price": "$$$", "location": {"address1": "185 Atlantic Ave", "address2": "", "address3": null, "city": "Brooklyn", "zip_code": "11201", "country": "US", "state": "NY", "display_address": ["185 Atlantic Ave", "Brooklyn, NY 11201"]}, "phone": "+17184030055", "display_phone": "(718) 403-0055", "distance": 1754.7339250549112}, {"id": "-0bdnX762vdTb9lI00etvA", "alias": "brooklyn-burgers-and-beer-brooklyn", "name": "Brooklyn Burgers & Beer", "image_url": "https://s3-media3.fl.yelpcdn.com/bphoto/Xt6uxV5pTXQ_c1gdJytrYA/o.jpg", "is_closed": false, "url": "https://www.yelp.com/biz/brooklyn-burgers-and-beer-brooklyn?adjust_creative=a2JdNtFqB-C38ga_06BHvw&utm_campaign=yelp_api_v3&utm_medium=api_v3_business_search&utm_source=a2JdNtFqB-C38ga_06BHvw", "review_count": 375, "categories": [{"alias": "burgers", "title": "Burgers"}, {"alias": "beerbar", "title": "Beer Bar"}, {"alias": "cocktailbars", "title": "Cocktail Bars"}], "rating": 4.0, "coordinates": {"latitude": 40.6743507, "longitude": -73.9815826}, "transactions": ["delivery", "pickup"], "price": "$$", "location": {"address1": "259 5th Ave", "address2": null, "address3": "", "city": "Brooklyn", "zip_code": "11215", "country": "US", "state": "NY", "display_address": ["259 5th Ave", "Brooklyn, NY 11215"]}, "phone": "+17187881458", "display_phone": "(718) 788-1458", "distance": 1065.1454050340753}, {"id": "EF4M55USa1ZNy1rP5Kuk2w", "alias": "chez-moi-brooklyn", "name": "Chez Moi", "image_url": "https://s3-media1.fl.yelpcdn.com/bphoto/R3yul6k8j3eZAdy7gySUSg/o.jpg", "is_closed": false, "url": "https://www.yelp.com/biz/chez-moi-brooklyn?adjust_creative=a2JdNtFqB-C38ga_06BHvw&utm_campaign=yelp_api_v3&utm_medium=api_v3_business_search&utm_source=a2JdNtFqB-C38ga_06BHvw", "review_count": 391, "categories": [{"alias": "french", "title": "French"}, {"alias": "desserts", "title": "Desserts"}, {"alias": "cocktailbars", "title": "Cocktail Bars"}], "rating": 4.0, "coordinates": {"latitude": 40.6907305802403, "longitude": -73.99551244328}, "transactions": ["delivery", "pickup"], "price": "$$", "location": {"address1": "135 Atlantic Ave", "address2": "", "address3": "", "city": "Brooklyn", "zip_code": "11201", "country": "US", "state": "NY", "display_address": ["135 Atlantic Ave", "Brooklyn, NY 11201"]}, "phone": "+13472278337", "display_phone": "(347) 227-8337", "distance": 1931.6419210026074}, {"id": "fuS39acPaRi38DhSSwEI4Q", "alias": "felice-new-york-6", "name": "Felice", "image_url": "https://s3-media2.fl.yelpcdn.com/bphoto/RjmwyXZWgYk0IPqigCTjzw/o.jpg", "is_closed": false, "url": "https://www.yelp.com/biz/felice-new-york-6?adjust_creative=a2JdNtFqB-C38ga_06BHvw&utm_campaign=yelp_api_v3&utm_medium=api_v3_business_search&utm_source=a2JdNtFqB-C38ga_06BHvw", "review_count": 380, "categories": [{"alias": "wine_bars", "title": "Wine Bars"}, {"alias": "tuscan", "title": "Tuscan"}], "rating": 4.0, "coordinates": {"latitude": 40.70789, "longitude": -74.00712}, "transactions": ["delivery", "pickup"], "price": "$$", "location": {"address1": "15 Gold St", "address2": "", "address3": "", "city": "New York", "zip_code": "10038", "country": "US", "state": "NY", "display_address": ["15 Gold St", "New York, NY 10038"]}, "phone": "+12127855950", "display_phone": "(212) 785-5950", "distance": 3885.753797038484}, {"id": "hO1T1fG5f5FbvOP2124rpw", "alias": "negril-bk-brooklyn", "name": "Negril BK", "image_url": "https://s3-media3.fl.yelpcdn.com/bphoto/XBK1kmGdS4buJ5reqDPe6w/o.jpg", "is_closed": false, "url": "https://www.yelp.com/biz/negril-bk-brooklyn?adjust_creative=a2JdNtFqB-C38ga_06BHvw&utm_campaign=yelp_api_v3&utm_medium=api_v3_business_search&utm_source=a2JdNtFqB-C38ga_06BHvw", "review_count": 666, "categories": [{"alias": "caribbean", "title": "Caribbean"}, {"alias": "cocktailbars", "title": "Cocktail Bars"}], "rating": 4.0, "coordinates": {"latitude": 40.67501, "longitude": -73.98163}, "transactions": ["delivery", "pickup"], "price": "$$", "location": {"address1": "256 5th Ave", "address2": null, "address3": "", "city": "Brooklyn", "zip_code": "11215", "country": "US", "state": "NY", "display_address": ["256 5th Ave", "Brooklyn, NY 11215"]}, "phone": "+13477213801", "display_phone": "(347) 721-3801", "distance": 1013.5728553273896}, {"id": "PszZvrDqzgPpl6SQuk3K9Q", "alias": "endswell-bar-and-bistro-brooklyn", "name": "Endswell Bar & Bistro", "image_url": "https://s3-media4.fl.yelpcdn.com/bphoto/rk6NmeZR7DZLcRm1JPv8vA/o.jpg", "is_closed": false, "url": "https://www.yelp.com/biz/endswell-bar-and-bistro-brooklyn?adjust_creative=a2JdNtFqB-C38ga_06BHvw&utm_campaign=yelp_api_v3&utm_medium=api_v3_business_search&utm_source=a2JdNtFqB-C38ga_06BHvw", "review_count": 72, "categories": [{"alias": "cocktailbars", "title": "Cocktail Bars"}, {"alias": "french", "title": "French"}], "rating": 4.5, "coordinates": {"latitude": 40.68618, "longitude": -73.97377}, "transactions": ["delivery", "pickup"], "price": "$$", "location": {"address1": "773 Fulton St", "address2": null, "address3": "", "city": "Brooklyn", "zip_code": "11217", "country": "US", "state": "NY", "display_address": ["773 Fulton St", "Brooklyn, NY 11217"]}, "phone": "", "display_phone": "", "distance": 408.13141714447795}, {"id": "xxiV3-0t_gO1Ojo3xo73TQ", "alias": "vineapple-cafe-brooklyn", "name": "Vineapple Cafe", "image_url": "https://s3-media3.fl.yelpcdn.com/bphoto/3CTXWh2vzVj7lz0s6MFhKw/o.jpg", "is_closed": false, "url": "https://www.yelp.com/biz/vineapple-cafe-brooklyn?adjust_creative=a2JdNtFqB-C38ga_06BHvw&utm_campaign=yelp_api_v3&utm_medium=api_v3_business_search&utm_source=a2JdNtFqB-C38ga_06BHvw", "review_count": 35, "categories": [{"alias": "coffee", "title": "Coffee & Tea"}, {"alias": "italian", "title": "Italian"}, {"alias": "cocktailbars", "title": "Cocktail Bars"}], "rating": 4.5, "coordinates": {"latitude": 40.698296727787, "longitude": -73.99307556416}, "transactions": ["delivery", "pickup"], "price": "$", "location": {"address1": "71 Pineapple St", "address2": "", "address3": "", "city": "Brooklyn", "zip_code": "11201", "country": "US", "state": "NY", "display_address": ["71 Pineapple St", "Brooklyn, NY 11201"]}, "phone": "+13477991035", "display_phone": "(347) 799-1035", "distance": 2299.53923934924}, {"id": "zyxI5ko5Dpkqi9q5oSGa9w", "alias": "pilot-brooklyn", "name": "Pilot", "image_url": "https://s3-media4.fl.yelpcdn.com/bphoto/d-J_WdCQuhNt3ynWbSiqZQ/o.jpg", "is_closed": false, "url": "https://www.yelp.com/biz/pilot-brooklyn?adjust_creative=a2JdNtFqB-C38ga_06BHvw&utm_campaign=yelp_api_v3&utm_medium=api_v3_business_search&utm_source=a2JdNtFqB-C38ga_06BHvw", "review_count": 197, "categories": [{"alias": "cocktailbars", "title": "Cocktail Bars"}, {"alias": "seafood", "title": "Seafood"}], "rating": 4.0, "coordinates": {"latitude": 40.69323, "longitude": -74.001689}, "transactions": [], "price": "$$$", "location": {"address1": "Pier 6 Brooklyn Bridge Park", "address2": "", "address3": "Brooklyn Bridge Park", "city": "Brooklyn", "zip_code": "11201", "country": "US", "state": "NY", "display_address": ["Pier 6 Brooklyn Bridge Park", "Brooklyn Bridge Park", "Brooklyn, NY 11201"]}, "phone": "", "display_phone": "", "distance": 2521.902366220129}, {"id": "KJFosOrLotvQo_rntg0sjA", "alias": "bricolage-brooklyn", "name": "Bricolage", "image_url": "https://s3-media2.fl.yelpcdn.com/bphoto/4jPi9Sb4pJzsp8KmCOrT7w/o.jpg", "is_closed": false, "url": "https://www.yelp.com/biz/bricolage-brooklyn?adjust_creative=a2JdNtFqB-C38ga_06BHvw&utm_campaign=yelp_api_v3&utm_medium=api_v3_business_search&utm_source=a2JdNtFqB-C38ga_06BHvw", "review_count": 528, "categories": [{"alias": "vietnamese", "title": "Vietnamese"}, {"alias": "gastropubs", "title": "Gastropubs"}, {"alias": "cocktailbars", "title": "Cocktail Bars"}], "rating": 4.0, "coordinates": {"latitude": 40.67792, "longitude": -73.97975}, "transactions": ["delivery", "pickup"], "price": "$$", "location": {"address1": "162 5th Ave", "address2": "", "address3": "", "city": "Brooklyn", "zip_code": "11217", "country": "US", "state": "NY", "display_address": ["162 5th Ave", "Brooklyn, NY 11217"]}, "phone": "+17182301835", "display_phone": "(718) 230-1835", "distance": 649.7355333068311}, {"id": "GCx7TnLKgLtUcXLIfQYfFA", "alias": "casa-azul-brooklyn", "name": "Casa Azul", "image_url": "https://s3-media1.fl.yelpcdn.com/bphoto/CGIl-fZuuLwI6wB8N8SrHQ/o.jpg", "is_closed": false, "url": "https://www.yelp.com/biz/casa-azul-brooklyn?adjust_creative=a2JdNtFqB-C38ga_06BHvw&utm_campaign=yelp_api_v3&utm_medium=api_v3_business_search&utm_source=a2JdNtFqB-C38ga_06BHvw", "review_count": 98, "categories": [{"alias": "mexican", "title": "Mexican"}, {"alias": "cocktailbars", "title": "Cocktail Bars"}], "rating": 4.5, "coordinates": {"latitude": 40.6655705744252, "longitude": -73.9825450299114}, "transactions": ["delivery", "pickup"], "location": {"address1": "369 7th Ave", "address2": "", "address3": null, "city": "Brooklyn", "zip_code": "11215", "country": "US", "state": "NY", "display_address": ["369 7th Ave", "Brooklyn, NY 11215"]}, "phone": "+19293376767", "display_phone": "(929) 337-6767", "distance": 1998.1191373608983}, {"id": "lnTPfdaqDqWjywWewsE2Lw", "alias": "miriam-brooklyn-2", "name": "Miriam", "image_url": "https://s3-media3.fl.yelpcdn.com/bphoto/tONRUqmVXTshXUq6dePMSw/o.jpg", "is_closed": false, "url": "https://www.yelp.com/biz/miriam-brooklyn-2?adjust_creative=a2JdNtFqB-C38ga_06BHvw&utm_campaign=yelp_api_v3&utm_medium=api_v3_business_search&utm_source=a2JdNtFqB-C38ga_06BHvw", "review_count": 1039, "categories": [{"alias": "wine_bars", "title": "Wine Bars"}, {"alias": "mediterranean", "title": "Mediterranean"}, {"alias": "breakfast_brunch", "title": "Breakfast & Brunch"}], "rating": 4.0, "coordinates": {"latitude": 40.6801719843659, "longitude": -73.9777555239717}, "transactions": ["delivery", "pickup"], "price": "$$", "location": {"address1": "79 5th Ave", "address2": null, "address3": "", "city": "Brooklyn", "zip_code": "11217", "country": "US", "state": "NY", "display_address": ["79 5th Ave", "Brooklyn, NY 11217"]}, "phone": "+17186222250", "display_phone": "(718) 622-2250", "distance": 349.4739056760883}, {"id": "OzgvdC0oJPh1FQTLJF2yXw", "alias": "fancy-nancy-brooklyn", "name": "Fancy Nancy", "image_url": "https://s3-media2.fl.yelpcdn.com/bphoto/m6oi06WzrAFMFhnEyZM5KA/o.jpg", "is_closed": false, "url": "https://www.yelp.com/biz/fancy-nancy-brooklyn?adjust_creative=a2JdNtFqB-C38ga_06BHvw&utm_campaign=yelp_api_v3&utm_medium=api_v3_business_search&utm_source=a2JdNtFqB-C38ga_06BHvw", "review_count": 164, "categories": [{"alias": "cocktailbars", "title": "Cocktail Bars"}, {"alias": "newamerican", "title": "American (New)"}, {"alias": "wine_bars", "title": "Wine Bars"}], "rating": 4.0, "coordinates": {"latitude": 40.6895502, "longitude": -73.9554046}, "transactions": ["delivery", "pickup"], "price": "$$", "location": {"address1": "1038 Bedford Ave", "address2": "", "address3": "", "city": "Brooklyn", "zip_code": "11205", "country": "US", "state": "NY", "display_address": ["1038 Bedford Ave", "Brooklyn, NY 11205"]}, "phone": "+13473507289", "display_phone": "(347) 350-7289", "distance": 1838.4228785543276}, {"id": "rtivWWzG0XjUuhSrwusTgQ", "alias": "fausto-brooklyn", "name": "Fausto", "image_url": "https://s3-media2.fl.yelpcdn.com/bphoto/mU191AFgajqz8lgmBOudwQ/o.jpg", "is_closed": false, "url": "https://www.yelp.com/biz/fausto-brooklyn?adjust_creative=a2JdNtFqB-C38ga_06BHvw&utm_campaign=yelp_api_v3&utm_medium=api_v3_business_search&utm_source=a2JdNtFqB-C38ga_06BHvw", "review_count": 171, "categories": [{"alias": "italian", "title": "Italian"}, {"alias": "cocktailbars", "title": "Cocktail Bars"}], "rating": 4.0, "coordinates": {"latitude": 40.67597, "longitude": -73.97181}, "transactions": ["delivery"], "price": "$$$", "location": {"address1": "348 Flatbush Ave", "address2": "", "address3": null, "city": "Brooklyn", "zip_code": "11238", "country": "US", "state": "NY", "display_address": ["348 Flatbush Ave", "Brooklyn, NY 11238"]}, "phone": "+19179091427", "display_phone": "(917) 909-1427", "distance": 791.8425741536653}, {"id": "FXgSgiLg6xgOO8zrG51mzg", "alias": "claro-brooklyn", "name": "Claro", "image_url": "https://s3-media3.fl.yelpcdn.com/bphoto/Kq8JQDFvNYKa7Ni5-5Ta_w/o.jpg", "is_closed": false, "url": "https://www.yelp.com/biz/claro-brooklyn?adjust_creative=a2JdNtFqB-C38ga_06BHvw&utm_campaign=yelp_api_v3&utm_medium=api_v3_business_search&utm_source=a2JdNtFqB-C38ga_06BHvw", "review_count": 219, "categories": [{"alias": "mexican", "title": "Mexican"}, {"alias": "newmexican", "title": "New Mexican Cuisine"}, {"alias": "cocktailbars", "title": "Cocktail Bars"}], "rating": 4.0, "coordinates": {"latitude": 40.6773587963142, "longitude": -73.9861984489446}, "transactions": ["delivery", "pickup"], "price": "$$", "location": {"address1": "284 3rd Ave", "address2": "", "address3": null, "city": "Brooklyn", "zip_code": "11215", "country": "US", "state": "NY", "display_address": ["284 3rd Ave", "Brooklyn, NY 11215"]}, "phone": "+13477213126", "display_phone": "(347) 721-3126", "distance": 1097.2085447120048}, {"id": "LJHLaQzaCy_aNYk5SUIkvw", "alias": "gowanus-gardens-brooklyn", "name": "Gowanus Gardens", "image_url": "https://s3-media3.fl.yelpcdn.com/bphoto/Eo4YLrRmKAfNVfBCYHlhOQ/o.jpg", "is_closed": false, "url": "https://www.yelp.com/biz/gowanus-gardens-brooklyn?adjust_creative=a2JdNtFqB-C38ga_06BHvw&utm_campaign=yelp_api_v3&utm_medium=api_v3_business_search&utm_source=a2JdNtFqB-C38ga_06BHvw", "review_count": 33, "categories": [{"alias": "cocktailbars", "title": "Cocktail Bars"}, {"alias": "gastropubs", "title": "Gastropubs"}, {"alias": "newamerican", "title": "American (New)"}], "rating": 4.5, "coordinates": {"latitude": 40.67647, "longitude": -73.98394}, "transactions": [], "location": {"address1": "256 4th Ave", "address2": "", "address3": null, "city": "Brooklyn", "zip_code": "11215", "country": "US", "state": "NY", "display_address": ["256 4th Ave", "Brooklyn, NY 11215"]}, "phone": "+13477992588", "display_phone": "(347) 799-2588", "distance": 1007.8759026651378}, {"id": "S4uozcDEieoaXxIJ6TsUoQ", "alias": "dellaroccos-brooklyn-3", "name": "Dellarocco's", "image_url": "https://s3-media1.fl.yelpcdn.com/bphoto/RGsip2vQXryVUbOrXfYBkQ/o.jpg", "is_closed": false, "url": "https://www.yelp.com/biz/dellaroccos-brooklyn-3?adjust_creative=a2JdNtFqB-C38ga_06BHvw&utm_campaign=yelp_api_v3&utm_medium=api_v3_business_search&utm_source=a2JdNtFqB-C38ga_06BHvw", "review_count": 288, "categories": [{"alias": "pizza", "title": "Pizza"}, {"alias": "italian", "title": "Italian"}, {"alias": "wine_bars", "title": "Wine Bars"}], "rating": 4.0, "coordinates": {"latitude": 40.6950309, "longitude": -73.9961252}, "transactions": ["pickup", "delivery"], "price": "$$", "location": {"address1": "214 Hicks St", "address2": null, "address3": "", "city": "Brooklyn", "zip_code": "11201", "country": "US", "state": "NY", "display_address": ["214 Hicks St", "Brooklyn, NY 11201"]}, "phone": "+17188581010", "display_phone": "(718) 858-1010", "distance": 2232.9397986422255}, {"id": "moaPtBNbQ5VNu2Z0ilCVGQ", "alias": "walters-brooklyn", "name": "Walter's", "image_url": "https://s3-media2.fl.yelpcdn.com/bphoto/-IVziQ52oaC5C0YS7pztDQ/o.jpg", "is_closed": false, "url": "https://www.yelp.com/biz/walters-brooklyn?adjust_creative=a2JdNtFqB-C38ga_06BHvw&utm_campaign=yelp_api_v3&utm_medium=api_v3_business_search&utm_source=a2JdNtFqB-C38ga_06BHvw", "review_count": 537, "categories": [{"alias": "newamerican", "title": "American (New)"}, {"alias": "cocktailbars", "title": "Cocktail Bars"}], "rating": 4.0, "coordinates": {"latitude": 40.6894111633301, "longitude": -73.973258972168}, "transactions": ["pickup", "delivery"], "price": "$$", "location": {"address1": "166 DeKalb Ave", "address2": "", "address3": "", "city": "Brooklyn", "zip_code": "11217", "country": "US", "state": "NY", "display_address": ["166 DeKalb Ave", "Brooklyn, NY 11217"]}, "phone": "+17184887800", "display_phone": "(718) 488-7800", "distance": 763.4510940872675}, {"id": "a8D87UlkkR3HixryrAay9w", "alias": "coco-bistro-peck-slip", "name": "Coco Bistro", "image_url": "https://s3-media2.fl.yelpcdn.com/bphoto/1C-FOwG5-Ucsq2kloqVvEw/o.jpg", "is_closed": false, "url": "https://www.yelp.com/biz/coco-bistro-peck-slip?adjust_creative=a2JdNtFqB-C38ga_06BHvw&utm_campaign=yelp_api_v3&utm_medium=api_v3_business_search&utm_source=a2JdNtFqB-C38ga_06BHvw", "review_count": 89, "categories": [{"alias": "french", "title": "French"}, {"alias": "wine_bars", "title": "Wine Bars"}, {"alias": "cocktailbars", "title": "Cocktail Bars"}], "rating": 4.5, "coordinates": {"latitude": 40.70757, "longitude": -74.00184}, "transactions": [], "price": "$$", "location": {"address1": "233-235 Front St", "address2": null, "address3": "", "city": "Peck Slip", "zip_code": "10038", "country": "US", "state": "NY", "display_address": ["233-235 Front St", "Peck Slip, NY 10038"]}, "phone": "+12123469090", "display_phone": "(212) 346-9090", "distance": 3560.3814086976126}, {"id": "9DPI1WLAOfpiMXxHeQ0swg", "alias": "tailfeather-new-york", "name": "Tailfeather", "image_url": "https://s3-media2.fl.yelpcdn.com/bphoto/BU9K-kSLRnJ4GN5AvjEKLA/o.jpg", "is_closed": false, "url": "https://www.yelp.com/biz/tailfeather-new-york?adjust_creative=a2JdNtFqB-C38ga_06BHvw&utm_campaign=yelp_api_v3&utm_medium=api_v3_business_search&utm_source=a2JdNtFqB-C38ga_06BHvw", "review_count": 20, "categories": [{"alias": "wine_bars", "title": "Wine Bars"}, {"alias": "tapasmallplates", "title": "Tapas/Small Plates"}, {"alias": "pizza", "title": "Pizza"}], "rating": 5.0, "coordinates": {"latitude": 40.69415, "longitude": -73.96089}, "transactions": ["delivery"], "location": {"address1": "581 Myrtle Ave", "address2": null, "address3": "", "city": "New York", "zip_code": "11205", "country": "US", "state": "NY", "display_address": ["581 Myrtle Ave", "New York, NY 11205"]}, "phone": "+13472405915", "display_phone": "(347) 240-5915", "distance": 1758.209524679412}, {"id": "F-AfJgFrxNbn49Mp4l7aXg", "alias": "hollow-nickel-brooklyn-2", "name": "Hollow Nickel", "image_url": "https://s3-media1.fl.yelpcdn.com/bphoto/B3ivo-BYPD6rO8v9cehkiw/o.jpg", "is_closed": false, "url": "https://www.yelp.com/biz/hollow-nickel-brooklyn-2?adjust_creative=a2JdNtFqB-C38ga_06BHvw&utm_campaign=yelp_api_v3&utm_medium=api_v3_business_search&utm_source=a2JdNtFqB-C38ga_06BHvw", "review_count": 217, "categories": [{"alias": "pubs", "title": "Pubs"}, {"alias": "tradamerican", "title": "American (Traditional)"}, {"alias": "beerbar", "title": "Beer Bar"}], "rating": 4.0, "coordinates": {"latitude": 40.685512, "longitude": -73.981986}, "transactions": ["pickup", "delivery"], "price": "$$", "location": {"address1": "494 Atlantic Ave", "address2": "", "address3": "", "city": "Brooklyn", "zip_code": "11217", "country": "US", "state": "NY", "display_address": ["494 Atlantic Ave", "Brooklyn, NY 11217"]}, "phone": "+13472363417", "display_phone": "(347) 236-3417", "distance": 651.4480838108127}, {"id": "_sipbeIM-EtR4cIzleEUhg", "alias": "cafe-rue-dix-brooklyn", "name": "Cafe Rue Dix", "image_url": "https://s3-media3.fl.yelpcdn.com/bphoto/PdETQUixQGCe54eXuv3iMA/o.jpg", "is_closed": false, "url": "https://www.yelp.com/biz/cafe-rue-dix-brooklyn?adjust_creative=a2JdNtFqB-C38ga_06BHvw&utm_campaign=yelp_api_v3&utm_medium=api_v3_business_search&utm_source=a2JdNtFqB-C38ga_06BHvw", "review_count": 380, "categories": [{"alias": "french", "title": "French"}, {"alias": "cocktailbars", "title": "Cocktail Bars"}, {"alias": "senegalese", "title": "Senegalese"}], "rating": 4.0, "coordinates": {"latitude": 40.6740232907878, "longitude": -73.9538387930572}, "transactions": ["pickup", "delivery"], "price": "$$", "location": {"address1": "1451 Bedford Ave", "address2": "", "address3": "", "city": "Brooklyn", "zip_code": "11216", "country": "US", "state": "NY", "display_address": ["1451 Bedford Ave", "Brooklyn, NY 11216"]}, "phone": "+19292342543", "display_phone": "(929) 234-2543", "distance": 2043.2702506638507}, {"id": "Njr_f1J5Pve35OyPdBljVA", "alias": "convivium-osteria-brooklyn", "name": "Convivium Osteria", "image_url": "https://s3-media4.fl.yelpcdn.com/bphoto/RIIMXKFc36OIwIhsXxnt2g/o.jpg", "is_closed": false, "url": "https://www.yelp.com/biz/convivium-osteria-brooklyn?adjust_creative=a2JdNtFqB-C38ga_06BHvw&utm_campaign=yelp_api_v3&utm_medium=api_v3_business_search&utm_source=a2JdNtFqB-C38ga_06BHvw", "review_count": 490, "categories": [{"alias": "italian", "title": "Italian"}, {"alias": "wine_bars", "title": "Wine Bars"}, {"alias": "venues", "title": "Venues & Event Spaces"}], "rating": 4.0, "coordinates": {"latitude": 40.68105, "longitude": -73.97748}, "transactions": ["pickup", "delivery"], "price": "$$$", "location": {"address1": "68 5th Ave", "address2": "", "address3": "", "city": "Brooklyn", "zip_code": "11217", "country": "US", "state": "NY", "display_address": ["68 5th Ave", "Brooklyn, NY 11217"]}, "phone": "+17188571833", "display_phone": "(718) 857-1833", "distance": 263.7925303415842}, {"id": "wouDDTacUIBaRp8YGCFTsA", "alias": "colonie-brooklyn", "name": "Colonie", "image_url": "https://s3-media1.fl.yelpcdn.com/bphoto/r6Qp3GXOCdjAmFWh_GQWWg/o.jpg", "is_closed": false, "url": "https://www.yelp.com/biz/colonie-brooklyn?adjust_creative=a2JdNtFqB-C38ga_06BHvw&utm_campaign=yelp_api_v3&utm_medium=api_v3_business_search&utm_source=a2JdNtFqB-C38ga_06BHvw", "review_count": 594, "categories": [{"alias": "breakfast_brunch", "title": "Breakfast & Brunch"}, {"alias": "tradamerican", "title": "American (Traditional)"}, {"alias": "cocktailbars", "title": "Cocktail Bars"}], "rating": 4.0, "coordinates": {"latitude": 40.6909, "longitude": -73.9958}, "transactions": ["delivery"], "price": "$$$", "location": {"address1": "127 Atlantic Ave", "address2": "", "address3": "", "city": "Brooklyn", "zip_code": "11201", "country": "US", "state": "NY", "display_address": ["127 Atlantic Ave", "Brooklyn, NY 11201"]}, "phone": "+17188557500", "display_phone": "(718) 855-7500", "distance": 1962.8896308401745}, {"id": "tGNc9bAOgjG4jFMopJJ5zg", "alias": "lizzie-kings-parlor-brooklyn-2", "name": "Lizzie King's Parlor", "image_url": "https://s3-media2.fl.yelpcdn.com/bphoto/ITFQjz2R6vHcNBcA2pR3QQ/o.jpg", "is_closed": false, "url": "https://www.yelp.com/biz/lizzie-kings-parlor-brooklyn-2?adjust_creative=a2JdNtFqB-C38ga_06BHvw&utm_campaign=yelp_api_v3&utm_medium=api_v3_business_search&utm_source=a2JdNtFqB-C38ga_06BHvw", "review_count": 55, "categories": [{"alias": "cocktailbars", "title": "Cocktail Bars"}, {"alias": "tradamerican", "title": "American (Traditional)"}], "rating": 4.5, "coordinates": {"latitude": 40.68045, "longitude": -73.97757}, "transactions": ["pickup", "delivery"], "price": "$$", "location": {"address1": "75A 5th Ave", "address2": null, "address3": "", "city": "Brooklyn", "zip_code": "11217", "country": "US", "state": "NY", "display_address": ["75A 5th Ave", "Brooklyn, NY 11217"]}, "phone": "+13474607514", "display_phone": "(347) 460-7514", "distance": 318.66696665347547}, {"id": "ZOfk6Ao0db5icjc0WEq7zg", "alias": "bacchus-bistro-and-wine-bar-brooklyn-2", "name": "Bacchus Bistro & Wine Bar", "image_url": "https://s3-media3.fl.yelpcdn.com/bphoto/8Wiromw_MWgSa_Fh0kB-PQ/o.jpg", "is_closed": false, "url": "https://www.yelp.com/biz/bacchus-bistro-and-wine-bar-brooklyn-2?adjust_creative=a2JdNtFqB-C38ga_06BHvw&utm_campaign=yelp_api_v3&utm_medium=api_v3_business_search&utm_source=a2JdNtFqB-C38ga_06BHvw", "review_count": 495, "categories": [{"alias": "french", "title": "French"}, {"alias": "wine_bars", "title": "Wine Bars"}], "rating": 4.0, "coordinates": {"latitude": 40.68692, "longitude": -73.98437}, "transactions": ["pickup", "delivery"], "price": "$$", "location": {"address1": "409-411 Atlantic Ave", "address2": "", "address3": "", "city": "Brooklyn", "zip_code": "11217", "country": "US", "state": "NY", "display_address": ["409-411 Atlantic Ave", "Brooklyn, NY 11217"]}, "phone": "+17188521572", "display_phone": "(718) 852-1572", "distance": 905.4306259593949}, {"id": "SoEQRDUNYDZPVSSIhTOG6A", "alias": "muse-brooklyn", "name": "Muse", "image_url": "https://s3-media3.fl.yelpcdn.com/bphoto/uSBvWNseDN7KCPjgfrJwuw/o.jpg", "is_closed": false, "url": "https://www.yelp.com/biz/muse-brooklyn?adjust_creative=a2JdNtFqB-C38ga_06BHvw&utm_campaign=yelp_api_v3&utm_medium=api_v3_business_search&utm_source=a2JdNtFqB-C38ga_06BHvw", "review_count": 100, "categories": [{"alias": "thai", "title": "Thai"}, {"alias": "cocktailbars", "title": "Cocktail Bars"}], "rating": 4.0, "coordinates": {"latitude": 40.6766485, "longitude": -73.96339957259552}, "transactions": ["restaurant_reservation", "pickup", "delivery"], "price": "$$", "location": {"address1": "689 Washington Ave", "address2": null, "address3": "", "city": "Brooklyn", "zip_code": "11238", "country": "US", "state": "NY", "display_address": ["689 Washington Ave", "Brooklyn, NY 11238"]}, "phone": "+13474420443", "display_phone": "(347) 442-0443", "distance": 1200.570162148742}, {"id": "2ocEotgscaDAEr6Ok2_XAA", "alias": "pizzette-brooklyn-2", "name": "Pizzette", "image_url": "https://s3-media2.fl.yelpcdn.com/bphoto/D8sNwNdyj1pm4kdEgnEwkg/o.jpg", "is_closed": false, "url": "https://www.yelp.com/biz/pizzette-brooklyn-2?adjust_creative=a2JdNtFqB-C38ga_06BHvw&utm_campaign=yelp_api_v3&utm_medium=api_v3_business_search&utm_source=a2JdNtFqB-C38ga_06BHvw", "review_count": 33, "categories": [{"alias": "pizza", "title": "Pizza"}, {"alias": "cocktailbars", "title": "Cocktail Bars"}, {"alias": "seafood", "title": "Seafood"}], "rating": 4.5, "coordinates": {"latitude": 40.70858, "longitude": -73.94357}, "transactions": ["restaurant_reservation", "pickup", "delivery"], "price": "$$", "location": {"address1": "191 Graham Ave", "address2": "", "address3": null, "city": "Brooklyn", "zip_code": "11206", "country": "US", "state": "NY", "display_address": ["191 Graham Ave", "Brooklyn, NY 11206"]}, "phone": "+19179091555", "display_phone": "(917) 909-1555", "distance": 3918.928750829662}, {"id": "niXT7o9AcG18zC7KlaAEEA", "alias": "park-slope-ale-house-brooklyn-2", "name": "Park Slope Ale House", "image_url": "https://s3-media2.fl.yelpcdn.com/bphoto/EMvksBw9fwqGZSvLpEApvA/o.jpg", "is_closed": false, "url": "https://www.yelp.com/biz/park-slope-ale-house-brooklyn-2?adjust_creative=a2JdNtFqB-C38ga_06BHvw&utm_campaign=yelp_api_v3&utm_medium=api_v3_business_search&utm_source=a2JdNtFqB-C38ga_06BHvw", "review_count": 33, "categories": [{"alias": "pubs", "title": "Pubs"}, {"alias": "tradamerican", "title": "American (Traditional)"}], "rating": 4.5, "coordinates": {"latitude": 40.67061, "longitude": -73.9819799}, "transactions": ["pickup", "delivery"], "location": {"address1": "356 6th Ave", "address2": "", "address3": null, "city": "Brooklyn", "zip_code": "11215", "country": "US", "state": "NY", "display_address": ["356 6th Ave", "Brooklyn, NY 11215"]}, "phone": "+17187881756", "display_phone": "(718) 788-1756", "distance": 1455.4490443232291}, {"id": "oBcuOhubYwHV_bY35lu5hA", "alias": "petees-cafe-brooklyn-4", "name": "Petee's Cafe", "image_url": "https://s3-media2.fl.yelpcdn.com/bphoto/xExFxShGqOg7KuKQqQlBDg/o.jpg", "is_closed": false, "url": "https://www.yelp.com/biz/petees-cafe-brooklyn-4?adjust_creative=a2JdNtFqB-C38ga_06BHvw&utm_campaign=yelp_api_v3&utm_medium=api_v3_business_search&utm_source=a2JdNtFqB-C38ga_06BHvw", "review_count": 108, "categories": [{"alias": "cafes", "title": "Cafes"}, {"alias": "desserts", "title": "Desserts"}, {"alias": "wine_bars", "title": "Wine Bars"}], "rating": 4.0, "coordinates": {"latitude": 40.693794, "longitude": -73.964702}, "transactions": ["pickup", "delivery"], "price": "$$", "location": {"address1": "505 Myrtle Ave", "address2": null, "address3": "", "city": "Brooklyn", "zip_code": "11205", "country": "US", "state": "NY", "display_address": ["505 Myrtle Ave", "Brooklyn, NY 11205"]}, "phone": "+16464943630", "display_phone": "(646) 494-3630", "distance": 1521.8899371430782}, {"id": "mXLrVoEi80WZaZ3agBP5Jw", "alias": "bijans-brooklyn-2", "name": "Bijan's", "image_url": "https://s3-media2.fl.yelpcdn.com/bphoto/VJmLtQJ2tXq9qjlhGGMVxg/o.jpg", "is_closed": false, "url": "https://www.yelp.com/biz/bijans-brooklyn-2?adjust_creative=a2JdNtFqB-C38ga_06BHvw&utm_campaign=yelp_api_v3&utm_medium=api_v3_business_search&utm_source=a2JdNtFqB-C38ga_06BHvw", "review_count": 599, "categories": [{"alias": "newamerican", "title": "American (New)"}, {"alias": "cocktailbars", "title": "Cocktail Bars"}, {"alias": "mediterranean", "title": "Mediterranean"}], "rating": 4.0, "coordinates": {"latitude": 40.68803, "longitude": -73.98671}, "transactions": ["restaurant_reservation", "pickup", "delivery"], "price": "$$", "location": {"address1": "81 Hoyt St", "address2": "", "address3": "", "city": "Brooklyn", "zip_code": "11211", "country": "US", "state": "NY", "display_address": ["81 Hoyt St", "Brooklyn, NY 11211"]}, "phone": "+17188555574", "display_phone": "(718) 855-5574", "distance": 1134.1980388056768}, {"id": "ohLIPmzTysowInbte9XhMw", "alias": "the-malt-house-new-york-3", "name": "The Malt House", "image_url": "https://s3-media4.fl.yelpcdn.com/bphoto/wxCetW7aHVatpcEf11RLgA/o.jpg", "is_closed": false, "url": "https://www.yelp.com/biz/the-malt-house-new-york-3?adjust_creative=a2JdNtFqB-C38ga_06BHvw&utm_campaign=yelp_api_v3&utm_medium=api_v3_business_search&utm_source=a2JdNtFqB-C38ga_06BHvw", "review_count": 532, "categories": [{"alias": "gastropubs", "title": "Gastropubs"}, {"alias": "pubs", "title": "Pubs"}, {"alias": "breakfast_brunch", "title": "Breakfast & Brunch"}], "rating": 4.0, "coordinates": {"latitude": 40.709659, "longitude": -74.009262}, "transactions": ["pickup", "delivery"], "price": "$$", "location": {"address1": "9 Maiden Ln", "address2": "", "address3": "", "city": "New York", "zip_code": "10038", "country": "US", "state": "NY", "display_address": ["9 Maiden Ln", "New York, NY 10038"]}, "phone": "+16466827577", "display_phone": "(646) 682-7577", "distance": 4154.064679281198}, {"id": "1DT6XYMzcekpFQ41Hj44vA", "alias": "luzzos-bk-brooklyn", "name": "Luzzo's BK", "image_url": "https://s3-media1.fl.yelpcdn.com/bphoto/dRK9bCrxvn0dDyuGiXD86g/o.jpg", "is_closed": false, "url": "https://www.yelp.com/biz/luzzos-bk-brooklyn?adjust_creative=a2JdNtFqB-C38ga_06BHvw&utm_campaign=yelp_api_v3&utm_medium=api_v3_business_search&utm_source=a2JdNtFqB-C38ga_06BHvw", "review_count": 191, "categories": [{"alias": "pizza", "title": "Pizza"}, {"alias": "italian", "title": "Italian"}, {"alias": "wine_bars", "title": "Wine Bars"}], "rating": 4.0, "coordinates": {"latitude": 40.690706, "longitude": -73.9952269}, "transactions": ["pickup", "delivery"], "price": "$$", "location": {"address1": "145 Atlantic Ave", "address2": "", "address3": "", "city": "Brooklyn", "zip_code": "11201", "country": "US", "state": "NY", "display_address": ["145 Atlantic Ave", "Brooklyn, NY 11201"]}, "phone": "+17188556400", "display_phone": "(718) 855-6400", "distance": 1909.0716830005238}, {"id": "yGQT6OZ-nNIhTKj32wRlmA", "alias": "bar-bolinas-clinton-hill", "name": "Bar Bolinas", "image_url": "https://s3-media3.fl.yelpcdn.com/bphoto/1q0ybwr2AmnYiznbEnYDWw/o.jpg", "is_closed": false, "url": "https://www.yelp.com/biz/bar-bolinas-clinton-hill?adjust_creative=a2JdNtFqB-C38ga_06BHvw&utm_campaign=yelp_api_v3&utm_medium=api_v3_business_search&utm_source=a2JdNtFqB-C38ga_06BHvw", "review_count": 125, "categories": [{"alias": "newamerican", "title": "American (New)"}, {"alias": "mexican", "title": "Mexican"}, {"alias": "cocktailbars", "title": "Cocktail Bars"}], "rating": 4.0, "coordinates": {"latitude": 40.693499, "longitude": -73.967389}, "transactions": ["pickup", "delivery"], "price": "$$", "location": {"address1": "455 Myrtle Ave", "address2": "", "address3": "", "city": "Clinton Hill", "zip_code": "11205", "country": "US", "state": "NY", "display_address": ["455 Myrtle Ave", "Clinton Hill, NY 11205"]}, "phone": "+17189359331", "display_phone": "(718) 935-9331", "distance": 1371.9441177745462}, {"id": "LfRiA6RORToZUSJUHkZBVA", "alias": "frankies-457-spuntino-brooklyn-3", "name": "Frankies 457 Spuntino", "image_url": "https://s3-media3.fl.yelpcdn.com/bphoto/btKAwreoI9Yr6-R4JqgsdQ/o.jpg", "is_closed": false, "url": "https://www.yelp.com/biz/frankies-457-spuntino-brooklyn-3?adjust_creative=a2JdNtFqB-C38ga_06BHvw&utm_campaign=yelp_api_v3&utm_medium=api_v3_business_search&utm_source=a2JdNtFqB-C38ga_06BHvw", "review_count": 829, "categories": [{"alias": "italian", "title": "Italian"}, {"alias": "sandwiches", "title": "Sandwiches"}, {"alias": "wine_bars", "title": "Wine Bars"}], "rating": 4.0, "coordinates": {"latitude": 40.677328, "longitude": -73.997972}, "transactions": ["pickup", "delivery"], "price": "$$", "location": {"address1": "457 Court St", "address2": "", "address3": "", "city": "Brooklyn", "zip_code": "11231", "country": "US", "state": "NY", "display_address": ["457 Court St", "Brooklyn, NY 11231"]}, "phone": "+17184030033", "display_phone": "(718) 403-0033", "distance": 2007.7337313397277}, {"id": "zHtCLIChaKxqFXfMZQHkMQ", "alias": "speedy-romeo-brooklyn", "name": "Speedy Romeo", "image_url": "https://s3-media2.fl.yelpcdn.com/bphoto/s2f-lienaUxWvW9MuxasdA/o.jpg", "is_closed": false, "url": "https://www.yelp.com/biz/speedy-romeo-brooklyn?adjust_creative=a2JdNtFqB-C38ga_06BHvw&utm_campaign=yelp_api_v3&utm_medium=api_v3_business_search&utm_source=a2JdNtFqB-C38ga_06BHvw", "review_count": 608, "categories": [{"alias": "pizza", "title": "Pizza"}, {"alias": "steak", "title": "Steakhouses"}, {"alias": "wine_bars", "title": "Wine Bars"}], "rating": 4.0, "coordinates": {"latitude": 40.6875154792236, "longitude": -73.959874469611}, "transactions": ["delivery", "pickup"], "price": "$$", "location": {"address1": "376 Classon Ave", "address2": null, "address3": "", "city": "Brooklyn", "zip_code": "11238", "country": "US", "state": "NY", "display_address": ["376 Classon Ave", "Brooklyn, NY 11238"]}, "phone": "+17182300061", "display_phone": "(718) 230-0061", "distance": 1402.3959743647333}, {"id": "53ZNJNrT91VgvrI0LFjLNQ", "alias": "locanda-vini-e-olii-brooklyn-4", "name": "Locanda Vini e Olii", "image_url": "https://s3-media1.fl.yelpcdn.com/bphoto/4YwmIuacjpAJe9YvHk8lCQ/o.jpg", "is_closed": false, "url": "https://www.yelp.com/biz/locanda-vini-e-olii-brooklyn-4?adjust_creative=a2JdNtFqB-C38ga_06BHvw&utm_campaign=yelp_api_v3&utm_medium=api_v3_business_search&utm_source=a2JdNtFqB-C38ga_06BHvw", "review_count": 312, "categories": [{"alias": "italian", "title": "Italian"}, {"alias": "wine_bars", "title": "Wine Bars"}], "rating": 4.0, "coordinates": {"latitude": 40.685007, "longitude": -73.962943}, "transactions": ["delivery"], "price": "$$$", "location": {"address1": "129 Gates Ave", "address2": null, "address3": "", "city": "Brooklyn", "zip_code": "11238", "country": "US", "state": "NY", "display_address": ["129 Gates Ave", "Brooklyn, NY 11238"]}, "phone": "+17186229202", "display_phone": "(718) 622-9202", "distance": 1067.9800802623859}, {"id": "X9f5HH4x3Mi7lo4ph9efvQ", "alias": "terre-brooklyn", "name": "Terre", "image_url": "https://s3-media3.fl.yelpcdn.com/bphoto/8OZY_VRODKnhQ8Y5R169Lw/o.jpg", "is_closed": false, "url": "https://www.yelp.com/biz/terre-brooklyn?adjust_creative=a2JdNtFqB-C38ga_06BHvw&utm_campaign=yelp_api_v3&utm_medium=api_v3_business_search&utm_source=a2JdNtFqB-C38ga_06BHvw", "review_count": 97, "categories": [{"alias": "italian", "title": "Italian"}, {"alias": "wine_bars", "title": "Wine Bars"}, {"alias": "breakfast_brunch", "title": "Breakfast & Brunch"}], "rating": 4.0, "coordinates": {"latitude": 40.671949831792, "longitude": -73.9837719490146}, "transactions": ["delivery", "pickup"], "price": "$$", "location": {"address1": "341 5th Ave", "address2": "", "address3": null, "city": "Brooklyn", "zip_code": "11215", "country": "US", "state": "NY", "display_address": ["341 5th Ave", "Brooklyn, NY 11215"]}, "phone": "+17187882285", "display_phone": "(718) 788-2285", "distance": 1392.133643924109}, {"id": "2kPGo5wA33eBJj-OzA96tQ", "alias": "bar-san-miguel-new-york", "name": "Bar San Miguel", "image_url": "https://s3-media4.fl.yelpcdn.com/bphoto/KflLNPD1mZAbGOw78HTvDg/o.jpg", "is_closed": false, "url": "https://www.yelp.com/biz/bar-san-miguel-new-york?adjust_creative=a2JdNtFqB-C38ga_06BHvw&utm_campaign=yelp_api_v3&utm_medium=api_v3_business_search&utm_source=a2JdNtFqB-C38ga_06BHvw", "review_count": 140, "categories": [{"alias": "mexican", "title": "Mexican"}, {"alias": "cocktailbars", "title": "Cocktail Bars"}], "rating": 4.0, "coordinates": {"latitude": 40.68134, "longitude": -73.9938279}, "transactions": ["delivery", "pickup"], "price": "$$", "location": {"address1": "307 Smith St", "address2": "", "address3": "", "city": "New York", "zip_code": "11231", "country": "US", "state": "NY", "display_address": ["307 Smith St", "New York, NY 11231"]}, "phone": "+17185763852", "display_phone": "(718) 576-3852", "distance": 1575.5215367811938}, {"id": "uVfOB37NyYEGRs5FITM-nQ", "alias": "leyenda-brooklyn", "name": "Leyenda", "image_url": "https://s3-media2.fl.yelpcdn.com/bphoto/xmzICvK5W37OzD61Bpv1uQ/o.jpg", "is_closed": false, "url": "https://www.yelp.com/biz/leyenda-brooklyn?adjust_creative=a2JdNtFqB-C38ga_06BHvw&utm_campaign=yelp_api_v3&utm_medium=api_v3_business_search&utm_source=a2JdNtFqB-C38ga_06BHvw", "review_count": 247, "categories": [{"alias": "latin", "title": "Latin American"}, {"alias": "mexican", "title": "Mexican"}, {"alias": "cocktailbars", "title": "Cocktail Bars"}], "rating": 4.0, "coordinates": {"latitude": 40.68431, "longitude": -73.99197}, "transactions": ["delivery", "pickup"], "price": "$$", "location": {"address1": "221 Smith St", "address2": "", "address3": "", "city": "Brooklyn", "zip_code": "11201", "country": "US", "state": "NY", "display_address": ["221 Smith St", "Brooklyn, NY 11201"]}, "phone": "+13479873260", "display_phone": "(347) 987-3260", "distance": 1419.9429342737806}, {"id": "fNRRmvVKTbEBSaAOcA-3bA", "alias": "parkside-brooklyn", "name": "Parkside", "image_url": "https://s3-media1.fl.yelpcdn.com/bphoto/REHdc523VZUc-SYrUfEsZQ/o.jpg", "is_closed": false, "url": "https://www.yelp.com/biz/parkside-brooklyn?adjust_creative=a2JdNtFqB-C38ga_06BHvw&utm_campaign=yelp_api_v3&utm_medium=api_v3_business_search&utm_source=a2JdNtFqB-C38ga_06BHvw", "review_count": 186, "categories": [{"alias": "pizza", "title": "Pizza"}, {"alias": "cocktailbars", "title": "Cocktail Bars"}, {"alias": "jazzandblues", "title": "Jazz & Blues"}], "rating": 4.0, "coordinates": {"latitude": 40.655949, "longitude": -73.959599}, "transactions": ["delivery"], "price": "$$", "location": {"address1": "705 Flatbush Ave", "address2": "", "address3": "", "city": "Brooklyn", "zip_code": "11225", "country": "US", "state": "NY", "display_address": ["705 Flatbush Ave", "Brooklyn, NY 11225"]}, "phone": "+17189752628", "display_phone": "(718) 975-2628", "distance": 3249.48119209705}, {"id": "yDStP6k9r9CS0bcwSNbIyw", "alias": "couleur-café-brooklyn-2", "name": "Couleur Café", "image_url": "https://s3-media4.fl.yelpcdn.com/bphoto/ACek6AQMab2eDttX-mZl7g/o.jpg", "is_closed": false, "url": "https://www.yelp.com/biz/couleur-caf%C3%A9-brooklyn-2?adjust_creative=a2JdNtFqB-C38ga_06BHvw&utm_campaign=yelp_api_v3&utm_medium=api_v3_business_search&utm_source=a2JdNtFqB-C38ga_06BHvw", "review_count": 210, "categories": [{"alias": "french", "title": "French"}, {"alias": "cafes", "title": "Cafes"}, {"alias": "wine_bars", "title": "Wine Bars"}], "rating": 4.0, "coordinates": {"latitude": 40.6633799, "longitude": -73.98433}, "transactions": ["delivery"], "price": "$$", "location": {"address1": "435 7th Ave", "address2": "", "address3": "", "city": "Brooklyn", "zip_code": "11215", "country": "US", "state": "NY", "display_address": ["435 7th Ave", "Brooklyn, NY 11215"]}, "phone": "+17187886600", "display_phone": "(718) 788-6600", "distance": 2278.6004008458135}, {"id": "TZG0qTIGdeOtCkBrSU6v0Q", "alias": "minami-lounge-brooklyn", "name": "Minami Lounge", "image_url": "https://s3-media1.fl.yelpcdn.com/bphoto/bDECpLa89adXlMWDv1bK3w/o.jpg", "is_closed": false, "url": "https://www.yelp.com/biz/minami-lounge-brooklyn?adjust_creative=a2JdNtFqB-C38ga_06BHvw&utm_campaign=yelp_api_v3&utm_medium=api_v3_business_search&utm_source=a2JdNtFqB-C38ga_06BHvw", "review_count": 53, "categories": [{"alias": "sushi", "title": "Sushi Bars"}, {"alias": "ramen", "title": "Ramen"}, {"alias": "cocktailbars", "title": "Cocktail Bars"}], "rating": 4.5, "coordinates": {"latitude": 40.70944, "longitude": -73.95566}, "transactions": ["delivery", "pickup"], "price": "$$", "location": {"address1": "299 S 4th St", "address2": null, "address3": "", "city": "Brooklyn", "zip_code": "11211", "country": "US", "state": "NY", "display_address": ["299 S 4th St", "Brooklyn, NY 11211"]}, "phone": "+19179091896", "display_phone": "(917) 909-1896", "distance": 3399.979135233933}, {"id": "nHMDOIX32dGbfpuNUwsLNQ", "alias": "almar-brooklyn-2", "name": "AlMar", "image_url": "https://s3-media3.fl.yelpcdn.com/bphoto/_EoXWmBYT1-X--xHq0oUTw/o.jpg", "is_closed": false, "url": "https://www.yelp.com/biz/almar-brooklyn-2?adjust_creative=a2JdNtFqB-C38ga_06BHvw&utm_campaign=yelp_api_v3&utm_medium=api_v3_business_search&utm_source=a2JdNtFqB-C38ga_06BHvw", "review_count": 453, "categories": [{"alias": "italian", "title": "Italian"}, {"alias": "breakfast_brunch", "title": "Breakfast & Brunch"}, {"alias": "cocktailbars", "title": "Cocktail Bars"}], "rating": 4.0, "coordinates": {"latitude": 40.702662, "longitude": -73.989177}, "transactions": ["delivery", "pickup"], "price": "$$", "location": {"address1": "111 Front St", "address2": "", "address3": "", "city": "Brooklyn", "zip_code": "11201", "country": "US", "state": "NY", "display_address": ["111 Front St", "Brooklyn, NY 11201"]}, "phone": "+17188555288", "display_phone": "(718) 855-5288", "distance": 2515.923284679507}, {"id": "n96F0TszY5WIyCjVIbY6TA", "alias": "rustik-tavern-brooklyn", "name": "Rustik Tavern", "image_url": "https://s3-media4.fl.yelpcdn.com/bphoto/5_4lARR1HEghYZBKnqLe0g/o.jpg", "is_closed": false, "url": "https://www.yelp.com/biz/rustik-tavern-brooklyn?adjust_creative=a2JdNtFqB-C38ga_06BHvw&utm_campaign=yelp_api_v3&utm_medium=api_v3_business_search&utm_source=a2JdNtFqB-C38ga_06BHvw", "review_count": 496, "categories": [{"alias": "tradamerican", "title": "American (Traditional)"}, {"alias": "venues", "title": "Venues & Event Spaces"}, {"alias": "cocktailbars", "title": "Cocktail Bars"}], "rating": 4.0, "coordinates": {"latitude": 40.690754, "longitude": -73.958279}, "transactions": ["delivery", "restaurant_reservation", "pickup"], "price": "$$", "location": {"address1": "471 Dekalb Ave", "address2": "", "address3": "", "city": "Brooklyn", "zip_code": "11205", "country": "US", "state": "NY", "display_address": ["471 Dekalb Ave", "Brooklyn, NY 11205"]}, "phone": "+13474069700", "display_phone": "(347) 406-9700", "distance": 1688.6122718365234}, {"id": "qYGN_oXNOIIUMO1yfl7O7A", "alias": "charm-bar-and-restaurant-brooklyn", "name": "Charm Bar & Restaurant", "image_url": "https://s3-media2.fl.yelpcdn.com/bphoto/SxUvW_kOIAcZuBf1fMCc5w/o.jpg", "is_closed": false, "url": "https://www.yelp.com/biz/charm-bar-and-restaurant-brooklyn?adjust_creative=a2JdNtFqB-C38ga_06BHvw&utm_campaign=yelp_api_v3&utm_medium=api_v3_business_search&utm_source=a2JdNtFqB-C38ga_06BHvw", "review_count": 60, "categories": [{"alias": "caribbean", "title": "Caribbean"}, {"alias": "newamerican", "title": "American (New)"}, {"alias": "cocktailbars", "title": "Cocktail Bars"}], "rating": 4.5, "coordinates": {"latitude": 40.681841, "longitude": -73.976284}, "transactions": ["delivery", "pickup"], "location": {"address1": "448 Dean St", "address2": null, "address3": "", "city": "Brooklyn", "zip_code": "11217", "country": "US", "state": "NY", "display_address": ["448 Dean St", "Brooklyn, NY 11217"]}, "phone": "+13477992345", "display_phone": "(347) 799-2345", "distance": 130.18661276535303}, {"id": "ZQ-dG0tuqniCmfJ2mptRpQ", "alias": "blue-ribbon-federal-grill-new-york", "name": "Blue Ribbon Federal Grill", "image_url": "https://s3-media1.fl.yelpcdn.com/bphoto/VuZPfzBMNuWLqwuZ5FzIEA/o.jpg", "is_closed": false, "url": "https://www.yelp.com/biz/blue-ribbon-federal-grill-new-york?adjust_creative=a2JdNtFqB-C38ga_06BHvw&utm_campaign=yelp_api_v3&utm_medium=api_v3_business_search&utm_source=a2JdNtFqB-C38ga_06BHvw", "review_count": 93, "categories": [{"alias": "tradamerican", "title": "American (Traditional)"}, {"alias": "cocktailbars", "title": "Cocktail Bars"}, {"alias": "breakfast_brunch", "title": "Breakfast & Brunch"}], "rating": 4.0, "coordinates": {"latitude": 40.70803, "longitude": -74.00785}, "transactions": ["delivery", "pickup"], "price": "$$$", "location": {"address1": "84 William St", "address2": "", "address3": "", "city": "New York", "zip_code": "10038", "country": "US", "state": "NY", "display_address": ["84 William St", "New York, NY 10038"]}, "phone": "+12123370404", "display_phone": "(212) 337-0404", "distance": 3930.557680261371}, {"id": "be7zagjfrCYN9EQ5ijld5w", "alias": "pollo-d-oro-brooklyn", "name": "Pollo D' Oro", "image_url": "https://s3-media2.fl.yelpcdn.com/bphoto/rhQKNP_ctYJmI4Vb2xKZpg/o.jpg", "is_closed": false, "url": "https://www.yelp.com/biz/pollo-d-oro-brooklyn?adjust_creative=a2JdNtFqB-C38ga_06BHvw&utm_campaign=yelp_api_v3&utm_medium=api_v3_business_search&utm_source=a2JdNtFqB-C38ga_06BHvw", "review_count": 275, "categories": [{"alias": "peruvian", "title": "Peruvian"}, {"alias": "cocktailbars", "title": "Cocktail Bars"}, {"alias": "breakfast_brunch", "title": "Breakfast & Brunch"}], "rating": 4.0, "coordinates": {"latitude": 40.69506, "longitude": -73.98339}, "transactions": ["delivery", "pickup"], "price": "$$", "location": {"address1": "306 Gold St", "address2": null, "address3": "", "city": "Brooklyn", "zip_code": "11201", "country": "US", "state": "NY", "display_address": ["306 Gold St", "Brooklyn, NY 11201"]}, "phone": "+17188558088", "display_phone": "(718) 855-8088", "distance": 1548.1606030872188}, {"id": "YBEjrVXSy8CDph7EBV5WJQ", "alias": "dram-shop-brooklyn", "name": "Dram Shop", "image_url": "https://s3-media2.fl.yelpcdn.com/bphoto/Ez5cYLwfV8xm_grUIr8gkg/o.jpg", "is_closed": false, "url": "https://www.yelp.com/biz/dram-shop-brooklyn?adjust_creative=a2JdNtFqB-C38ga_06BHvw&utm_campaign=yelp_api_v3&utm_medium=api_v3_business_search&utm_source=a2JdNtFqB-C38ga_06BHvw", "review_count": 565, "categories": [{"alias": "sportsbars", "title": "Sports Bars"}, {"alias": "burgers", "title": "Burgers"}], "rating": 4.0, "coordinates": {"latitude": 40.668823, "longitude": -73.985152}, "transactions": ["delivery", "pickup"], "price": "$$", "location": {"address1": "339 9th St", "address2": "", "address3": "", "city": "Brooklyn", "zip_code": "11215", "country": "US", "state": "NY", "display_address": ["339 9th St", "Brooklyn, NY 11215"]}, "phone": "+17187881444", "display_phone": "(718) 788-1444", "distance": 1751.7052189145436}, {"id": "rlZP-SWgNXH-2Ejp9dHEgw", "alias": "jeremys-ale-house-south-street-seaport-new-york", "name": "Jeremy's Ale House- South Street Seaport", "image_url": "https://s3-media1.fl.yelpcdn.com/bphoto/7UYe2VEORdRVHcbHq9aCPg/o.jpg", "is_closed": false, "url": "https://www.yelp.com/biz/jeremys-ale-house-south-street-seaport-new-york?adjust_creative=a2JdNtFqB-C38ga_06BHvw&utm_campaign=yelp_api_v3&utm_medium=api_v3_business_search&utm_source=a2JdNtFqB-C38ga_06BHvw", "review_count": 297, "categories": [{"alias": "divebars", "title": "Dive Bars"}, {"alias": "seafood", "title": "Seafood"}, {"alias": "pubs", "title": "Pubs"}], "rating": 4.0, "coordinates": {"latitude": 40.70766, "longitude": -74.00205}, "transactions": ["delivery"], "price": "$", "location": {"address1": "228 Front St", "address2": "", "address3": "", "city": "New York", "zip_code": "10038", "country": "US", "state": "NY", "display_address": ["228 Front St", "New York, NY 10038"]}, "phone": "+12129643537", "display_phone": "(212) 964-3537", "distance": 3592.07276531981}, {"id": "4CiYqpxZK2f5-GSkte1ekA", "alias": "glou-wine-bar-brooklyn-3", "name": "Glou Wine Bar", "image_url": "https://s3-media4.fl.yelpcdn.com/bphoto/EYFH3LNvfClaARSTwcPnQQ/o.jpg", "is_closed": false, "url": "https://www.yelp.com/biz/glou-wine-bar-brooklyn-3?adjust_creative=a2JdNtFqB-C38ga_06BHvw&utm_campaign=yelp_api_v3&utm_medium=api_v3_business_search&utm_source=a2JdNtFqB-C38ga_06BHvw", "review_count": 39, "categories": [{"alias": "wine_bars", "title": "Wine Bars"}, {"alias": "tapas", "title": "Tapas Bars"}], "rating": 4.5, "coordinates": {"latitude": 40.662809, "longitude": -73.95406}, "transactions": [], "price": "$$", "location": {"address1": "406 Rogers Ave", "address2": null, "address3": "", "city": "Brooklyn", "zip_code": "11225", "country": "US", "state": "NY", "display_address": ["406 Rogers Ave", "Brooklyn, NY 11225"]}, "phone": "+17184839211", "display_phone": "(718) 483-9211", "distance": 2837.707297155634}, {"id": "HWTH6QwatW6lcYaIWgw4Kg", "alias": "mcmahons-public-house-brooklyn", "name": "McMahon's Public House", "image_url": "https://s3-media4.fl.yelpcdn.com/bphoto/RZGGaCkmJNiP1KvSmvaOeg/o.jpg", "is_closed": false, "url": "https://www.yelp.com/biz/mcmahons-public-house-brooklyn?adjust_creative=a2JdNtFqB-C38ga_06BHvw&utm_campaign=yelp_api_v3&utm_medium=api_v3_business_search&utm_source=a2JdNtFqB-C38ga_06BHvw", "review_count": 191, "categories": [{"alias": "sportsbars", "title": "Sports Bars"}, {"alias": "irish", "title": "Irish"}], "rating": 4.0, "coordinates": {"latitude": 40.6816498, "longitude": -73.9765623}, "transactions": ["delivery"], "price": "$$", "location": {"address1": "39 5th Ave", "address2": "", "address3": "", "city": "Brooklyn", "zip_code": "11217", "country": "US", "state": "NY", "display_address": ["39 5th Ave", "Brooklyn, NY 11217"]}, "phone": "+17182304549", "display_phone": "(718) 230-4549", "distance": 159.24455183325438}, {"id": "EY5ot4Z1tgbDC-TZXIcRjQ", "alias": "putnams-pub-and-cooker-brooklyn", "name": "Putnam's Pub & Cooker", "image_url": "https://s3-media1.fl.yelpcdn.com/bphoto/RDR2KsoniyUM9D0D8PgWxw/o.jpg", "is_closed": false, "url": "https://www.yelp.com/biz/putnams-pub-and-cooker-brooklyn?adjust_creative=a2JdNtFqB-C38ga_06BHvw&utm_campaign=yelp_api_v3&utm_medium=api_v3_business_search&utm_source=a2JdNtFqB-C38ga_06BHvw", "review_count": 453, "categories": [{"alias": "gastropubs", "title": "Gastropubs"}, {"alias": "newamerican", "title": "American (New)"}, {"alias": "pubs", "title": "Pubs"}], "rating": 3.5, "coordinates": {"latitude": 40.693321, "longitude": -73.969045}, "transactions": ["delivery", "pickup"], "price": "$$", "location": {"address1": "419 Myrtle Ave", "address2": "", "address3": "", "city": "Brooklyn", "zip_code": "11205", "country": "US", "state": "NY", "display_address": ["419 Myrtle Ave", "Brooklyn, NY 11205"]}, "phone": "+13477992382", "display_phone": "(347) 799-2382", "distance": 1294.8121418615972}, {"id": "bnsC31tMVSEeKix6E2nlfg", "alias": "king-of-the-sea-brooklyn-3", "name": "King Of The Sea", "image_url": "https://s3-media3.fl.yelpcdn.com/bphoto/X-x0nAwXEPCHyd5wx7FtGA/o.jpg", "is_closed": false, "url": "https://www.yelp.com/biz/king-of-the-sea-brooklyn-3?adjust_creative=a2JdNtFqB-C38ga_06BHvw&utm_campaign=yelp_api_v3&utm_medium=api_v3_business_search&utm_source=a2JdNtFqB-C38ga_06BHvw", "review_count": 138, "categories": [{"alias": "seafood", "title": "Seafood"}, {"alias": "cocktailbars", "title": "Cocktail Bars"}], "rating": 4.0, "coordinates": {"latitude": 40.687, "longitude": -73.95479}, "transactions": ["delivery", "pickup"], "location": {"address1": "1102 Bedford Ave", "address2": null, "address3": "", "city": "Brooklyn", "zip_code": "11216", "country": "US", "state": "NY", "display_address": ["1102 Bedford Ave", "Brooklyn, NY 11216"]}, "phone": "+17187838000", "display_phone": "(718) 783-8000", "distance": 1782.632138501886}, {"id": "5DoCTugT9AF-P3VspApsyQ", "alias": "aita-trattoria-brooklyn", "name": "Aita Trattoria", "image_url": "https://s3-media4.fl.yelpcdn.com/bphoto/bsVDeYHmXc5qb1ZkzPd4Lw/o.jpg", "is_closed": false, "url": "https://www.yelp.com/biz/aita-trattoria-brooklyn?adjust_creative=a2JdNtFqB-C38ga_06BHvw&utm_campaign=yelp_api_v3&utm_medium=api_v3_business_search&utm_source=a2JdNtFqB-C38ga_06BHvw", "review_count": 186, "categories": [{"alias": "italian", "title": "Italian"}, {"alias": "wine_bars", "title": "Wine Bars"}, {"alias": "cocktailbars", "title": "Cocktail Bars"}], "rating": 4.0, "coordinates": {"latitude": 40.6712095108944, "longitude": -73.9579255586597}, "transactions": ["delivery", "pickup"], "price": "$$", "location": {"address1": "798A Franklin Ave", "address2": "", "address3": "", "city": "Brooklyn", "zip_code": "11238", "country": "US", "state": "NY", "display_address": ["798A Franklin Ave", "Brooklyn, NY 11238"]}, "phone": "+19179662670", "display_phone": "(917) 966-2670", "distance": 1936.408313095495}, {"id": "upJ9H46PS9mikHto0BNLDA", "alias": "11-hanover-greek-new-york", "name": "11 Hanover Greek", "image_url": "https://s3-media2.fl.yelpcdn.com/bphoto/gdMIY74_grP-vEo_WNwD4w/o.jpg", "is_closed": false, "url": "https://www.yelp.com/biz/11-hanover-greek-new-york?adjust_creative=a2JdNtFqB-C38ga_06BHvw&utm_campaign=yelp_api_v3&utm_medium=api_v3_business_search&utm_source=a2JdNtFqB-C38ga_06BHvw", "review_count": 121, "categories": [{"alias": "greek", "title": "Greek"}, {"alias": "seafood", "title": "Seafood"}, {"alias": "wine_bars", "title": "Wine Bars"}], "rating": 4.0, "coordinates": {"latitude": 40.705264, "longitude": -74.008854}, "transactions": ["delivery", "pickup"], "price": "$$$", "location": {"address1": "11 Hanover Sq", "address2": "", "address3": null, "city": "New York", "zip_code": "10005", "country": "US", "state": "NY", "display_address": ["11 Hanover Sq", "New York, NY 10005"]}, "phone": "+12127854000", "display_phone": "(212) 785-4000", "distance": 3788.8292539600557}, {"id": "VX9XPnQ3-k7vdGKLxu1qBw", "alias": "hunky-dory-brooklyn", "name": "Hunky Dory", "image_url": "https://s3-media3.fl.yelpcdn.com/bphoto/2kcrDA5dcurqszV90h5YMA/o.jpg", "is_closed": false, "url": "https://www.yelp.com/biz/hunky-dory-brooklyn?adjust_creative=a2JdNtFqB-C38ga_06BHvw&utm_campaign=yelp_api_v3&utm_medium=api_v3_business_search&utm_source=a2JdNtFqB-C38ga_06BHvw", "review_count": 95, "categories": [{"alias": "coffee", "title": "Coffee & Tea"}, {"alias": "cocktailbars", "title": "Cocktail Bars"}, {"alias": "comfortfood", "title": "Comfort Food"}], "rating": 4.0, "coordinates": {"latitude": 40.67308, "longitude": -73.95695}, "transactions": ["delivery"], "price": "$$", "location": {"address1": "747 Franklin Ave", "address2": "", "address3": null, "city": "Brooklyn", "zip_code": "11238", "country": "US", "state": "NY", "display_address": ["747 Franklin Ave", "Brooklyn, NY 11238"]}, "phone": "+15164182063", "display_phone": "(516) 418-2063", "distance": 1885.3118917183658}, {"id": "thUk6cIQKtW9YXbDbsZ81A", "alias": "littleneck-brooklyn", "name": "Littleneck", "image_url": "https://s3-media4.fl.yelpcdn.com/bphoto/d5xuuoHe4haeXstd6sXbkg/o.jpg", "is_closed": false, "url": "https://www.yelp.com/biz/littleneck-brooklyn?adjust_creative=a2JdNtFqB-C38ga_06BHvw&utm_campaign=yelp_api_v3&utm_medium=api_v3_business_search&utm_source=a2JdNtFqB-C38ga_06BHvw", "review_count": 299, "categories": [{"alias": "seafood", "title": "Seafood"}, {"alias": "breakfast_brunch", "title": "Breakfast & Brunch"}, {"alias": "cocktailbars", "title": "Cocktail Bars"}], "rating": 4.0, "coordinates": {"latitude": 40.6773052, "longitude": -73.9863991}, "transactions": ["delivery", "pickup"], "price": "$$", "location": {"address1": "288 3rd Ave", "address2": "", "address3": "", "city": "Brooklyn", "zip_code": "11215", "country": "US", "state": "NY", "display_address": ["288 3rd Ave", "Brooklyn, NY 11215"]}, "phone": "+17185221921", "display_phone": "(718) 522-1921", "distance": 1114.6884275116158}, {"id": "eyjeP9CJZ_gYgeJFP_vtpQ", "alias": "karasu-brooklyn-2", "name": "Karasu", "image_url": "https://s3-media1.fl.yelpcdn.com/bphoto/yWwgYzajAiQE9w7r6jw73Q/o.jpg", "is_closed": false, "url": "https://www.yelp.com/biz/karasu-brooklyn-2?adjust_creative=a2JdNtFqB-C38ga_06BHvw&utm_campaign=yelp_api_v3&utm_medium=api_v3_business_search&utm_source=a2JdNtFqB-C38ga_06BHvw", "review_count": 101, "categories": [{"alias": "japanese", "title": "Japanese"}, {"alias": "cocktailbars", "title": "Cocktail Bars"}], "rating": 4.0, "coordinates": {"latitude": 40.689411, "longitude": -73.973256}, "transactions": [], "price": "$$$", "location": {"address1": "166 Dekalb Ave", "address2": null, "address3": "Walter's", "city": "Brooklyn", "zip_code": "11217", "country": "US", "state": "NY", "display_address": ["166 Dekalb Ave", "Walter's", "Brooklyn, NY 11217"]}, "phone": "+13472234811", "display_phone": "(347) 223-4811", "distance": 763.4510940872675}, {"id": "QrwObD0lKQsrBlDZzgzewA", "alias": "d-antan-vino-naturale-and-cucina-italiana-brooklyn", "name": "D'Antan|vino Naturale & cucina Italiana", "image_url": "https://s3-media2.fl.yelpcdn.com/bphoto/rUAHaJMu7Xx9fwi-_hRYNw/o.jpg", "is_closed": false, "url": "https://www.yelp.com/biz/d-antan-vino-naturale-and-cucina-italiana-brooklyn?adjust_creative=a2JdNtFqB-C38ga_06BHvw&utm_campaign=yelp_api_v3&utm_medium=api_v3_business_search&utm_source=a2JdNtFqB-C38ga_06BHvw", "review_count": 36, "categories": [{"alias": "italian", "title": "Italian"}, {"alias": "wine_bars", "title": "Wine Bars"}], "rating": 4.5, "coordinates": {"latitude": 40.677268, "longitude": -73.958901}, "transactions": [], "location": {"address1": "858 Bergen St", "address2": "", "address3": null, "city": "Brooklyn", "zip_code": "11238", "country": "US", "state": "NY", "display_address": ["858 Bergen St", "Brooklyn, NY 11238"]}, "phone": "+13473659674", "display_phone": "(347) 365-9674", "distance": 1500.8088789753335}, {"id": "hvMbN42EaHlZoHMS3degLg", "alias": "sweet-talk-brooklyn", "name": "Sweet Talk", "image_url": "https://s3-media1.fl.yelpcdn.com/bphoto/6aXGfu845w3VNjEvQpYTUw/o.jpg", "is_closed": false, "url": "https://www.yelp.com/biz/sweet-talk-brooklyn?adjust_creative=a2JdNtFqB-C38ga_06BHvw&utm_campaign=yelp_api_v3&utm_medium=api_v3_business_search&utm_source=a2JdNtFqB-C38ga_06BHvw", "review_count": 236, "categories": [{"alias": "cocktailbars", "title": "Cocktail Bars"}, {"alias": "hawaiian", "title": "Hawaiian"}, {"alias": "tacos", "title": "Tacos"}], "rating": 4.0, "coordinates": {"latitude": 40.6712112426758, "longitude": -73.9909439086914}, "transactions": ["delivery", "pickup"], "price": "$$", "location": {"address1": "457 3rd Ave", "address2": "", "address3": "", "city": "Brooklyn", "zip_code": "11215", "country": "US", "state": "NY", "display_address": ["457 3rd Ave", "Brooklyn, NY 11215"]}, "phone": "+17184993400", "display_phone": "(718) 499-3400", "distance": 1837.8808307723664}, {"id": "AMXOlur-z5DXBeyri9b-Hg", "alias": "black-horse-pub-brooklyn-2", "name": "Black Horse Pub", "image_url": "https://s3-media1.fl.yelpcdn.com/bphoto/ckj46OBiqH7--J6ZBZvUbQ/o.jpg", "is_closed": false, "url": "https://www.yelp.com/biz/black-horse-pub-brooklyn-2?adjust_creative=a2JdNtFqB-C38ga_06BHvw&utm_campaign=yelp_api_v3&utm_medium=api_v3_business_search&utm_source=a2JdNtFqB-C38ga_06BHvw", "review_count": 202, "categories": [{"alias": "pubs", "title": "Pubs"}, {"alias": "newamerican", "title": "American (New)"}], "rating": 4.0, "coordinates": {"latitude": 40.66518, "longitude": -73.989997}, "transactions": ["delivery"], "price": "$$", "location": {"address1": "568 5th Ave", "address2": "", "address3": "", "city": "Brooklyn", "zip_code": "11215", "country": "US", "state": "NY", "display_address": ["568 5th Ave", "Brooklyn, NY 11215"]}, "phone": "+17187881975", "display_phone": "(718) 788-1975", "distance": 2308.679520774586}, {"id": "tHW3EwGwai1AiWQ6ZD-wjg", "alias": "industry-kitchen-new-york", "name": "Industry Kitchen", "image_url": "https://s3-media1.fl.yelpcdn.com/bphoto/AD5JNSSWmEas2aw0S8iN4g/o.jpg", "is_closed": false, "url": "https://www.yelp.com/biz/industry-kitchen-new-york?adjust_creative=a2JdNtFqB-C38ga_06BHvw&utm_campaign=yelp_api_v3&utm_medium=api_v3_business_search&utm_source=a2JdNtFqB-C38ga_06BHvw", "review_count": 681, "categories": [{"alias": "tradamerican", "title": "American (Traditional)"}, {"alias": "breakfast_brunch", "title": "Breakfast & Brunch"}, {"alias": "cocktailbars", "title": "Cocktail Bars"}], "rating": 3.5, "coordinates": {"latitude": 40.7049434740873, "longitude": -74.0048825740814}, "transactions": ["delivery", "pickup"], "price": "$$", "location": {"address1": "70 South St", "address2": "", "address3": "", "city": "New York", "zip_code": "10005", "country": "US", "state": "NY", "display_address": ["70 South St", "New York, NY 10005"]}, "phone": "+12124879600", "display_phone": "(212) 487-9600", "distance": 3520.0700539773106}, {"id": "LDwxXfapMw6xNbTF0YDFaQ", "alias": "brooklyn-public-house-brooklyn", "name": "Brooklyn Public House", "image_url": "https://s3-media1.fl.yelpcdn.com/bphoto/FDWK4uHA-a8xhmMDNzXJ-A/o.jpg", "is_closed": false, "url": "https://www.yelp.com/biz/brooklyn-public-house-brooklyn?adjust_creative=a2JdNtFqB-C38ga_06BHvw&utm_campaign=yelp_api_v3&utm_medium=api_v3_business_search&utm_source=a2JdNtFqB-C38ga_06BHvw", "review_count": 324, "categories": [{"alias": "pubs", "title": "Pubs"}, {"alias": "tradamerican", "title": "American (Traditional)"}], "rating": 3.5, "coordinates": {"latitude": 40.68958, "longitude": -73.96939}, "transactions": ["delivery", "pickup"], "price": "$$", "location": {"address1": "247 Dekalb Ave", "address2": "", "address3": "", "city": "Brooklyn", "zip_code": "11205", "country": "US", "state": "NY", "display_address": ["247 Dekalb Ave", "Brooklyn, NY 11205"]}, "phone": "+13472278976", "display_phone": "(347) 227-8976", "distance": 917.4722526633817}, {"id": "2270Iy6WQskMawb4iETO8w", "alias": "loki-bar-park-slope-6", "name": "Loki Bar", "image_url": "https://s3-media1.fl.yelpcdn.com/bphoto/1H61whUfaVfiePnKVqW5jA/o.jpg", "is_closed": false, "url": "https://www.yelp.com/biz/loki-bar-park-slope-6?adjust_creative=a2JdNtFqB-C38ga_06BHvw&utm_campaign=yelp_api_v3&utm_medium=api_v3_business_search&utm_source=a2JdNtFqB-C38ga_06BHvw", "review_count": 172, "categories": [{"alias": "newamerican", "title": "American (New)"}, {"alias": "cocktailbars", "title": "Cocktail Bars"}, {"alias": "beerbar", "title": "Beer Bar"}], "rating": 4.0, "coordinates": {"latitude": 40.673937, "longitude": -73.983064}, "transactions": ["delivery", "pickup"], "price": "$$", "location": {"address1": "341 2nd St", "address2": "", "address3": "", "city": "Park Slope", "zip_code": "11215", "country": "US", "state": "NY", "display_address": ["341 2nd St", "Park Slope, NY 11215"]}, "phone": "+17189659600", "display_phone": "(718) 965-9600", "distance": 1197.3911953643071}, {"id": "_nVQz6zVQq-T78VLu2nh5Q", "alias": "tillys-bklyn-brooklyn", "name": "Tilly's Bklyn", "image_url": "https://s3-media2.fl.yelpcdn.com/bphoto/8xVfm2sz44FNfrYv_O71lw/o.jpg", "is_closed": false, "url": "https://www.yelp.com/biz/tillys-bklyn-brooklyn?adjust_creative=a2JdNtFqB-C38ga_06BHvw&utm_campaign=yelp_api_v3&utm_medium=api_v3_business_search&utm_source=a2JdNtFqB-C38ga_06BHvw", "review_count": 156, "categories": [{"alias": "pizza", "title": "Pizza"}, {"alias": "caribbean", "title": "Caribbean"}, {"alias": "cocktailbars", "title": "Cocktail Bars"}], "rating": 4.0, "coordinates": {"latitude": 40.681525, "longitude": -73.953258}, "transactions": ["delivery", "restaurant_reservation", "pickup"], "price": "$$", "location": {"address1": "1223 Bedford Ave", "address2": "", "address3": null, "city": "Brooklyn", "zip_code": "11216", "country": "US", "state": "NY", "display_address": ["1223 Bedford Ave", "Brooklyn, NY 11216"]}, "phone": "+13474251251", "display_phone": "(347) 425-1251", "distance": 1851.4014324948917}, {"id": "UOhnGQBzf2ISTHM4Bj5Gvw", "alias": "the-wing-bar-brooklyn", "name": "The Wing Bar", "image_url": "https://s3-media4.fl.yelpcdn.com/bphoto/JX06J56hbTY46UxJPayriQ/o.jpg", "is_closed": false, "url": "https://www.yelp.com/biz/the-wing-bar-brooklyn?adjust_creative=a2JdNtFqB-C38ga_06BHvw&utm_campaign=yelp_api_v3&utm_medium=api_v3_business_search&utm_source=a2JdNtFqB-C38ga_06BHvw", "review_count": 349, "categories": [{"alias": "chicken_wings", "title": "Chicken Wings"}, {"alias": "burgers", "title": "Burgers"}, {"alias": "sportsbars", "title": "Sports Bars"}], "rating": 3.5, "coordinates": {"latitude": 40.6825199, "longitude": -73.99318}, "transactions": ["delivery", "pickup"], "price": "$$", "location": {"address1": "275 Smith St", "address2": "", "address3": "", "city": "Brooklyn", "zip_code": "11231", "country": "US", "state": "NY", "display_address": ["275 Smith St", "Brooklyn, NY 11231"]}, "phone": "+17182372728", "display_phone": "(718) 237-2728", "distance": 1509.9176278325926}, {"id": "2BJCPzGoWnOFgDbvoHi1Tw", "alias": "ginos-trattoria-brooklyn-2", "name": "Gino's Trattoria", "image_url": "https://s3-media4.fl.yelpcdn.com/bphoto/aQ1zypsoIx82QgACeJq2Lg/o.jpg", "is_closed": false, "url": "https://www.yelp.com/biz/ginos-trattoria-brooklyn-2?adjust_creative=a2JdNtFqB-C38ga_06BHvw&utm_campaign=yelp_api_v3&utm_medium=api_v3_business_search&utm_source=a2JdNtFqB-C38ga_06BHvw", "review_count": 240, "categories": [{"alias": "italian", "title": "Italian"}, {"alias": "pizza", "title": "Pizza"}, {"alias": "wine_bars", "title": "Wine Bars"}], "rating": 4.0, "coordinates": {"latitude": 40.6605221493743, "longitude": -73.9606475830078}, "transactions": ["delivery", "pickup"], "price": "$$", "location": {"address1": "548 Flatbush Ave", "address2": "", "address3": "", "city": "Brooklyn", "zip_code": "11225", "country": "US", "state": "NY", "display_address": ["548 Flatbush Ave", "Brooklyn, NY 11225"]}, "phone": "+13476635452", "display_phone": "(347) 663-5452", "distance": 2751.642577769536}, {"id": "f7g3GhoQs9nQVTJEL2p48Q", "alias": "gran-electrica-brooklyn-3", "name": "Gran Electrica", "image_url": "https://s3-media2.fl.yelpcdn.com/bphoto/vltMa2sCZfwlSMNxMtFd4w/o.jpg", "is_closed": false, "url": "https://www.yelp.com/biz/gran-electrica-brooklyn-3?adjust_creative=a2JdNtFqB-C38ga_06BHvw&utm_campaign=yelp_api_v3&utm_medium=api_v3_business_search&utm_source=a2JdNtFqB-C38ga_06BHvw", "review_count": 495, "categories": [{"alias": "mexican", "title": "Mexican"}, {"alias": "breakfast_brunch", "title": "Breakfast & Brunch"}, {"alias": "cocktailbars", "title": "Cocktail Bars"}], "rating": 3.5, "coordinates": {"latitude": 40.7027, "longitude": -73.99314}, "transactions": ["delivery", "pickup"], "price": "$$", "location": {"address1": "5 Front St", "address2": "", "address3": "", "city": "Brooklyn", "zip_code": "11201", "country": "US", "state": "NY", "display_address": ["5 Front St", "Brooklyn, NY 11201"]}, "phone": "+17188522700", "display_phone": "(718) 852-2700", "distance": 2690.375517855167}, {"id": "KfJdtE6Aj-MTGtBw-2Imyw", "alias": "bk9-brooklyn-2", "name": "BK9", "image_url": "https://s3-media2.fl.yelpcdn.com/bphoto/lSiwKFCEzQ9xXNj2WHv7Sg/o.jpg", "is_closed": false, "url": "https://www.yelp.com/biz/bk9-brooklyn-2?adjust_creative=a2JdNtFqB-C38ga_06BHvw&utm_campaign=yelp_api_v3&utm_medium=api_v3_business_search&utm_source=a2JdNtFqB-C38ga_06BHvw", "review_count": 456, "categories": [{"alias": "caribbean", "title": "Caribbean"}, {"alias": "cocktailbars", "title": "Cocktail Bars"}], "rating": 3.5, "coordinates": {"latitude": 40.681179, "longitude": -73.977388}, "transactions": ["delivery", "pickup"], "price": "$$", "location": {"address1": "62 5th Ave", "address2": "", "address3": "", "city": "Brooklyn", "zip_code": "11217", "country": "US", "state": "NY", "display_address": ["62 5th Ave", "Brooklyn, NY 11217"]}, "phone": "+17187892176", "display_phone": "(718) 789-2176", "distance": 245.8102887074761}, {"id": "ttE1oTYNRzK51h8FyIX36g", "alias": "underdog-new-york-2", "name": "Underdog", "image_url": "https://s3-media4.fl.yelpcdn.com/bphoto/OAqSo4tnE9738m5RKZ5tYA/o.jpg", "is_closed": false, "url": "https://www.yelp.com/biz/underdog-new-york-2?adjust_creative=a2JdNtFqB-C38ga_06BHvw&utm_campaign=yelp_api_v3&utm_medium=api_v3_business_search&utm_source=a2JdNtFqB-C38ga_06BHvw", "review_count": 329, "categories": [{"alias": "burgers", "title": "Burgers"}, {"alias": "hotdog", "title": "Hot Dogs"}, {"alias": "cocktailbars", "title": "Cocktail Bars"}], "rating": 3.5, "coordinates": {"latitude": 40.7044362276793, "longitude": -74.0102791786194}, "transactions": ["delivery", "pickup"], "price": "$$", "location": {"address1": "55 Stone St", "address2": "", "address3": "", "city": "New York", "zip_code": "10004", "country": "US", "state": "NY", "display_address": ["55 Stone St", "New York, NY 10004"]}, "phone": "+19174090251", "display_phone": "(917) 409-0251", "distance": 3826.449592605854}, {"id": "zBButa4blgIhHru9B2qMrw", "alias": "café-paulette-brooklyn-4", "name": "Café Paulette", "image_url": "https://s3-media2.fl.yelpcdn.com/bphoto/Nsep0DB3ssrsfP955duj_A/o.jpg", "is_closed": false, "url": "https://www.yelp.com/biz/caf%C3%A9-paulette-brooklyn-4?adjust_creative=a2JdNtFqB-C38ga_06BHvw&utm_campaign=yelp_api_v3&utm_medium=api_v3_business_search&utm_source=a2JdNtFqB-C38ga_06BHvw", "review_count": 200, "categories": [{"alias": "french", "title": "French"}, {"alias": "breakfast_brunch", "title": "Breakfast & Brunch"}, {"alias": "wine_bars", "title": "Wine Bars"}], "rating": 4.0, "coordinates": {"latitude": 40.6896094060701, "longitude": -73.975917359407}, "transactions": ["delivery", "pickup"], "price": "$$", "location": {"address1": "1 S Elliott Pl", "address2": "", "address3": "", "city": "Brooklyn", "zip_code": "11217", "country": "US", "state": "NY", "display_address": ["1 S Elliott Pl", "Brooklyn, NY 11217"]}, "phone": "+17188528582", "display_phone": "(718) 852-8582", "distance": 774.8289999098556}, {"id": "mJeKLz8GC4x6HGWNun1CNA", "alias": "bar-bête-brooklyn-2", "name": "Bar Bête", "image_url": "https://s3-media1.fl.yelpcdn.com/bphoto/sqTOo_n5UZE7804hqvUc7w/o.jpg", "is_closed": false, "url": "https://www.yelp.com/biz/bar-b%C3%AAte-brooklyn-2?adjust_creative=a2JdNtFqB-C38ga_06BHvw&utm_campaign=yelp_api_v3&utm_medium=api_v3_business_search&utm_source=a2JdNtFqB-C38ga_06BHvw", "review_count": 29, "categories": [{"alias": "french", "title": "French"}, {"alias": "venues", "title": "Venues & Event Spaces"}, {"alias": "cocktailbars", "title": "Cocktail Bars"}], "rating": 4.5, "coordinates": {"latitude": 40.6830415993956, "longitude": -73.9928337145761}, "transactions": ["delivery"], "location": {"address1": "263 Smith St", "address2": "", "address3": null, "city": "Brooklyn", "zip_code": "11231", "country": "US", "state": "NY", "display_address": ["263 Smith St", "Brooklyn, NY 11231"]}, "phone": "+13478449950", "display_phone": "(347) 844-9950", "distance": 1485.410256318365}, {"id": "3qf3FLXxVdX3Wz5F_rTeog", "alias": "bar-tabac-brooklyn", "name": "Bar Tabac", "image_url": "https://s3-media2.fl.yelpcdn.com/bphoto/plUwsxHY4kuHteoij9CH4w/o.jpg", "is_closed": false, "url": "https://www.yelp.com/biz/bar-tabac-brooklyn?adjust_creative=a2JdNtFqB-C38ga_06BHvw&utm_campaign=yelp_api_v3&utm_medium=api_v3_business_search&utm_source=a2JdNtFqB-C38ga_06BHvw", "review_count": 601, "categories": [{"alias": "french", "title": "French"}, {"alias": "breakfast_brunch", "title": "Breakfast & Brunch"}, {"alias": "cocktailbars", "title": "Cocktail Bars"}], "rating": 3.5, "coordinates": {"latitude": 40.6874173, "longitude": -73.9902407}, "transactions": ["delivery", "pickup"], "price": "$$", "location": {"address1": "128 Smith St", "address2": "", "address3": "", "city": "Brooklyn", "zip_code": "11201", "country": "US", "state": "NY", "display_address": ["128 Smith St", "Brooklyn, NY 11201"]}, "phone": "+17189230918", "display_phone": "(718) 923-0918", "distance": 1372.137486126537}, {"id": "g0ELjSBBNR3YMDa1I8l1AQ", "alias": "99-rogers-crown-heights", "name": "99 Rogers", "image_url": "https://s3-media2.fl.yelpcdn.com/bphoto/2Ztqa_oJdouLwaxPWR3q1g/o.jpg", "is_closed": false, "url": "https://www.yelp.com/biz/99-rogers-crown-heights?adjust_creative=a2JdNtFqB-C38ga_06BHvw&utm_campaign=yelp_api_v3&utm_medium=api_v3_business_search&utm_source=a2JdNtFqB-C38ga_06BHvw", "review_count": 110, "categories": [{"alias": "newamerican", "title": "American (New)"}, {"alias": "breakfast_brunch", "title": "Breakfast & Brunch"}, {"alias": "sportsbars", "title": "Sports Bars"}], "rating": 4.0, "coordinates": {"latitude": 40.67427, "longitude": -73.95268}, "transactions": ["delivery"], "price": "$$", "location": {"address1": "99 Rogers Ave", "address2": "", "address3": "", "city": "Crown Heights", "zip_code": "11216", "country": "US", "state": "NY", "display_address": ["99 Rogers Ave", "Crown Heights, NY 11216"]}, "phone": "+17187084933", "display_phone": "(718) 708-4933", "distance": 2111.03052336475}, {"id": "WoAvunLY0_L0ix8Vgit8gQ", "alias": "the-tuck-room-new-york", "name": "The Tuck Room", "image_url": "https://s3-media1.fl.yelpcdn.com/bphoto/gH9DAaCG0aBpaZjwL4nnig/o.jpg", "is_closed": false, "url": "https://www.yelp.com/biz/the-tuck-room-new-york?adjust_creative=a2JdNtFqB-C38ga_06BHvw&utm_campaign=yelp_api_v3&utm_medium=api_v3_business_search&utm_source=a2JdNtFqB-C38ga_06BHvw", "review_count": 265, "categories": [{"alias": "tapasmallplates", "title": "Tapas/Small Plates"}, {"alias": "newamerican", "title": "American (New)"}, {"alias": "cocktailbars", "title": "Cocktail Bars"}], "rating": 3.5, "coordinates": {"latitude": 40.70654, "longitude": -74.00325}, "transactions": ["delivery"], "price": "$$", "location": {"address1": "11 Fulton St", "address2": "", "address3": null, "city": "New York", "zip_code": "10038", "country": "US", "state": "NY", "display_address": ["11 Fulton St", "New York, NY 10038"]}, "phone": "+12127768273", "display_phone": "(212) 776-8273", "distance": 3555.8571584415618}, {"id": "4XT1vFeDOa9nWYFh36E8fQ", "alias": "casa-ora-brooklyn", "name": "Casa Ora", "image_url": "https://s3-media2.fl.yelpcdn.com/bphoto/sVUvDYdPi6OxjsNQH0U0wQ/o.jpg", "is_closed": false, "url": "https://www.yelp.com/biz/casa-ora-brooklyn?adjust_creative=a2JdNtFqB-C38ga_06BHvw&utm_campaign=yelp_api_v3&utm_medium=api_v3_business_search&utm_source=a2JdNtFqB-C38ga_06BHvw", "review_count": 71, "categories": [{"alias": "venezuelan", "title": "Venezuelan"}, {"alias": "cocktailbars", "title": "Cocktail Bars"}], "rating": 4.0, "coordinates": {"latitude": 40.707943, "longitude": -73.9437707}, "transactions": ["delivery", "pickup"], "location": {"address1": "148 Meserole St", "address2": null, "address3": "", "city": "Brooklyn", "zip_code": "11206", "country": "US", "state": "NY", "display_address": ["148 Meserole St", "Brooklyn, NY 11206"]}, "phone": "+17182233116", "display_phone": "(718) 223-3116", "distance": 3864.590239841775}, {"id": "W2sR69xVLzMI_CXJXk-PZg", "alias": "henry-public-brooklyn", "name": "Henry Public", "image_url": "https://s3-media1.fl.yelpcdn.com/bphoto/rIsT5hSSJeqDPDuf4hA6_g/o.jpg", "is_closed": false, "url": "https://www.yelp.com/biz/henry-public-brooklyn?adjust_creative=a2JdNtFqB-C38ga_06BHvw&utm_campaign=yelp_api_v3&utm_medium=api_v3_business_search&utm_source=a2JdNtFqB-C38ga_06BHvw", "review_count": 284, "categories": [{"alias": "gastropubs", "title": "Gastropubs"}, {"alias": "burgers", "title": "Burgers"}, {"alias": "cocktailbars", "title": "Cocktail Bars"}], "rating": 3.5, "coordinates": {"latitude": 40.690242, "longitude": -73.996172}, "transactions": ["delivery", "pickup"], "price": "$$", "location": {"address1": "329 Henry St", "address2": "", "address3": "", "city": "Brooklyn", "zip_code": "11201", "country": "US", "state": "NY", "display_address": ["329 Henry St", "Brooklyn, NY 11201"]}, "phone": "+17188528630", "display_phone": "(718) 852-8630", "distance": 1957.056554995315}, {"id": "zee3qxLz2jHJumDEL6EitA", "alias": "sidecar-brooklyn-3", "name": "Sidecar", "image_url": "https://s3-media3.fl.yelpcdn.com/bphoto/eqBZJku1-KaA8P6VLlh5Mw/o.jpg", "is_closed": false, "url": "https://www.yelp.com/biz/sidecar-brooklyn-3?adjust_creative=a2JdNtFqB-C38ga_06BHvw&utm_campaign=yelp_api_v3&utm_medium=api_v3_business_search&utm_source=a2JdNtFqB-C38ga_06BHvw", "review_count": 454, "categories": [{"alias": "newamerican", "title": "American (New)"}, {"alias": "cocktailbars", "title": "Cocktail Bars"}, {"alias": "breakfast_brunch", "title": "Breakfast & Brunch"}], "rating": 3.5, "coordinates": {"latitude": 40.665421, "longitude": -73.989748}, "transactions": ["delivery", "pickup"], "price": "$$", "location": {"address1": "560 5th Ave", "address2": "", "address3": "", "city": "Brooklyn", "zip_code": "11215", "country": "US", "state": "NY", "display_address": ["560 5th Ave", "Brooklyn, NY 11215"]}, "phone": "+17183690077", "display_phone": "(718) 369-0077", "distance": 2274.8528793189384}, {"id": "pGZ4AOzVlhveJi6WJ1Xz6g", "alias": "bareburger-park-slope-brooklyn", "name": "Bareburger - Park Slope", "image_url": "https://s3-media3.fl.yelpcdn.com/bphoto/ni6wFCGR30XvuRcedd1SrQ/o.jpg", "is_closed": false, "url": "https://www.yelp.com/biz/bareburger-park-slope-brooklyn?adjust_creative=a2JdNtFqB-C38ga_06BHvw&utm_campaign=yelp_api_v3&utm_medium=api_v3_business_search&utm_source=a2JdNtFqB-C38ga_06BHvw", "review_count": 495, "categories": [{"alias": "burgers", "title": "Burgers"}, {"alias": "newamerican", "title": "American (New)"}, {"alias": "cocktailbars", "title": "Cocktail Bars"}], "rating": 3.5, "coordinates": {"latitude": 40.67188, "longitude": -73.97761}, "transactions": ["delivery", "pickup"], "price": "$$", "location": {"address1": "170 7th Ave", "address2": "", "address3": "", "city": "Brooklyn", "zip_code": "11215", "country": "US", "state": "NY", "display_address": ["170 7th Ave", "Brooklyn, NY 11215"]}, "phone": "+17187682273", "display_phone": "(718) 768-2273", "distance": 1213.7211597041605}, {"id": "2Mia4J1QKd247oh2IkuEdg", "alias": "the-cauldron-nyc-new-york", "name": "The Cauldron NYC", "image_url": "https://s3-media2.fl.yelpcdn.com/bphoto/ApDXlNA0MdnrdIC_ow7Wvg/o.jpg", "is_closed": false, "url": "https://www.yelp.com/biz/the-cauldron-nyc-new-york?adjust_creative=a2JdNtFqB-C38ga_06BHvw&utm_campaign=yelp_api_v3&utm_medium=api_v3_business_search&utm_source=a2JdNtFqB-C38ga_06BHvw", "review_count": 206, "categories": [{"alias": "cocktailbars", "title": "Cocktail Bars"}, {"alias": "gastropubs", "title": "Gastropubs"}], "rating": 3.5, "coordinates": {"latitude": 40.7043756, "longitude": -74.0105259}, "transactions": ["delivery", "pickup"], "price": "$$", "location": {"address1": "47 Stone St", "address2": null, "address3": null, "city": "New York", "zip_code": "10004", "country": "US", "state": "NY", "display_address": ["47 Stone St", "New York, NY 10004"]}, "phone": "+19176351960", "display_phone": "(917) 635-1960", "distance": 3832.4510850761344}, {"id": "IzpoR2NGsTJPgpAIYKq4Rg", "alias": "the-graham-brooklyn", "name": "The Graham", "image_url": "https://s3-media1.fl.yelpcdn.com/bphoto/iV3enzwYhu9LNnwS7kquDw/o.jpg", "is_closed": false, "url": "https://www.yelp.com/biz/the-graham-brooklyn?adjust_creative=a2JdNtFqB-C38ga_06BHvw&utm_campaign=yelp_api_v3&utm_medium=api_v3_business_search&utm_source=a2JdNtFqB-C38ga_06BHvw", "review_count": 88, "categories": [{"alias": "cocktailbars", "title": "Cocktail Bars"}, {"alias": "desserts", "title": "Desserts"}, {"alias": "sandwiches", "title": "Sandwiches"}], "rating": 4.0, "coordinates": {"latitude": 40.7082405, "longitude": -73.9431381}, "transactions": ["delivery", "pickup"], "price": "$", "location": {"address1": "151 Meserole St", "address2": "", "address3": "", "city": "Brooklyn", "zip_code": "11206", "country": "US", "state": "NY", "display_address": ["151 Meserole St", "Brooklyn, NY 11206"]}, "phone": "+17183884682", "display_phone": "(718) 388-4682", "distance": 3923.049046323045}, {"id": "n-59KQvfQhURg6WBqxXEQw", "alias": "grand-army-brooklyn", "name": "Grand Army", "image_url": "https://s3-media4.fl.yelpcdn.com/bphoto/EFpXQ_BiVGXDtZO7Ky8MCA/o.jpg", "is_closed": false, "url": "https://www.yelp.com/biz/grand-army-brooklyn?adjust_creative=a2JdNtFqB-C38ga_06BHvw&utm_campaign=yelp_api_v3&utm_medium=api_v3_business_search&utm_source=a2JdNtFqB-C38ga_06BHvw", "review_count": 197, "categories": [{"alias": "seafood", "title": "Seafood"}, {"alias": "cocktailbars", "title": "Cocktail Bars"}], "rating": 3.5, "coordinates": {"latitude": 40.688182, "longitude": -73.986572}, "transactions": [], "price": "$$", "location": {"address1": "336 State St", "address2": "", "address3": "", "city": "Brooklyn", "zip_code": "11201", "country": "US", "state": "NY", "display_address": ["336 State St", "Brooklyn, NY 11201"]}, "phone": "+17186431503", "display_phone": "(718) 643-1503", "distance": 1134.7270504441517}, {"id": "9x0NxWf0X1V0ieL8uJVXBg", "alias": "brooklyn-heights-wine-bar-and-kitchen-brooklyn", "name": "Brooklyn Heights Wine Bar & Kitchen", "image_url": "https://s3-media2.fl.yelpcdn.com/bphoto/vB0uM8PJM9wjI9p2b3EV4g/o.jpg", "is_closed": false, "url": "https://www.yelp.com/biz/brooklyn-heights-wine-bar-and-kitchen-brooklyn?adjust_creative=a2JdNtFqB-C38ga_06BHvw&utm_campaign=yelp_api_v3&utm_medium=api_v3_business_search&utm_source=a2JdNtFqB-C38ga_06BHvw", "review_count": 201, "categories": [{"alias": "wine_bars", "title": "Wine Bars"}, {"alias": "cocktailbars", "title": "Cocktail Bars"}, {"alias": "newamerican", "title": "American (New)"}], "rating": 3.5, "coordinates": {"latitude": 40.6995613555, "longitude": -73.9922250453}, "transactions": ["delivery"], "price": "$$", "location": {"address1": "50 Henry St", "address2": "", "address3": "", "city": "Brooklyn", "zip_code": "11201", "country": "US", "state": "NY", "display_address": ["50 Henry St", "Brooklyn, NY 11201"]}, "phone": "+17188555595", "display_phone": "(718) 855-5595", "distance": 2363.4456997344664}, {"id": "CkKTdw-lxGX8H3L0ppr6Zg", "alias": "black-forest-brooklyn-brooklyn", "name": "Black Forest Brooklyn", "image_url": "https://s3-media1.fl.yelpcdn.com/bphoto/OyqXY8ydqNNx-AzZWhordA/o.jpg", "is_closed": false, "url": "https://www.yelp.com/biz/black-forest-brooklyn-brooklyn?adjust_creative=a2JdNtFqB-C38ga_06BHvw&utm_campaign=yelp_api_v3&utm_medium=api_v3_business_search&utm_source=a2JdNtFqB-C38ga_06BHvw", "review_count": 406, "categories": [{"alias": "german", "title": "German"}, {"alias": "wine_bars", "title": "Wine Bars"}, {"alias": "cocktailbars", "title": "Cocktail Bars"}], "rating": 3.5, "coordinates": {"latitude": 40.6867553, "longitude": -73.9750998}, "transactions": ["delivery", "pickup"], "price": "$$", "location": {"address1": "733 Fulton St", "address2": "", "address3": "", "city": "Brooklyn", "zip_code": "11217", "country": "US", "state": "NY", "display_address": ["733 Fulton St", "Brooklyn, NY 11217"]}, "phone": "+17189350300", "display_phone": "(718) 935-0300", "distance": 455.3872650157732}, {"id": "TuGFxspYWd0smugwUeN9sA", "alias": "a-gusto-thai-bistro-brooklyn", "name": "A Gusto Thai Bistro", "image_url": "https://s3-media3.fl.yelpcdn.com/bphoto/sFBiGJ0e2oPanbECLRHUFw/o.jpg", "is_closed": false, "url": "https://www.yelp.com/biz/a-gusto-thai-bistro-brooklyn?adjust_creative=a2JdNtFqB-C38ga_06BHvw&utm_campaign=yelp_api_v3&utm_medium=api_v3_business_search&utm_source=a2JdNtFqB-C38ga_06BHvw", "review_count": 138, "categories": [{"alias": "cafes", "title": "Cafes"}, {"alias": "wine_bars", "title": "Wine Bars"}, {"alias": "thai", "title": "Thai"}], "rating": 3.5, "coordinates": {"latitude": 40.6798609, "longitude": -73.942852}, "transactions": ["delivery", "pickup"], "price": "$$", "location": {"address1": "1450 Fulton St", "address2": "", "address3": "", "city": "Brooklyn", "zip_code": "11216", "country": "US", "state": "NY", "display_address": ["1450 Fulton St", "Brooklyn, NY 11216"]}, "phone": "+13475339961", "display_phone": "(347) 533-9961", "distance": 2747.529671890391}, {"id": "qpD22cY8CSXLT2qujiJtqw", "alias": "the-full-shilling-new-york", "name": "The Full Shilling", "image_url": "https://s3-media4.fl.yelpcdn.com/bphoto/QIY7ZybjSKBYancNX0Qc5g/o.jpg", "is_closed": false, "url": "https://www.yelp.com/biz/the-full-shilling-new-york?adjust_creative=a2JdNtFqB-C38ga_06BHvw&utm_campaign=yelp_api_v3&utm_medium=api_v3_business_search&utm_source=a2JdNtFqB-C38ga_06BHvw", "review_count": 89, "categories": [{"alias": "pubs", "title": "Pubs"}, {"alias": "irish", "title": "Irish"}], "rating": 4.0, "coordinates": {"latitude": 40.705722, "longitude": -74.007469}, "transactions": ["delivery", "pickup"], "price": "$$", "location": {"address1": "160 Pearl St", "address2": "", "address3": "", "city": "New York", "zip_code": "10005", "country": "US", "state": "NY", "display_address": ["160 Pearl St", "New York, NY 10005"]}, "phone": "+12124223855", "display_phone": "(212) 422-3855", "distance": 3736.2905223621437}, {"id": "28q-EaDlKgYNeaF7-LXXqg", "alias": "lavender-lake-brooklyn", "name": "Lavender Lake", "image_url": "https://s3-media4.fl.yelpcdn.com/bphoto/xc720iC989jRcGHjWhMaqQ/o.jpg", "is_closed": false, "url": "https://www.yelp.com/biz/lavender-lake-brooklyn?adjust_creative=a2JdNtFqB-C38ga_06BHvw&utm_campaign=yelp_api_v3&utm_medium=api_v3_business_search&utm_source=a2JdNtFqB-C38ga_06BHvw", "review_count": 277, "categories": [{"alias": "gastropubs", "title": "Gastropubs"}, {"alias": "pubs", "title": "Pubs"}, {"alias": "cocktailbars", "title": "Cocktail Bars"}], "rating": 3.5, "coordinates": {"latitude": 40.6786075, "longitude": -73.9901923}, "transactions": ["delivery", "pickup"], "price": "$$", "location": {"address1": "383 Carroll St", "address2": null, "address3": "", "city": "Brooklyn", "zip_code": "11231", "country": "US", "state": "NY", "display_address": ["383 Carroll St", "Brooklyn, NY 11231"]}, "phone": "+13477992154", "display_phone": "(347) 799-2154", "distance": 1340.1867235017519}, {"id": "CqtT8rPaSmrRClUBbqsCFA", "alias": "seamore-s-brooklyn-2", "name": "Seamore’s", "image_url": "https://s3-media4.fl.yelpcdn.com/bphoto/XXwEV9O_w7dgfHi7_1YXqw/o.jpg", "is_closed": false, "url": "https://www.yelp.com/biz/seamore-s-brooklyn-2?adjust_creative=a2JdNtFqB-C38ga_06BHvw&utm_campaign=yelp_api_v3&utm_medium=api_v3_business_search&utm_source=a2JdNtFqB-C38ga_06BHvw", "review_count": 118, "categories": [{"alias": "seafood", "title": "Seafood"}, {"alias": "fishnchips", "title": "Fish & Chips"}, {"alias": "cocktailbars", "title": "Cocktail Bars"}], "rating": 3.5, "coordinates": {"latitude": 40.7032, "longitude": -73.99145}, "transactions": ["delivery", "pickup"], "price": "$$", "location": {"address1": "66 Water St", "address2": "", "address3": null, "city": "Brooklyn", "zip_code": "11201", "country": "US", "state": "NY", "display_address": ["66 Water St", "Brooklyn, NY 11201"]}, "phone": "+17186636550", "display_phone": "(718) 663-6550", "distance": 2647.024443031783}, {"id": "CM0RFd0kqkT-LdC3gXGk2Q", "alias": "stout-nyc-fidi-new-york-3", "name": "Stout NYC FiDi", "image_url": "https://s3-media4.fl.yelpcdn.com/bphoto/Cv3T2RbR2xYJCSIyWMam1g/o.jpg", "is_closed": false, "url": "https://www.yelp.com/biz/stout-nyc-fidi-new-york-3?adjust_creative=a2JdNtFqB-C38ga_06BHvw&utm_campaign=yelp_api_v3&utm_medium=api_v3_business_search&utm_source=a2JdNtFqB-C38ga_06BHvw", "review_count": 241, "categories": [{"alias": "tradamerican", "title": "American (Traditional)"}, {"alias": "sportsbars", "title": "Sports Bars"}, {"alias": "irish", "title": "Irish"}], "rating": 3.5, "coordinates": {"latitude": 40.7079086, "longitude": -74.0064774}, "transactions": ["delivery", "pickup"], "price": "$$", "location": {"address1": "90 John St", "address2": "", "address3": "", "city": "New York", "zip_code": "10038", "country": "US", "state": "NY", "display_address": ["90 John St", "New York, NY 10038"]}, "phone": "+12122409122", "display_phone": "(212) 240-9122", "distance": 3856.7261402494864}, {"id": "IrlANmmvYynVviRwvOqNxg", "alias": "the-bailey-pub-and-brasserie-new-york", "name": "The Bailey Pub & Brasserie", "image_url": "https://s3-media4.fl.yelpcdn.com/bphoto/l5eQda-d3XGRm1eFRJzajw/o.jpg", "is_closed": false, "url": "https://www.yelp.com/biz/the-bailey-pub-and-brasserie-new-york?adjust_creative=a2JdNtFqB-C38ga_06BHvw&utm_campaign=yelp_api_v3&utm_medium=api_v3_business_search&utm_source=a2JdNtFqB-C38ga_06BHvw", "review_count": 195, "categories": [{"alias": "newamerican", "title": "American (New)"}, {"alias": "pubs", "title": "Pubs"}], "rating": 3.5, "coordinates": {"latitude": 40.7068041, "longitude": -74.0089388}, "transactions": ["delivery", "pickup"], "price": "$$", "location": {"address1": "52 William And Wall St", "address2": "", "address3": "", "city": "New York", "zip_code": "10005", "country": "US", "state": "NY", "display_address": ["52 William And Wall St", "New York, NY 10005"]}, "phone": "+12128592200", "display_phone": "(212) 859-2200", "distance": 3909.703473456263}, {"id": "HDDBpOKpKqRza-IhiE4CTw", "alias": "bareburger-cobble-hill-brooklyn", "name": "Bareburger - Cobble Hill", "image_url": "https://s3-media2.fl.yelpcdn.com/bphoto/GWP3N7UP3mqanSi6kr-Yxg/o.jpg", "is_closed": false, "url": "https://www.yelp.com/biz/bareburger-cobble-hill-brooklyn?adjust_creative=a2JdNtFqB-C38ga_06BHvw&utm_campaign=yelp_api_v3&utm_medium=api_v3_business_search&utm_source=a2JdNtFqB-C38ga_06BHvw", "review_count": 376, "categories": [{"alias": "burgers", "title": "Burgers"}, {"alias": "tradamerican", "title": "American (Traditional)"}, {"alias": "cocktailbars", "title": "Cocktail Bars"}], "rating": 3.5, "coordinates": {"latitude": 40.68921, "longitude": -73.99245}, "transactions": ["delivery", "pickup"], "price": "$$", "location": {"address1": "149 Court St", "address2": "", "address3": "", "city": "Brooklyn", "zip_code": "11201", "country": "US", "state": "NY", "display_address": ["149 Court St", "Brooklyn, NY 11201"]}, "phone": "+13475296673", "display_phone": "(347) 529-6673", "distance": 1618.1796379065338}, {"id": "UuZkzlLVeeyvBA9DwVsZOA", "alias": "rhythm-and-booze-brooklyn", "name": "Rhythm & Booze", "image_url": "https://s3-media1.fl.yelpcdn.com/bphoto/ktICcTMtZ6_dEidBC6I2Bw/o.jpg", "is_closed": false, "url": "https://www.yelp.com/biz/rhythm-and-booze-brooklyn?adjust_creative=a2JdNtFqB-C38ga_06BHvw&utm_campaign=yelp_api_v3&utm_medium=api_v3_business_search&utm_source=a2JdNtFqB-C38ga_06BHvw", "review_count": 72, "categories": [{"alias": "sportsbars", "title": "Sports Bars"}, {"alias": "tradamerican", "title": "American (Traditional)"}], "rating": 4.0, "coordinates": {"latitude": 40.65773, "longitude": -73.97964}, "transactions": ["delivery"], "price": "$$", "location": {"address1": "1674 10th Ave", "address2": "", "address3": "", "city": "Brooklyn", "zip_code": "11215", "country": "US", "state": "NY", "display_address": ["1674 10th Ave", "Brooklyn, NY 11215"]}, "phone": "+17187889699", "display_phone": "(718) 788-9699", "distance": 2798.6928430469}, {"id": "-mttoQ5KTGlOJqbuYE3o9Q", "alias": "union-grounds-new-york", "name": "Union Grounds", "image_url": "https://s3-media2.fl.yelpcdn.com/bphoto/VQESNro-r6G4B53jqbzbWw/o.jpg", "is_closed": false, "url": "https://www.yelp.com/biz/union-grounds-new-york?adjust_creative=a2JdNtFqB-C38ga_06BHvw&utm_campaign=yelp_api_v3&utm_medium=api_v3_business_search&utm_source=a2JdNtFqB-C38ga_06BHvw", "review_count": 70, "categories": [{"alias": "comfortfood", "title": "Comfort Food"}, {"alias": "sportsbars", "title": "Sports Bars"}], "rating": 4.0, "coordinates": {"latitude": 40.6826515, "longitude": -73.9933624}, "transactions": ["delivery", "pickup"], "price": "$$", "location": {"address1": "270 Smith St", "address2": "", "address3": "", "city": "New York", "zip_code": "11231", "country": "US", "state": "NY", "display_address": ["270 Smith St", "New York, NY 11231"]}, "phone": "+13477631935", "display_phone": "(347) 763-1935", "distance": 1529.6956725056696}, {"id": "43_d9tQwmxJh4t6pBtCBag", "alias": "the-gold-room-brooklyn-2", "name": "The Gold Room", "image_url": "https://s3-media2.fl.yelpcdn.com/bphoto/sWjz73195b31q6GvCRZgaA/o.jpg", "is_closed": false, "url": "https://www.yelp.com/biz/the-gold-room-brooklyn-2?adjust_creative=a2JdNtFqB-C38ga_06BHvw&utm_campaign=yelp_api_v3&utm_medium=api_v3_business_search&utm_source=a2JdNtFqB-C38ga_06BHvw", "review_count": 77, "categories": [{"alias": "tradamerican", "title": "American (Traditional)"}, {"alias": "cocktailbars", "title": "Cocktail Bars"}], "rating": 3.5, "coordinates": {"latitude": 40.66202, "longitude": -73.95353}, "transactions": ["delivery", "pickup"], "price": "$$", "location": {"address1": "429 Rogers Ave", "address2": "", "address3": null, "city": "Brooklyn", "zip_code": "11225", "country": "US", "state": "NY", "display_address": ["429 Rogers Ave", "Brooklyn, NY 11225"]}, "phone": "+17186187130", "display_phone": "(718) 618-7130", "distance": 2939.6181326498727}, {"id": "nnSyjwIkhbJIBMiBtch_BQ", "alias": "kimoto-rooftop-brooklyn-5", "name": "Kimoto Rooftop", "image_url": "https://s3-media4.fl.yelpcdn.com/bphoto/hX0KDiryZHCKqpNl51Zjng/o.jpg", "is_closed": false, "url": "https://www.yelp.com/biz/kimoto-rooftop-brooklyn-5?adjust_creative=a2JdNtFqB-C38ga_06BHvw&utm_campaign=yelp_api_v3&utm_medium=api_v3_business_search&utm_source=a2JdNtFqB-C38ga_06BHvw", "review_count": 570, "categories": [{"alias": "asianfusion", "title": "Asian Fusion"}, {"alias": "cocktailbars", "title": "Cocktail Bars"}, {"alias": "danceclubs", "title": "Dance Clubs"}], "rating": 3.5, "coordinates": {"latitude": 40.6915156530047, "longitude": -73.9846554}, "transactions": ["delivery", "pickup"], "price": "$$", "location": {"address1": "228 Duffield St", "address2": "", "address3": "", "city": "Brooklyn", "zip_code": "11201", "country": "US", "state": "NY", "display_address": ["228 Duffield St", "Brooklyn, NY 11201"]}, "phone": "+17188588940", "display_phone": "(718) 858-8940", "distance": 1265.5716949703365}, {"id": "mn6JM5lHuSSsG9KSXck3ww", "alias": "ulysses-folk-house-new-york-2", "name": "Ulysses Folk House", "image_url": "https://s3-media4.fl.yelpcdn.com/bphoto/KPep2sUZf0iEz-SEpYq0Pg/o.jpg", "is_closed": false, "url": "https://www.yelp.com/biz/ulysses-folk-house-new-york-2?adjust_creative=a2JdNtFqB-C38ga_06BHvw&utm_campaign=yelp_api_v3&utm_medium=api_v3_business_search&utm_source=a2JdNtFqB-C38ga_06BHvw", "review_count": 758, "categories": [{"alias": "pubs", "title": "Pubs"}, {"alias": "irish", "title": "Irish"}, {"alias": "sandwiches", "title": "Sandwiches"}], "rating": 3.0, "coordinates": {"latitude": 40.7042799890041, "longitude": -74.0099190920591}, "transactions": ["delivery"], "price": "$$", "location": {"address1": "95 Pearl St", "address2": "", "address3": "", "city": "New York", "zip_code": "10004", "country": "US", "state": "NY", "display_address": ["95 Pearl St", "New York, NY 10004"]}, "phone": "+12124820400", "display_phone": "(212) 482-0400", "distance": 3786.1016452547283}, {"id": "d0Up0vNOqr1eL3EtjHboMA", "alias": "black-walnut-public-house-brooklyn", "name": "Black Walnut Public House", "image_url": "https://s3-media2.fl.yelpcdn.com/bphoto/HWu7N--DSHNqe4XodWCUhw/o.jpg", "is_closed": false, "url": "https://www.yelp.com/biz/black-walnut-public-house-brooklyn?adjust_creative=a2JdNtFqB-C38ga_06BHvw&utm_campaign=yelp_api_v3&utm_medium=api_v3_business_search&utm_source=a2JdNtFqB-C38ga_06BHvw", "review_count": 39, "categories": [{"alias": "venues", "title": "Venues & Event Spaces"}, {"alias": "breakfast_brunch", "title": "Breakfast & Brunch"}, {"alias": "sportsbars", "title": "Sports Bars"}], "rating": 4.0, "coordinates": {"latitude": 40.6896982, "longitude": -73.9881975}, "transactions": ["delivery", "pickup"], "price": "$$$", "location": {"address1": "140 Schermerhorn St", "address2": "", "address3": null, "city": "Brooklyn", "zip_code": "11201", "country": "US", "state": "NY", "display_address": ["140 Schermerhorn St", "Brooklyn, NY 11201"]}, "phone": "+19293371280", "display_phone": "(929) 337-1280", "distance": 1323.8220552236826}, {"id": "srqlsWg0od6soGI2Zf8mXA", "alias": "edie-jos-brooklyn", "name": "Edie Jo's", "image_url": "https://s3-media2.fl.yelpcdn.com/bphoto/vSUgyQtb5yAgWT7x4luo7A/o.jpg", "is_closed": false, "url": "https://www.yelp.com/biz/edie-jos-brooklyn?adjust_creative=a2JdNtFqB-C38ga_06BHvw&utm_campaign=yelp_api_v3&utm_medium=api_v3_business_search&utm_source=a2JdNtFqB-C38ga_06BHvw", "review_count": 59, "categories": [{"alias": "cocktailbars", "title": "Cocktail Bars"}, {"alias": "newamerican", "title": "American (New)"}, {"alias": "breakfast_brunch", "title": "Breakfast & Brunch"}], "rating": 4.0, "coordinates": {"latitude": 40.65792, "longitude": -73.96056}, "transactions": ["delivery", "pickup"], "location": {"address1": "630 Flatbush Ave", "address2": null, "address3": "", "city": "Brooklyn", "zip_code": "11225", "country": "US", "state": "NY", "display_address": ["630 Flatbush Ave", "Brooklyn, NY 11225"]}, "phone": "+19142293300", "display_phone": "(914) 229-3300", "distance": 3017.2711274122025}, {"id": "cw5jesO9tJf7sOz6HIUspw", "alias": "brooklyn-habit-brooklyn", "name": "Brooklyn Habit", "image_url": "https://s3-media1.fl.yelpcdn.com/bphoto/CY72cujTIrjdOwWJ5N2AZQ/o.jpg", "is_closed": false, "url": "https://www.yelp.com/biz/brooklyn-habit-brooklyn?adjust_creative=a2JdNtFqB-C38ga_06BHvw&utm_campaign=yelp_api_v3&utm_medium=api_v3_business_search&utm_source=a2JdNtFqB-C38ga_06BHvw", "review_count": 27, "categories": [{"alias": "coffee", "title": "Coffee & Tea"}, {"alias": "tapasmallplates", "title": "Tapas/Small Plates"}, {"alias": "wine_bars", "title": "Wine Bars"}], "rating": 4.0, "coordinates": {"latitude": 40.67798, "longitude": -73.99603}, "transactions": ["delivery"], "price": "$$", "location": {"address1": "405 Smith St", "address2": null, "address3": "", "city": "Brooklyn", "zip_code": "11231", "country": "US", "state": "NY", "display_address": ["405 Smith St", "Brooklyn, NY 11231"]}, "phone": "+19177508301", "display_phone": "(917) 750-8301", "distance": 1832.3988948903946}, {"id": "-RRauorKocNhH2n74rkfnQ", "alias": "frying-pan-brooklyn-brooklyn", "name": "Frying Pan Brooklyn", "image_url": "https://s3-media2.fl.yelpcdn.com/bphoto/36DH837ETsMjMVPV7NCGpw/o.jpg", "is_closed": false, "url": "https://www.yelp.com/biz/frying-pan-brooklyn-brooklyn?adjust_creative=a2JdNtFqB-C38ga_06BHvw&utm_campaign=yelp_api_v3&utm_medium=api_v3_business_search&utm_source=a2JdNtFqB-C38ga_06BHvw", "review_count": 31, "categories": [{"alias": "eatertainment", "title": "Eatertainment"}, {"alias": "cocktailbars", "title": "Cocktail Bars"}, {"alias": "tradamerican", "title": "American (Traditional)"}], "rating": 4.0, "coordinates": {"latitude": 40.657524, "longitude": -74.007809}, "transactions": ["delivery"], "price": "$$", "location": {"address1": "51 35th St", "address2": "", "address3": null, "city": "Brooklyn", "zip_code": "11232", "country": "US", "state": "NY", "display_address": ["51 35th St", "Brooklyn, NY 11232"]}, "phone": "+16467081814", "display_phone": "(646) 708-1814", "distance": 3919.766329221022}, {"id": "0K14fz91-JSZd-wselihxA", "alias": "basil-brooklyn", "name": "Basil", "image_url": "https://s3-media2.fl.yelpcdn.com/bphoto/TtpD4a-4pR-UnKDHN5E-kQ/o.jpg", "is_closed": false, "url": "https://www.yelp.com/biz/basil-brooklyn?adjust_creative=a2JdNtFqB-C38ga_06BHvw&utm_campaign=yelp_api_v3&utm_medium=api_v3_business_search&utm_source=a2JdNtFqB-C38ga_06BHvw", "review_count": 230, "categories": [{"alias": "kosher", "title": "Kosher"}, {"alias": "wine_bars", "title": "Wine Bars"}, {"alias": "pizza", "title": "Pizza"}], "rating": 3.5, "coordinates": {"latitude": 40.6701630483264, "longitude": -73.9421222019838}, "transactions": ["delivery", "pickup"], "price": "$$$", "location": {"address1": "270 Kingston Ave", "address2": "", "address3": null, "city": "Brooklyn", "zip_code": "11213", "country": "US", "state": "NY", "display_address": ["270 Kingston Ave", "Brooklyn, NY 11213"]}, "phone": "+17182858777", "display_phone": "(718) 285-8777", "distance": 3118.3600432788426}, {"id": "PbYv6CqZ8DO-mbo38e1ovA", "alias": "ddt-brooklyn", "name": "DDT", "image_url": "https://s3-media1.fl.yelpcdn.com/bphoto/fkqAjr46gvURQXcLt43tcQ/o.jpg", "is_closed": false, "url": "https://www.yelp.com/biz/ddt-brooklyn?adjust_creative=a2JdNtFqB-C38ga_06BHvw&utm_campaign=yelp_api_v3&utm_medium=api_v3_business_search&utm_source=a2JdNtFqB-C38ga_06BHvw", "review_count": 8, "categories": [{"alias": "tradamerican", "title": "American (Traditional)"}, {"alias": "cocktailbars", "title": "Cocktail Bars"}, {"alias": "beerbar", "title": "Beer Bar"}], "rating": 5.0, "coordinates": {"latitude": 40.67472, "longitude": -73.97574}, "transactions": ["delivery", "pickup"], "location": {"address1": "847B Union St", "address2": null, "address3": "", "city": "Brooklyn", "zip_code": "11217", "country": "US", "state": "NY", "display_address": ["847B Union St", "Brooklyn, NY 11217"]}, "phone": "+19292604979", "display_phone": "(929) 260-4979", "distance": 883.7238216378987}, {"id": "2ppHl3T1KQV_KkyMhhJvBg", "alias": "mos-brooklyn", "name": "Mo's", "image_url": "https://s3-media4.fl.yelpcdn.com/bphoto/PpOTAAC7CYvWHTorhdYdYA/o.jpg", "is_closed": false, "url": "https://www.yelp.com/biz/mos-brooklyn?adjust_creative=a2JdNtFqB-C38ga_06BHvw&utm_campaign=yelp_api_v3&utm_medium=api_v3_business_search&utm_source=a2JdNtFqB-C38ga_06BHvw", "review_count": 245, "categories": [{"alias": "pubs", "title": "Pubs"}, {"alias": "tradamerican", "title": "American (Traditional)"}], "rating": 3.0, "coordinates": {"latitude": 40.68698, "longitude": -73.97473}, "transactions": ["delivery", "pickup"], "price": "$$", "location": {"address1": "80 Lafayette Ave", "address2": null, "address3": "", "city": "Brooklyn", "zip_code": "11217", "country": "US", "state": "NY", "display_address": ["80 Lafayette Ave", "Brooklyn, NY 11217"]}, "phone": "+17187972849", "display_phone": "(718) 797-2849", "distance": 482.84913885852126}, {"id": "h0qowxmqgwjKsh-fdkxvHw", "alias": "latin-social-new-york-2", "name": "Latin Social", "image_url": "https://s3-media2.fl.yelpcdn.com/bphoto/6TfPsskvTsmXRzYaLOqHRg/o.jpg", "is_closed": false, "url": "https://www.yelp.com/biz/latin-social-new-york-2?adjust_creative=a2JdNtFqB-C38ga_06BHvw&utm_campaign=yelp_api_v3&utm_medium=api_v3_business_search&utm_source=a2JdNtFqB-C38ga_06BHvw", "review_count": 53, "categories": [{"alias": "cocktailbars", "title": "Cocktail Bars"}, {"alias": "latin", "title": "Latin American"}, {"alias": "tapasmallplates", "title": "Tapas/Small Plates"}], "rating": 3.5, "coordinates": {"latitude": 40.70769, "longitude": -74.00767}, "transactions": ["delivery", "pickup"], "price": "$$", "location": {"address1": "75 Maiden Ln", "address2": "", "address3": null, "city": "New York", "zip_code": "10038", "country": "US", "state": "NY", "display_address": ["75 Maiden Ln", "New York, NY 10038"]}, "phone": "+16464100080", "display_phone": "(646) 410-0080", "distance": 3899.0112510143595}, {"id": "T1kOqFdwiA_CzSaug-Za7Q", "alias": "court-street-tavern-brooklyn", "name": "Court Street Tavern", "image_url": "https://s3-media2.fl.yelpcdn.com/bphoto/Q_1HLyIEZ_pVw7g-ie9tzw/o.jpg", "is_closed": false, "url": "https://www.yelp.com/biz/court-street-tavern-brooklyn?adjust_creative=a2JdNtFqB-C38ga_06BHvw&utm_campaign=yelp_api_v3&utm_medium=api_v3_business_search&utm_source=a2JdNtFqB-C38ga_06BHvw", "review_count": 26, "categories": [{"alias": "tradamerican", "title": "American (Traditional)"}, {"alias": "pubs", "title": "Pubs"}], "rating": 4.0, "coordinates": {"latitude": 40.677615, "longitude": -73.99787}, "transactions": ["delivery"], "location": {"address1": "449 Court St", "address2": null, "address3": "", "city": "Brooklyn", "zip_code": "11231", "country": "US", "state": "NY", "display_address": ["449 Court St", "Brooklyn, NY 11231"]}, "phone": "+19292980321", "display_phone": "(929) 298-0321", "distance": 1994.2583337182816}, {"id": "11VeHNc-R3PiLxQKK3_mig", "alias": "and-sons-brooklyn", "name": "& Sons", "image_url": "https://s3-media2.fl.yelpcdn.com/bphoto/MeicaFF5eSA16S_w9LGvKw/o.jpg", "is_closed": false, "url": "https://www.yelp.com/biz/and-sons-brooklyn?adjust_creative=a2JdNtFqB-C38ga_06BHvw&utm_campaign=yelp_api_v3&utm_medium=api_v3_business_search&utm_source=a2JdNtFqB-C38ga_06BHvw", "review_count": 13, "categories": [{"alias": "wine_bars", "title": "Wine Bars"}, {"alias": "newamerican", "title": "American (New)"}, {"alias": "tapasmallplates", "title": "Tapas/Small Plates"}], "rating": 4.5, "coordinates": {"latitude": 40.66161, "longitude": -73.95348}, "transactions": [], "location": {"address1": "447 Rogers Ave", "address2": "Prospect Lefferts Gardens", "address3": null, "city": "Brooklyn", "zip_code": "11225", "country": "US", "state": "NY", "display_address": ["447 Rogers Ave", "Prospect Lefferts Gardens", "Brooklyn, NY 11225"]}, "phone": "+17182810159", "display_phone": "(718) 281-0159", "distance": 2976.6351517207368}, {"id": "GMcyB6-zdMxDchGxyDEsWA", "alias": "r17-new-york", "name": "R17", "image_url": "https://s3-media3.fl.yelpcdn.com/bphoto/h1VgYKugKJ72GPcH3MmViQ/o.jpg", "is_closed": false, "url": "https://www.yelp.com/biz/r17-new-york?adjust_creative=a2JdNtFqB-C38ga_06BHvw&utm_campaign=yelp_api_v3&utm_medium=api_v3_business_search&utm_source=a2JdNtFqB-C38ga_06BHvw", "review_count": 41, "categories": [{"alias": "cocktailbars", "title": "Cocktail Bars"}, {"alias": "newamerican", "title": "American (New)"}], "rating": 3.5, "coordinates": {"latitude": 40.70577, "longitude": -74.001748}, "transactions": [], "price": "$$", "location": {"address1": "89 S St", "address2": null, "address3": "The Rooftop at Pier 17", "city": "New York", "zip_code": "10038", "country": "US", "state": "NY", "display_address": ["89 S St", "The Rooftop at Pier 17", "New York, NY 10038"]}, "phone": "+19175127540", "display_phone": "(917) 512-7540", "distance": 3406.315596014117}, {"id": "PiOv4vMRLaJJoqt_Eyebvw", "alias": "udom-thai-brooklyn-2", "name": "Udom Thai", "image_url": "https://s3-media2.fl.yelpcdn.com/bphoto/XnFe_DzjShZVQdFh3RcHgA/o.jpg", "is_closed": false, "url": "https://www.yelp.com/biz/udom-thai-brooklyn-2?adjust_creative=a2JdNtFqB-C38ga_06BHvw&utm_campaign=yelp_api_v3&utm_medium=api_v3_business_search&utm_source=a2JdNtFqB-C38ga_06BHvw", "review_count": 342, "categories": [{"alias": "thai", "title": "Thai"}, {"alias": "cocktailbars", "title": "Cocktail Bars"}], "rating": 3.0, "coordinates": {"latitude": 40.67736647507944, "longitude": -73.96346237531584}, "transactions": ["delivery", "pickup"], "price": "$$", "location": {"address1": "661 Washington Ave", "address2": "", "address3": "", "city": "Brooklyn", "zip_code": "11238", "country": "US", "state": "NY", "display_address": ["661 Washington Ave", "Brooklyn, NY 11238"]}, "phone": "+17186228424", "display_phone": "(718) 622-8424", "distance": 1153.4508066480314}, {"id": "wys1HhKwy80LSIRqG_prEg", "alias": "spice-brooklyn", "name": "Spice", "image_url": "https://s3-media2.fl.yelpcdn.com/bphoto/JAz5e4iW0f6j7cJ7I30T5w/o.jpg", "is_closed": false, "url": "https://www.yelp.com/biz/spice-brooklyn?adjust_creative=a2JdNtFqB-C38ga_06BHvw&utm_campaign=yelp_api_v3&utm_medium=api_v3_business_search&utm_source=a2JdNtFqB-C38ga_06BHvw", "review_count": 234, "categories": [{"alias": "thai", "title": "Thai"}, {"alias": "cocktailbars", "title": "Cocktail Bars"}], "rating": 3.0, "coordinates": {"latitude": 40.67549, "longitude": -73.9746}, "transactions": ["delivery", "pickup"], "price": "$$", "location": {"address1": "61A 7th Ave", "address2": "Ste A", "address3": "", "city": "Brooklyn", "zip_code": "11217", "country": "US", "state": "NY", "display_address": ["61A 7th Ave", "Ste A", "Brooklyn, NY 11217"]}, "phone": "+17186226353", "display_phone": "(718) 622-6353", "distance": 802.2453035939183}, {"id": "NBFx7oGyZZ8ysABnlLocyw", "alias": "johnny-macks-bar-and-grill-brooklyn", "name": "Johnny Mack's Bar & Grill", "image_url": "https://s3-media4.fl.yelpcdn.com/bphoto/_nl0yVsSjCOYx0jMiMVjmw/o.jpg", "is_closed": false, "url": "https://www.yelp.com/biz/johnny-macks-bar-and-grill-brooklyn?adjust_creative=a2JdNtFqB-C38ga_06BHvw&utm_campaign=yelp_api_v3&utm_medium=api_v3_business_search&utm_source=a2JdNtFqB-C38ga_06BHvw", "review_count": 114, "categories": [{"alias": "burgers", "title": "Burgers"}, {"alias": "newamerican", "title": "American (New)"}, {"alias": "cocktailbars", "title": "Cocktail Bars"}], "rating": 3.0, "coordinates": {"latitude": 40.664165, "longitude": -73.9805459}, "transactions": ["delivery"], "price": "$$", "location": {"address1": "1114 8th Ave", "address2": "", "address3": "", "city": "Brooklyn", "zip_code": "11215", "country": "US", "state": "NY", "display_address": ["1114 8th Ave", "Brooklyn, NY 11215"]}, "phone": "+17188327961", "display_phone": "(718) 832-7961", "distance": 2105.043660062942}, {"id": "KenUip4W38fN4Ua9WxsohA", "alias": "bohemien-bar-brooklyn", "name": "Bohemien Bar", "image_url": "https://s3-media1.fl.yelpcdn.com/bphoto/gj4IpZ784nNOfvkysOT4jA/o.jpg", "is_closed": false, "url": "https://www.yelp.com/biz/bohemien-bar-brooklyn?adjust_creative=a2JdNtFqB-C38ga_06BHvw&utm_campaign=yelp_api_v3&utm_medium=api_v3_business_search&utm_source=a2JdNtFqB-C38ga_06BHvw", "review_count": 14, "categories": [{"alias": "cocktailbars", "title": "Cocktail Bars"}, {"alias": "tradamerican", "title": "American (Traditional)"}], "rating": 4.5, "coordinates": {"latitude": 40.691171, "longitude": -73.99704}, "transactions": ["delivery", "pickup"], "location": {"address1": "97 Atlantic Ave", "address2": "", "address3": null, "city": "Brooklyn", "zip_code": "11201", "country": "US", "state": "NY", "display_address": ["97 Atlantic Ave", "Brooklyn, NY 11201"]}, "phone": "+13478449895", "display_phone": "(347) 844-9895", "distance": 2070.621946782417}, {"id": "8l4l9r4-K5TYq_i0mP69bg", "alias": "the-dubliner-new-york", "name": "The Dubliner", "image_url": "https://s3-media1.fl.yelpcdn.com/bphoto/B63Bn5BAjf3-BAZ249ZNsw/o.jpg", "is_closed": false, "url": "https://www.yelp.com/biz/the-dubliner-new-york?adjust_creative=a2JdNtFqB-C38ga_06BHvw&utm_campaign=yelp_api_v3&utm_medium=api_v3_business_search&utm_source=a2JdNtFqB-C38ga_06BHvw", "review_count": 246, "categories": [{"alias": "irish", "title": "Irish"}, {"alias": "pubs", "title": "Pubs"}], "rating": 3.0, "coordinates": {"latitude": 40.7043151177964, "longitude": -74.0104553957992}, "transactions": ["delivery", "pickup"], "price": "$$", "location": {"address1": "45 Stone St", "address2": "", "address3": "", "city": "New York", "zip_code": "10004", "country": "US", "state": "NY", "display_address": ["45 Stone St", "New York, NY 10004"]}, "phone": "+12127855400", "display_phone": "(212) 785-5400", "distance": 3823.599243943319}, {"id": "93C1xqdTGHyGtoZ9vwn3KA", "alias": "ketch-brewhouse-new-york", "name": "Ketch Brewhouse", "image_url": "https://s3-media1.fl.yelpcdn.com/bphoto/zAVCeoNrIehhDgRGBR9xbg/o.jpg", "is_closed": false, "url": "https://www.yelp.com/biz/ketch-brewhouse-new-york?adjust_creative=a2JdNtFqB-C38ga_06BHvw&utm_campaign=yelp_api_v3&utm_medium=api_v3_business_search&utm_source=a2JdNtFqB-C38ga_06BHvw", "review_count": 86, "categories": [{"alias": "sportsbars", "title": "Sports Bars"}, {"alias": "newamerican", "title": "American (New)"}, {"alias": "seafood", "title": "Seafood"}], "rating": 3.0, "coordinates": {"latitude": 40.7073900260528, "longitude": -74.0063956752419}, "transactions": ["delivery", "pickup"], "price": "$$", "location": {"address1": "6 Platt St", "address2": "", "address3": "", "city": "New York", "zip_code": "10038", "country": "US", "state": "NY", "display_address": ["6 Platt St", "New York, NY 10038"]}, "phone": "+12122739296", "display_phone": "(212) 273-9296", "distance": 3803.5428613883237}, {"id": "Td8KkN9rO49wf9G5IT2OaA", "alias": "95-south-soul-food-brooklyn", "name": "95 South Soul Food", "image_url": "https://s3-media3.fl.yelpcdn.com/bphoto/SC-JH2OpQ6p6UtFfgQkcww/o.jpg", "is_closed": false, "url": "https://www.yelp.com/biz/95-south-soul-food-brooklyn?adjust_creative=a2JdNtFqB-C38ga_06BHvw&utm_campaign=yelp_api_v3&utm_medium=api_v3_business_search&utm_source=a2JdNtFqB-C38ga_06BHvw", "review_count": 140, "categories": [{"alias": "sportsbars", "title": "Sports Bars"}, {"alias": "soulfood", "title": "Soul Food"}, {"alias": "lounges", "title": "Lounges"}], "rating": 3.0, "coordinates": {"latitude": 40.671931, "longitude": -73.957784}, "transactions": ["delivery"], "price": "$$", "location": {"address1": "778 Franklin Ave", "address2": "", "address3": "", "city": "Brooklyn", "zip_code": "11238", "country": "US", "state": "NY", "display_address": ["778 Franklin Ave", "Brooklyn, NY 11238"]}, "phone": "+13476996596", "display_phone": "(347) 699-6596", "distance": 1893.8723511571955}, {"id": "rTSAXOsyZbgJhe_521NQ9A", "alias": "izzy-rose-brooklyn", "name": "Izzy Rose", "image_url": "https://s3-media3.fl.yelpcdn.com/bphoto/sZtN85ZXgPjYh5iOCznWzQ/o.jpg", "is_closed": false, "url": "https://www.yelp.com/biz/izzy-rose-brooklyn?adjust_creative=a2JdNtFqB-C38ga_06BHvw&utm_campaign=yelp_api_v3&utm_medium=api_v3_business_search&utm_source=a2JdNtFqB-C38ga_06BHvw", "review_count": 29, "categories": [{"alias": "cocktailbars", "title": "Cocktail Bars"}, {"alias": "vegan", "title": "Vegan"}, {"alias": "cafes", "title": "Cafes"}], "rating": 3.5, "coordinates": {"latitude": 40.68692, "longitude": -73.96282}, "transactions": ["delivery", "pickup"], "location": {"address1": "214 Greene Ave", "address2": null, "address3": null, "city": "Brooklyn", "zip_code": "11238", "country": "US", "state": "NY", "display_address": ["214 Greene Ave", "Brooklyn, NY 11238"]}, "phone": "+19294808809", "display_phone": "(929) 480-8809", "distance": 1145.9527026870974}, {"id": "cRsIsiuoV11zX8oLY8brhQ", "alias": "dumboluv-brooklyn-3", "name": "DumboLuv", "image_url": "https://s3-media4.fl.yelpcdn.com/bphoto/iN17geeIHSh3tdvRrXojig/o.jpg", "is_closed": false, "url": "https://www.yelp.com/biz/dumboluv-brooklyn-3?adjust_creative=a2JdNtFqB-C38ga_06BHvw&utm_campaign=yelp_api_v3&utm_medium=api_v3_business_search&utm_source=a2JdNtFqB-C38ga_06BHvw", "review_count": 9, "categories": [{"alias": "newamerican", "title": "American (New)"}, {"alias": "wine_bars", "title": "Wine Bars"}], "rating": 4.5, "coordinates": {"latitude": 40.7032593, "longitude": -73.9866501}, "transactions": ["delivery"], "location": {"address1": "54 Jay St", "address2": null, "address3": "Olympia Wine Bar", "city": "Brooklyn", "zip_code": "11201", "country": "US", "state": "NY", "display_address": ["54 Jay St", "Olympia Wine Bar", "Brooklyn, NY 11201"]}, "phone": "", "display_phone": "", "distance": 2484.7297128958517}, {"id": "iLkU9Wo0Zte4DechmGnMqg", "alias": "bleachers-sports-bar-and-grill-park-slope", "name": "Bleachers Sports Bar & Grill", "image_url": "https://s3-media1.fl.yelpcdn.com/bphoto/HEJoLZ_BSxwHpXqdZF4vGA/o.jpg", "is_closed": false, "url": "https://www.yelp.com/biz/bleachers-sports-bar-and-grill-park-slope?adjust_creative=a2JdNtFqB-C38ga_06BHvw&utm_campaign=yelp_api_v3&utm_medium=api_v3_business_search&utm_source=a2JdNtFqB-C38ga_06BHvw", "review_count": 79, "categories": [{"alias": "sportsbars", "title": "Sports Bars"}, {"alias": "tradamerican", "title": "American (Traditional)"}], "rating": 3.0, "coordinates": {"latitude": 40.6802563732559, "longitude": -73.9749691478851}, "transactions": ["delivery", "pickup"], "price": "$$", "location": {"address1": "240 Flatbush Ave", "address2": "", "address3": "", "city": "Park Slope", "zip_code": "11217", "country": "US", "state": "NY", "display_address": ["240 Flatbush Ave", "Park Slope, NY 11217"]}, "phone": "+17188571111", "display_phone": "(718) 857-1111", "distance": 268.25098573274266}, {"id": "o3l8CcisNgu10SQB-rRATw", "alias": "becketts-bar-and-grill-new-york", "name": "Beckett's Bar & Grill", "image_url": "https://s3-media3.fl.yelpcdn.com/bphoto/p0UIIeG6mg0rLLzvdxgaHQ/o.jpg", "is_closed": false, "url": "https://www.yelp.com/biz/becketts-bar-and-grill-new-york?adjust_creative=a2JdNtFqB-C38ga_06BHvw&utm_campaign=yelp_api_v3&utm_medium=api_v3_business_search&utm_source=a2JdNtFqB-C38ga_06BHvw", "review_count": 202, "categories": [{"alias": "pubs", "title": "Pubs"}, {"alias": "newamerican", "title": "American (New)"}, {"alias": "sportsbars", "title": "Sports Bars"}], "rating": 3.0, "coordinates": {"latitude": 40.70413, "longitude": -74.01034}, "transactions": ["delivery", "pickup"], "price": "$$", "location": {"address1": "81 Pearl St", "address2": "", "address3": "", "city": "New York", "zip_code": "10004", "country": "US", "state": "NY", "display_address": ["81 Pearl St", "New York, NY 10004"]}, "phone": "+12122691001", "display_phone": "(212) 269-1001", "distance": 3802.981094540653}, {"id": "RsLs863308rBCJqwuGfNeA", "alias": "custom-house-brooklyn", "name": "Custom House", "image_url": "https://s3-media4.fl.yelpcdn.com/bphoto/YBDNZ5aYFxNwogKFSphXTg/o.jpg", "is_closed": false, "url": "https://www.yelp.com/biz/custom-house-brooklyn?adjust_creative=a2JdNtFqB-C38ga_06BHvw&utm_campaign=yelp_api_v3&utm_medium=api_v3_business_search&utm_source=a2JdNtFqB-C38ga_06BHvw", "review_count": 175, "categories": [{"alias": "pubs", "title": "Pubs"}, {"alias": "tradamerican", "title": "American (Traditional)"}, {"alias": "sportsbars", "title": "Sports Bars"}], "rating": 3.0, "coordinates": {"latitude": 40.694862, "longitude": -73.993713}, "transactions": ["delivery", "pickup"], "price": "$$", "location": {"address1": "139 Montague St", "address2": "", "address3": "", "city": "Brooklyn", "zip_code": "11201", "country": "US", "state": "NY", "display_address": ["139 Montague St", "Brooklyn, NY 11201"]}, "phone": "+17186436000", "display_phone": "(718) 643-6000", "distance": 2067.2527673882187}, {"id": "OO0SYH7OnFvrGdhp08kSfA", "alias": "buffalo-wild-wings-brooklyn", "name": "Buffalo Wild Wings", "image_url": "https://s3-media2.fl.yelpcdn.com/bphoto/uJb00LPuH1wv-kM4ZHO42A/o.jpg", "is_closed": false, "url": "https://www.yelp.com/biz/buffalo-wild-wings-brooklyn?adjust_creative=a2JdNtFqB-C38ga_06BHvw&utm_campaign=yelp_api_v3&utm_medium=api_v3_business_search&utm_source=a2JdNtFqB-C38ga_06BHvw", "review_count": 606, "categories": [{"alias": "tradamerican", "title": "American (Traditional)"}, {"alias": "sportsbars", "title": "Sports Bars"}, {"alias": "chicken_wings", "title": "Chicken Wings"}], "rating": 2.5, "coordinates": {"latitude": 40.684543953192, "longitude": -73.9775522013275}, "transactions": ["delivery"], "price": "$$", "location": {"address1": "139 Flatbush Ave", "address2": "", "address3": "", "city": "Brooklyn", "zip_code": "11217", "country": "US", "state": "NY", "display_address": ["139 Flatbush Ave", "Brooklyn, NY 11217"]}, "phone": "+17189439453", "display_phone": "(718) 943-9453", "distance": 286.9582187901128}, {"id": "ki4hgtRa7fWcEpBu0cyM4A", "alias": "the-fly-brooklyn", "name": "The Fly", "image_url": "https://s3-media2.fl.yelpcdn.com/bphoto/0vQ6BpCwlYe33OtEtO7aLg/o.jpg", "is_closed": false, "url": "https://www.yelp.com/biz/the-fly-brooklyn?adjust_creative=a2JdNtFqB-C38ga_06BHvw&utm_campaign=yelp_api_v3&utm_medium=api_v3_business_search&utm_source=a2JdNtFqB-C38ga_06BHvw", "review_count": 31, "categories": [{"alias": "wine_bars", "title": "Wine Bars"}, {"alias": "chickenshop", "title": "Chicken Shop"}, {"alias": "cocktailbars", "title": "Cocktail Bars"}], "rating": 3.5, "coordinates": {"latitude": 40.68191, "longitude": -73.95848}, "transactions": ["delivery"], "location": {"address1": "549 Classon Ave", "address2": "", "address3": null, "city": "Brooklyn", "zip_code": "11216", "country": "US", "state": "NY", "display_address": ["549 Classon Ave", "Brooklyn, NY 11216"]}, "phone": "+13474055300", "display_phone": "(347) 405-5300", "distance": 1415.3418964709338}, {"id": "cQJxNryTjY5Yu-RyJwUq8w", "alias": "chance-11-brooklyn", "name": "Chance 11", "image_url": "https://s3-media1.fl.yelpcdn.com/bphoto/rAg78KJ4k8lufIwq9bgnUA/o.jpg", "is_closed": false, "url": "https://www.yelp.com/biz/chance-11-brooklyn?adjust_creative=a2JdNtFqB-C38ga_06BHvw&utm_campaign=yelp_api_v3&utm_medium=api_v3_business_search&utm_source=a2JdNtFqB-C38ga_06BHvw", "review_count": 82, "categories": [{"alias": "sportsbars", "title": "Sports Bars"}, {"alias": "tradamerican", "title": "American (Traditional)"}], "rating": 3.0, "coordinates": {"latitude": 40.683814, "longitude": -73.967511}, "transactions": ["delivery", "pickup"], "price": "$$", "location": {"address1": "895 Fulton St", "address2": null, "address3": null, "city": "Brooklyn", "zip_code": "11238", "country": "US", "state": "NY", "display_address": ["895 Fulton St", "Brooklyn, NY 11238"]}, "phone": "+13479873555", "display_phone": "(347) 987-3555", "distance": 662.9731211004967}, {"id": "_PGwWwpU4OrLBgdNainzoA", "alias": "bar-goto-niban-brooklyn", "name": "Bar Goto Niban", "image_url": "https://s3-media2.fl.yelpcdn.com/bphoto/71ZZkUHoQ8Za9rv7h6e_3g/o.jpg", "is_closed": false, "url": "https://www.yelp.com/biz/bar-goto-niban-brooklyn?adjust_creative=a2JdNtFqB-C38ga_06BHvw&utm_campaign=yelp_api_v3&utm_medium=api_v3_business_search&utm_source=a2JdNtFqB-C38ga_06BHvw", "review_count": 9, "categories": [{"alias": "cocktailbars", "title": "Cocktail Bars"}, {"alias": "comfortfood", "title": "Comfort Food"}], "rating": 4.5, "coordinates": {"latitude": 40.6807879, "longitude": -73.9756403}, "transactions": ["delivery"], "location": {"address1": "474 Bergen St", "address2": "", "address3": null, "city": "Brooklyn", "zip_code": "11217", "country": "US", "state": "NY", "display_address": ["474 Bergen St", "Brooklyn, NY 11217"]}, "phone": "", "display_phone": "", "distance": 211.20253637403488}, {"id": "9pVn9v3ETBV2RGX07FBENw", "alias": "7-old-fulton-restaurant-brooklyn-2", "name": "7 Old Fulton Restaurant", "image_url": "https://s3-media2.fl.yelpcdn.com/bphoto/YIKSHnuXtLO4eloV2FUaEg/o.jpg", "is_closed": false, "url": "https://www.yelp.com/biz/7-old-fulton-restaurant-brooklyn-2?adjust_creative=a2JdNtFqB-C38ga_06BHvw&utm_campaign=yelp_api_v3&utm_medium=api_v3_business_search&utm_source=a2JdNtFqB-C38ga_06BHvw", "review_count": 298, "categories": [{"alias": "wine_bars", "title": "Wine Bars"}, {"alias": "italian", "title": "Italian"}], "rating": 2.5, "coordinates": {"latitude": 40.7029876708984, "longitude": -73.9938354492188}, "transactions": ["delivery"], "price": "$$", "location": {"address1": "7 Old Fulton St", "address2": "", "address3": "", "city": "Brooklyn", "zip_code": "11201", "country": "US", "state": "NY", "display_address": ["7 Old Fulton St", "Brooklyn, NY 11201"]}, "phone": "+17187970007", "display_phone": "(718) 797-0007", "distance": 2748.681272300155}, {"id": "ClsEOM67bCkg4TzoMw1rrw", "alias": "the-greens-new-york-2", "name": "The Greens", "image_url": "https://s3-media2.fl.yelpcdn.com/bphoto/zPDaOC4p3avAA-wPT_5HvQ/o.jpg", "is_closed": false, "url": "https://www.yelp.com/biz/the-greens-new-york-2?adjust_creative=a2JdNtFqB-C38ga_06BHvw&utm_campaign=yelp_api_v3&utm_medium=api_v3_business_search&utm_source=a2JdNtFqB-C38ga_06BHvw", "review_count": 60, "categories": [{"alias": "cocktailbars", "title": "Cocktail Bars"}, {"alias": "newamerican", "title": "American (New)"}], "rating": 3.0, "coordinates": {"latitude": 40.7055516567203, "longitude": -74.0015973770409}, "transactions": [], "location": {"address1": "89 South St", "address2": "", "address3": "The Rooftop at Pier 17", "city": "New York", "zip_code": "10038", "country": "US", "state": "NY", "display_address": ["89 South St", "The Rooftop at Pier 17", "New York, NY 10038"]}, "phone": "+19175127540", "display_phone": "(917) 512-7540", "distance": 3379.6728999624215}, {"id": "uMZam4F-baqSokjy7pw5ZA", "alias": "rise-radio-brooklyn", "name": "Rise Radio", "image_url": "https://s3-media2.fl.yelpcdn.com/bphoto/wBKsbxJ27LhPmCIN7Pexqw/o.jpg", "is_closed": false, "url": "https://www.yelp.com/biz/rise-radio-brooklyn?adjust_creative=a2JdNtFqB-C38ga_06BHvw&utm_campaign=yelp_api_v3&utm_medium=api_v3_business_search&utm_source=a2JdNtFqB-C38ga_06BHvw", "review_count": 6, "categories": [{"alias": "cafes", "title": "Cafes"}, {"alias": "musicvenues", "title": "Music Venues"}, {"alias": "pubs", "title": "Pubs"}], "rating": 4.5, "coordinates": {"latitude": 40.7034462146096, "longitude": -73.9427331010331}, "transactions": ["delivery", "pickup"], "location": {"address1": "57 Graham Ave", "address2": "", "address3": null, "city": "Brooklyn", "zip_code": "11206", "country": "US", "state": "NY", "display_address": ["57 Graham Ave", "Brooklyn, NY 11206"]}, "phone": "", "display_phone": "", "distance": 3584.1095264100672}, {"id": "md90Fu_96gYw1AXJ103mHQ", "alias": "pips-brooklyn-3", "name": "Pips", "image_url": "https://s3-media1.fl.yelpcdn.com/bphoto/VBJDGt1y9iKW6ZPp4IUEPw/o.jpg", "is_closed": false, "url": "https://www.yelp.com/biz/pips-brooklyn-3?adjust_creative=a2JdNtFqB-C38ga_06BHvw&utm_campaign=yelp_api_v3&utm_medium=api_v3_business_search&utm_source=a2JdNtFqB-C38ga_06BHvw", "review_count": 11, "categories": [{"alias": "seafood", "title": "Seafood"}, {"alias": "cocktailbars", "title": "Cocktail Bars"}, {"alias": "wine_bars", "title": "Wine Bars"}], "rating": 4.0, "coordinates": {"latitude": 40.690902, "longitude": -73.995738}, "transactions": ["delivery"], "location": {"address1": "129 Atlantic Ave", "address2": "", "address3": null, "city": "Brooklyn", "zip_code": "11201", "country": "US", "state": "NY", "display_address": ["129 Atlantic Ave", "Brooklyn, NY 11201"]}, "phone": "+17188588989", "display_phone": "(718) 858-8989", "distance": 1957.3526930537075}, {"id": "-OAQxe4X74oe0I7_s2E8uA", "alias": "the-irish-punt-new-york", "name": "The Irish Punt", "image_url": "https://s3-media4.fl.yelpcdn.com/bphoto/MjyNFyNeMLY3iu_5BWyR-A/o.jpg", "is_closed": false, "url": "https://www.yelp.com/biz/the-irish-punt-new-york?adjust_creative=a2JdNtFqB-C38ga_06BHvw&utm_campaign=yelp_api_v3&utm_medium=api_v3_business_search&utm_source=a2JdNtFqB-C38ga_06BHvw", "review_count": 60, "categories": [{"alias": "pubs", "title": "Pubs"}, {"alias": "irish", "title": "Irish"}], "rating": 3.0, "coordinates": {"latitude": 40.70583, "longitude": -74.01013}, "transactions": ["delivery"], "price": "$$", "location": {"address1": "40 Exchange Pl", "address2": "Grd Floor", "address3": "", "city": "New York", "zip_code": "10005", "country": "US", "state": "NY", "display_address": ["40 Exchange Pl", "Grd Floor", "New York, NY 10005"]}, "phone": "+12124227868", "display_phone": "(212) 422-7868", "distance": 3914.2000206753623}, {"id": "-JFi2vYrS-CqL44o3fsf1A", "alias": "w-xyz-bar-brooklyn-2", "name": "W XYZ Bar", "image_url": "https://s3-media4.fl.yelpcdn.com/bphoto/vRZN0uMn8eDkFvueCtCOAA/o.jpg", "is_closed": false, "url": "https://www.yelp.com/biz/w-xyz-bar-brooklyn-2?adjust_creative=a2JdNtFqB-C38ga_06BHvw&utm_campaign=yelp_api_v3&utm_medium=api_v3_business_search&utm_source=a2JdNtFqB-C38ga_06BHvw", "review_count": 6, "categories": [{"alias": "cocktailbars", "title": "Cocktail Bars"}, {"alias": "venues", "title": "Venues & Event Spaces"}, {"alias": "tapasmallplates", "title": "Tapas/Small Plates"}], "rating": 4.5, "coordinates": {"latitude": 40.6913942, "longitude": -73.9844709}, "transactions": [], "price": "$$", "location": {"address1": "216 Duffield St", "address2": "Aloft New York Brooklyn", "address3": "", "city": "Brooklyn", "zip_code": "11201", "country": "US", "state": "NY", "display_address": ["216 Duffield St", "Aloft New York Brooklyn", "Brooklyn, NY 11201"]}, "phone": "+17182563833", "display_phone": "(718) 256-3833", "distance": 1245.2968651953047}, {"id": "lQ8qDNaTPnewJt6xwG__gQ", "alias": "leland-eating-and-drinking-house-brooklyn", "name": "Leland Eating and Drinking House", "image_url": "https://s3-media1.fl.yelpcdn.com/bphoto/FesbB7uRWS3dJsNA1D8QZw/o.jpg", "is_closed": false, "url": "https://www.yelp.com/biz/leland-eating-and-drinking-house-brooklyn?adjust_creative=a2JdNtFqB-C38ga_06BHvw&utm_campaign=yelp_api_v3&utm_medium=api_v3_business_search&utm_source=a2JdNtFqB-C38ga_06BHvw", "review_count": 11, "categories": [{"alias": "wine_bars", "title": "Wine Bars"}, {"alias": "mediterranean", "title": "Mediterranean"}], "rating": 4.0, "coordinates": {"latitude": 40.679822105618534, "longitude": -73.96511882543564}, "transactions": ["delivery"], "location": {"address1": "755 Dean St", "address2": "", "address3": null, "city": "Brooklyn", "zip_code": "11238", "country": "US", "state": "NY", "display_address": ["755 Dean St", "Brooklyn, NY 11238"]}, "phone": "+16464707008", "display_phone": "(646) 470-7008", "distance": 908.7829771675524}, {"id": "Ag66rfFMa7lZsOdYvrdB-g", "alias": "sugarhill-supperclub-brooklyn", "name": "Sugarhill Supperclub", "image_url": "https://s3-media2.fl.yelpcdn.com/bphoto/q94q7md3ctH50trh4J9CBg/o.jpg", "is_closed": false, "url": "https://www.yelp.com/biz/sugarhill-supperclub-brooklyn?adjust_creative=a2JdNtFqB-C38ga_06BHvw&utm_campaign=yelp_api_v3&utm_medium=api_v3_business_search&utm_source=a2JdNtFqB-C38ga_06BHvw", "review_count": 34, "categories": [{"alias": "soulfood", "title": "Soul Food"}, {"alias": "tradamerican", "title": "American (Traditional)"}, {"alias": "pubs", "title": "Pubs"}], "rating": 3.0, "coordinates": {"latitude": 40.6915969848633, "longitude": -73.9514617919922}, "transactions": [], "price": "$$", "location": {"address1": "615 Dekalb Ave", "address2": "", "address3": "", "city": "Brooklyn", "zip_code": "11216", "country": "US", "state": "NY", "display_address": ["615 Dekalb Ave", "Brooklyn, NY 11216"]}, "phone": "+17187971727", "display_phone": "(718) 797-1727", "distance": 2235.97756666756}, {"id": "mbXksQIk8AVWD-sw6apIig", "alias": "applebees-grill-bar-brooklyn-3", "name": "Applebee's Grill + Bar", "image_url": "https://s3-media2.fl.yelpcdn.com/bphoto/xc9IywowOKzk4zDncfYUAg/o.jpg", "is_closed": false, "url": "https://www.yelp.com/biz/applebees-grill-bar-brooklyn-3?adjust_creative=a2JdNtFqB-C38ga_06BHvw&utm_campaign=yelp_api_v3&utm_medium=api_v3_business_search&utm_source=a2JdNtFqB-C38ga_06BHvw", "review_count": 189, "categories": [{"alias": "tradamerican", "title": "American (Traditional)"}, {"alias": "sportsbars", "title": "Sports Bars"}, {"alias": "burgers", "title": "Burgers"}], "rating": 2.0, "coordinates": {"latitude": 40.683017, "longitude": -73.975928}, "transactions": ["delivery", "pickup"], "price": "$$", "location": {"address1": "139 Flatbush Ave Level 2", "address2": "", "address3": "", "city": "Brooklyn", "zip_code": "11217", "country": "US", "state": "NY", "display_address": ["139 Flatbush Ave Level 2", "Brooklyn, NY 11217"]}, "phone": "+17189475040", "display_phone": "(718) 947-5040", "distance": 71.28078741573098}, {"id": "TkKzXjTjA3mEpyFE3DmOqg", "alias": "applebees-grill-bar-brooklyn-2", "name": "Applebee's Grill + Bar", "image_url": "https://s3-media2.fl.yelpcdn.com/bphoto/pHiznjPS4GSYMUCEoNq8nQ/o.jpg", "is_closed": false, "url": "https://www.yelp.com/biz/applebees-grill-bar-brooklyn-2?adjust_creative=a2JdNtFqB-C38ga_06BHvw&utm_campaign=yelp_api_v3&utm_medium=api_v3_business_search&utm_source=a2JdNtFqB-C38ga_06BHvw", "review_count": 166, "categories": [{"alias": "tradamerican", "title": "American (Traditional)"}, {"alias": "sportsbars", "title": "Sports Bars"}, {"alias": "burgers", "title": "Burgers"}], "rating": 2.0, "coordinates": {"latitude": 40.680105, "longitude": -73.946582}, "transactions": ["delivery", "pickup"], "price": "$$", "location": {"address1": "1360 Fulton St", "address2": "", "address3": "", "city": "Brooklyn", "zip_code": "11216", "country": "US", "state": "NY", "display_address": ["1360 Fulton St", "Brooklyn, NY 11216"]}, "phone": "+17189438000", "display_phone": "(718) 943-8000", "distance": 2431.9613312807164}, {"id": "tuhlWtnjoOn8C6NTUCnbPg", "alias": "victor-brooklyn", "name": "Victor", "image_url": "https://s3-media2.fl.yelpcdn.com/bphoto/CuqhT__1P4ATwSCQRAFgWw/o.jpg", "is_closed": false, "url": "https://www.yelp.com/biz/victor-brooklyn?adjust_creative=a2JdNtFqB-C38ga_06BHvw&utm_campaign=yelp_api_v3&utm_medium=api_v3_business_search&utm_source=a2JdNtFqB-C38ga_06BHvw", "review_count": 4, "categories": [{"alias": "newamerican", "title": "American (New)"}, {"alias": "mediterranean", "title": "Mediterranean"}, {"alias": "cocktailbars", "title": "Cocktail Bars"}], "rating": 4.5, "coordinates": {"latitude": 40.6795300180332, "longitude": -73.98681309999999}, "transactions": [], "location": {"address1": "285 Nevins St", "address2": null, "address3": "", "city": "Brooklyn", "zip_code": "11217", "country": "US", "state": "NY", "display_address": ["285 Nevins St", "Brooklyn, NY 11217"]}, "phone": "+13478896588", "display_phone": "(347) 889-6588", "distance": 1037.3288731290443}, {"id": "VmgvCsAP6vZ3DL1mw8ugWQ", "alias": "osteria-del-porto-new-york", "name": "Osteria Del Porto", "image_url": "https://s3-media3.fl.yelpcdn.com/bphoto/XZyxaawALE7CXqwahElvkA/o.jpg", "is_closed": false, "url": "https://www.yelp.com/biz/osteria-del-porto-new-york?adjust_creative=a2JdNtFqB-C38ga_06BHvw&utm_campaign=yelp_api_v3&utm_medium=api_v3_business_search&utm_source=a2JdNtFqB-C38ga_06BHvw", "review_count": 4, "categories": [{"alias": "italian", "title": "Italian"}, {"alias": "wine_bars", "title": "Wine Bars"}], "rating": 4.0, "coordinates": {"latitude": 40.70737443140159, "longitude": -74.00270427364536}, "transactions": [], "location": {"address1": "212 Front St", "address2": "", "address3": null, "city": "New York", "zip_code": "10038", "country": "US", "state": "NY", "display_address": ["212 Front St", "New York, NY 10038"]}, "phone": "+16465906053", "display_phone": "(646) 590-6053", "distance": 3594.2448370067277}, {"id": "VUYIIMfDa-6UD8seDmYLaA", "alias": "daughter-brooklyn", "name": "Daughter", "image_url": "https://s3-media2.fl.yelpcdn.com/bphoto/zVn8_esQTkv3ldINVS56DA/o.jpg", "is_closed": false, "url": "https://www.yelp.com/biz/daughter-brooklyn?adjust_creative=a2JdNtFqB-C38ga_06BHvw&utm_campaign=yelp_api_v3&utm_medium=api_v3_business_search&utm_source=a2JdNtFqB-C38ga_06BHvw", "review_count": 2, "categories": [{"alias": "cafes", "title": "Cafes"}, {"alias": "desserts", "title": "Desserts"}, {"alias": "wine_bars", "title": "Wine Bars"}], "rating": 5.0, "coordinates": {"latitude": 40.67105, "longitude": -73.94237}, "transactions": [], "location": {"address1": "1090 St Johns Pl", "address2": "", "address3": null, "city": "Brooklyn", "zip_code": "11213", "country": "US", "state": "NY", "display_address": ["1090 St Johns Pl", "Brooklyn, NY 11213"]}, "phone": "", "display_phone": "", "distance": 3056.287194420809}, {"id": "0o322YHC7J9ru5s_GHUM3Q", "alias": "mamma-roma-brooklyn", "name": "Mamma Roma", "image_url": "https://s3-media3.fl.yelpcdn.com/bphoto/yVcioRpRq0g3su_F1smDIQ/o.jpg", "is_closed": false, "url": "https://www.yelp.com/biz/mamma-roma-brooklyn?adjust_creative=a2JdNtFqB-C38ga_06BHvw&utm_campaign=yelp_api_v3&utm_medium=api_v3_business_search&utm_source=a2JdNtFqB-C38ga_06BHvw", "review_count": 3, "categories": [{"alias": "italian", "title": "Italian"}, {"alias": "pizza", "title": "Pizza"}, {"alias": "wine_bars", "title": "Wine Bars"}], "rating": 3.5, "coordinates": {"latitude": 40.667659, "longitude": -73.991393}, "transactions": ["delivery", "pickup"], "location": {"address1": "524 4th Ave", "address2": "", "address3": null, "city": "Brooklyn", "zip_code": "11215", "country": "US", "state": "NY", "display_address": ["524 4th Ave", "Brooklyn, NY 11215"]}, "phone": "+17183691300", "display_phone": "(718) 369-1300", "distance": 2154.7569489607777}, {"id": "Ha8C3iT5YFeRoxdLd9CfLA", "alias": "casita-of-brooklyn-brooklyn-2", "name": "Casita of Brooklyn", "image_url": "", "is_closed": false, "url": "https://www.yelp.com/biz/casita-of-brooklyn-brooklyn-2?adjust_creative=a2JdNtFqB-C38ga_06BHvw&utm_campaign=yelp_api_v3&utm_medium=api_v3_business_search&utm_source=a2JdNtFqB-C38ga_06BHvw", "review_count": 1, "categories": [{"alias": "cafes", "title": "Cafes"}, {"alias": "coffee", "title": "Coffee & Tea"}, {"alias": "wine_bars", "title": "Wine Bars"}], "rating": 5.0, "coordinates": {"latitude": 40.668012, "longitude": -73.987802}, "transactions": ["delivery", "pickup"], "location": {"address1": "318 11th St", "address2": null, "address3": null, "city": "Brooklyn", "zip_code": "11215", "country": "US", "state": "NY", "display_address": ["318 11th St", "Brooklyn, NY 11215"]}, "phone": "+13478895849", "display_phone": "(347) 889-5849", "distance": 1944.052596210526}, {"id": "Mk9k_1UsVJUl-a-mFZkh8A", "alias": "1285-coffee-and-cocktails-brooklyn", "name": "1285 Coffee and Cocktails", "image_url": "https://s3-media4.fl.yelpcdn.com/bphoto/Nki4GY52kc4BRsBWSrpXrw/o.jpg", "is_closed": false, "url": "https://www.yelp.com/biz/1285-coffee-and-cocktails-brooklyn?adjust_creative=a2JdNtFqB-C38ga_06BHvw&utm_campaign=yelp_api_v3&utm_medium=api_v3_business_search&utm_source=a2JdNtFqB-C38ga_06BHvw", "review_count": 2, "categories": [{"alias": "cocktailbars", "title": "Cocktail Bars"}, {"alias": "salad", "title": "Salad"}, {"alias": "coffee", "title": "Coffee & Tea"}], "rating": 3.5, "coordinates": {"latitude": 40.6557091, "longitude": -73.9498262}, "transactions": ["delivery", "pickup"], "location": {"address1": "1285 Nostrand Ave", "address2": null, "address3": null, "city": "Brooklyn", "zip_code": "11226", "country": "US", "state": "NY", "display_address": ["1285 Nostrand Ave", "Brooklyn, NY 11226"]}, "phone": "+13473053086", "display_phone": "(347) 305-3086", "distance": 3683.7903904969353}, {"id": "0-Z-vRHL-7CqNd7rI4fS8A", "alias": "the-black-harp-new-york", "name": "The Black Harp", "image_url": "", "is_closed": false, "url": "https://www.yelp.com/biz/the-black-harp-new-york?adjust_creative=a2JdNtFqB-C38ga_06BHvw&utm_campaign=yelp_api_v3&utm_medium=api_v3_business_search&utm_source=a2JdNtFqB-C38ga_06BHvw", "review_count": 2, "categories": [{"alias": "newamerican", "title": "American (New)"}, {"alias": "sportsbars", "title": "Sports Bars"}, {"alias": "lounges", "title": "Lounges"}], "rating": 1.0, "coordinates": {"latitude": 40.705319, "longitude": -74.002665}, "transactions": [], "location": {"address1": "89 South St", "address2": null, "address3": "", "city": "New York", "zip_code": "10038", "country": "US", "state": "NY", "display_address": ["89 South St", "New York, NY 10038"]}, "phone": "+12126084209", "display_phone": "(212) 608-4209", "distance": 3420.4584652127114}], "absolute total": 166, "total": 166}