{"league": "NHL", "team": "Buffalo Sabres", "stadium": "KeyBank Center", "stadium latitude": 42.875, "stadium longitude": -78.876389, "radius": "3000 meters", "city": "Buffalo", "state": "New York", "businesses": [{"id": "vTf_Q7wekPvSR8nv60KvUQ", "alias": "ballyhoo-buffalo", "name": "Ballyhoo", "image_url": "https://s3-media4.fl.yelpcdn.com/bphoto/FCCQR6EEw_jwelf5NxJkQA/o.jpg", "is_closed": false, "url": "https://www.yelp.com/biz/ballyhoo-buffalo?adjust_creative=a2JdNtFqB-C38ga_06BHvw&utm_campaign=yelp_api_v3&utm_medium=api_v3_business_search&utm_source=a2JdNtFqB-C38ga_06BHvw", "review_count": 218, "categories": [{"alias": "newamerican", "title": "American (New)"}, {"alias": "cocktailbars", "title": "Cocktail Bars"}], "rating": 4.5, "coordinates": {"latitude": 42.8728, "longitude": -78.87161}, "transactions": ["delivery"], "price": "$$", "location": {"address1": "211 South Park Ave", "address2": "", "address3": "", "city": "Buffalo", "zip_code": "14204", "country": "US", "state": "NY", "display_address": ["211 South Park Ave", "Buffalo, NY 14204"]}, "phone": "+17162409901", "display_phone": "(716) 240-9901", "distance": 454.43124437814606}, {"id": "yFrNUzF8LoIDVvIes-WHvQ", "alias": "bacchus-wine-bar-and-restaurant-buffalo-3", "name": "Bacchus Wine Bar and Restaurant", "image_url": "https://s3-media2.fl.yelpcdn.com/bphoto/MhNopuN-oGjdR8KWNR_aQQ/o.jpg", "is_closed": false, "url": "https://www.yelp.com/biz/bacchus-wine-bar-and-restaurant-buffalo-3?adjust_creative=a2JdNtFqB-C38ga_06BHvw&utm_campaign=yelp_api_v3&utm_medium=api_v3_business_search&utm_source=a2JdNtFqB-C38ga_06BHvw", "review_count": 283, "categories": [{"alias": "newamerican", "title": "American (New)"}, {"alias": "wine_bars", "title": "Wine Bars"}], "rating": 4.5, "coordinates": {"latitude": 42.890199, "longitude": -78.87499}, "transactions": ["delivery"], "price": "$$$", "location": {"address1": "56 W Chippewa St", "address2": "", "address3": "", "city": "Buffalo", "zip_code": "14202", "country": "US", "state": "NY", "display_address": ["56 W Chippewa St", "Buffalo, NY 14202"]}, "phone": "+17168549463", "display_phone": "(716) 854-9463", "distance": 1693.889477806626}, {"id": "tXSGTbvCI6JouBqmyDSO9Q", "alias": "sidelines-sports-bar-and-grill-buffalo", "name": "Sidelines Sports Bar and Grill", "image_url": "https://s3-media1.fl.yelpcdn.com/bphoto/7hYF2wF-YhEbg6jpN5U6Ng/o.jpg", "is_closed": false, "url": "https://www.yelp.com/biz/sidelines-sports-bar-and-grill-buffalo?adjust_creative=a2JdNtFqB-C38ga_06BHvw&utm_campaign=yelp_api_v3&utm_medium=api_v3_business_search&utm_source=a2JdNtFqB-C38ga_06BHvw", "review_count": 113, "categories": [{"alias": "sportsbars", "title": "Sports Bars"}, {"alias": "burgers", "title": "Burgers"}, {"alias": "chicken_wings", "title": "Chicken Wings"}], "rating": 4.5, "coordinates": {"latitude": 42.889634, "longitude": -78.8766891136765}, "transactions": ["pickup", "delivery"], "price": "$$", "location": {"address1": "189 Delaware Ave", "address2": "", "address3": "", "city": "Buffalo", "zip_code": "14202", "country": "US", "state": "NY", "display_address": ["189 Delaware Ave", "Buffalo, NY 14202"]}, "phone": "+17162409392", "display_phone": "(716) 240-9392", "distance": 1627.4084705795688}, {"id": "1udG7XRGWNtW2cK0YkMapw", "alias": "founding-fathers-pub-buffalo", "name": "Founding Fathers Pub", "image_url": "https://s3-media2.fl.yelpcdn.com/bphoto/DUnAKRnExMzP-gxARBuqhg/o.jpg", "is_closed": false, "url": "https://www.yelp.com/biz/founding-fathers-pub-buffalo?adjust_creative=a2JdNtFqB-C38ga_06BHvw&utm_campaign=yelp_api_v3&utm_medium=api_v3_business_search&utm_source=a2JdNtFqB-C38ga_06BHvw", "review_count": 184, "categories": [{"alias": "tradamerican", "title": "American (Traditional)"}, {"alias": "pubs", "title": "Pubs"}], "rating": 4.0, "coordinates": {"latitude": 42.8958, "longitude": -78.87424}, "transactions": ["delivery"], "price": "$$", "location": {"address1": "75 Edward St", "address2": "", "address3": "", "city": "Buffalo", "zip_code": "14202", "country": "US", "state": "NY", "display_address": ["75 Edward St", "Buffalo, NY 14202"]}, "phone": "+17168558944", "display_phone": "(716) 855-8944", "distance": 2323.463146126355}, {"id": "6XEDZi_ZUiPRZxEhwMO5wQ", "alias": "fat-bobs-smokehouse-buffalo", "name": "Fat Bob's Smokehouse", "image_url": "https://s3-media1.fl.yelpcdn.com/bphoto/NVzQbK0Xv2BC1mE16mnThA/o.jpg", "is_closed": false, "url": "https://www.yelp.com/biz/fat-bobs-smokehouse-buffalo?adjust_creative=a2JdNtFqB-C38ga_06BHvw&utm_campaign=yelp_api_v3&utm_medium=api_v3_business_search&utm_source=a2JdNtFqB-C38ga_06BHvw", "review_count": 509, "categories": [{"alias": "bbq", "title": "Barbeque"}, {"alias": "smokehouse", "title": "Smokehouse"}, {"alias": "cocktailbars", "title": "Cocktail Bars"}], "rating": 4.0, "coordinates": {"latitude": 42.8979, "longitude": -78.87336}, "transactions": ["restaurant_reservation", "pickup", "delivery"], "price": "$$", "location": {"address1": "41 Virginia Pl", "address2": "", "address3": "", "city": "Buffalo", "zip_code": "14202", "country": "US", "state": "NY", "display_address": ["41 Virginia Pl", "Buffalo, NY 14202"]}, "phone": "+17168872971", "display_phone": "(716) 887-2971", "distance": 2562.037260151341}, {"id": "KPOUjySHsSUyPMy_tBiebA", "alias": "tappo-buffalo", "name": "Tappo", "image_url": "https://s3-media4.fl.yelpcdn.com/bphoto/f-D0XsL88MdIsWvoLHxq7Q/o.jpg", "is_closed": false, "url": "https://www.yelp.com/biz/tappo-buffalo?adjust_creative=a2JdNtFqB-C38ga_06BHvw&utm_campaign=yelp_api_v3&utm_medium=api_v3_business_search&utm_source=a2JdNtFqB-C38ga_06BHvw", "review_count": 550, "categories": [{"alias": "wine_bars", "title": "Wine Bars"}, {"alias": "italian", "title": "Italian"}, {"alias": "sandwiches", "title": "Sandwiches"}], "rating": 4.0, "coordinates": {"latitude": 42.887763, "longitude": -78.8716759}, "transactions": ["pickup", "delivery"], "price": "$$", "location": {"address1": "338 Ellicott St", "address2": "", "address3": "", "city": "Buffalo", "zip_code": "14203", "country": "US", "state": "NY", "display_address": ["338 Ellicott St", "Buffalo, NY 14203"]}, "phone": "+17162598130", "display_phone": "(716) 259-8130", "distance": 1470.2184077671766}, {"id": "u1Bj1vRHX2c8U3kPrEf0bQ", "alias": "marble-rye-buffalo", "name": "Marble + Rye", "image_url": "https://s3-media2.fl.yelpcdn.com/bphoto/-eGb6WgArOIR5ikzH0x0Rg/o.jpg", "is_closed": false, "url": "https://www.yelp.com/biz/marble-rye-buffalo?adjust_creative=a2JdNtFqB-C38ga_06BHvw&utm_campaign=yelp_api_v3&utm_medium=api_v3_business_search&utm_source=a2JdNtFqB-C38ga_06BHvw", "review_count": 171, "categories": [{"alias": "cocktailbars", "title": "Cocktail Bars"}, {"alias": "newamerican", "title": "American (New)"}], "rating": 4.0, "coordinates": {"latitude": 42.8899841308594, "longitude": -78.8700103759766}, "transactions": ["pickup", "delivery"], "price": "$$", "location": {"address1": "112 Genesee St", "address2": "", "address3": "", "city": "Buffalo", "zip_code": "14203", "country": "US", "state": "NY", "display_address": ["112 Genesee St", "Buffalo, NY 14203"]}, "phone": "+17168531390", "display_phone": "(716) 853-1390", "distance": 1747.016532892271}, {"id": "NzcVXbNbGn3LW9zbtAXXCg", "alias": "gabriels-gate-buffalo", "name": "Gabriel's Gate", "image_url": "https://s3-media4.fl.yelpcdn.com/bphoto/__NC8V47zIdGrjINoMIiIA/o.jpg", "is_closed": false, "url": "https://www.yelp.com/biz/gabriels-gate-buffalo?adjust_creative=a2JdNtFqB-C38ga_06BHvw&utm_campaign=yelp_api_v3&utm_medium=api_v3_business_search&utm_source=a2JdNtFqB-C38ga_06BHvw", "review_count": 717, "categories": [{"alias": "tradamerican", "title": "American (Traditional)"}, {"alias": "burgers", "title": "Burgers"}, {"alias": "sportsbars", "title": "Sports Bars"}], "rating": 3.5, "coordinates": {"latitude": 42.89967, "longitude": -78.87535}, "transactions": ["delivery"], "price": "$$", "location": {"address1": "145 Allen St", "address2": "", "address3": "", "city": "Buffalo", "zip_code": "14201", "country": "US", "state": "NY", "display_address": ["145 Allen St", "Buffalo, NY 14201"]}, "phone": "+17168860602", "display_phone": "(716) 886-0602", "distance": 2738.33062032448}, {"id": "WKVJGWDvaTt08IxrQgT0yA", "alias": "dobutsu-buffalo", "name": "Dobutsu", "image_url": "https://s3-media1.fl.yelpcdn.com/bphoto/CmpMZkp4tUh16yDch82mQg/o.jpg", "is_closed": false, "url": "https://www.yelp.com/biz/dobutsu-buffalo?adjust_creative=a2JdNtFqB-C38ga_06BHvw&utm_campaign=yelp_api_v3&utm_medium=api_v3_business_search&utm_source=a2JdNtFqB-C38ga_06BHvw", "review_count": 117, "categories": [{"alias": "ramen", "title": "Ramen"}, {"alias": "seafood", "title": "Seafood"}, {"alias": "cocktailbars", "title": "Cocktail Bars"}], "rating": 4.0, "coordinates": {"latitude": 42.8773191454076, "longitude": -78.8567308978885}, "transactions": ["delivery"], "price": "$$$", "location": {"address1": "500 Seneca St", "address2": "Ste 119", "address3": null, "city": "Buffalo", "zip_code": "14204", "country": "US", "state": "NY", "display_address": ["500 Seneca St", "Ste 119", "Buffalo, NY 14204"]}, "phone": "+17163226004", "display_phone": "(716) 322-6004", "distance": 1622.4933743490028}, {"id": "vGCIqpF8UQXJdj34J0Rd7A", "alias": "hydraulic-hearth-buffalo", "name": "Hydraulic Hearth", "image_url": "https://s3-media4.fl.yelpcdn.com/bphoto/AedBVM89hqKbpUbBlRVZ-w/o.jpg", "is_closed": false, "url": "https://www.yelp.com/biz/hydraulic-hearth-buffalo?adjust_creative=a2JdNtFqB-C38ga_06BHvw&utm_campaign=yelp_api_v3&utm_medium=api_v3_business_search&utm_source=a2JdNtFqB-C38ga_06BHvw", "review_count": 283, "categories": [{"alias": "pizza", "title": "Pizza"}, {"alias": "cocktailbars", "title": "Cocktail Bars"}], "rating": 4.0, "coordinates": {"latitude": 42.87695, "longitude": -78.84967}, "transactions": ["pickup", "delivery"], "price": "$$", "location": {"address1": "716 Swan St", "address2": "", "address3": "", "city": "Buffalo", "zip_code": "14210", "country": "US", "state": "NY", "display_address": ["716 Swan St", "Buffalo, NY 14210"]}, "phone": "+17162482216", "display_phone": "(716) 248-2216", "distance": 2200.4842520129896}, {"id": "hiDXeS-R-ffo4ixdTjSqfg", "alias": "panorama-on-7-buffalo", "name": "Panorama on 7", "image_url": "https://s3-media1.fl.yelpcdn.com/bphoto/H7u1U7SFufSWBzyxz2bJkg/o.jpg", "is_closed": false, "url": "https://www.yelp.com/biz/panorama-on-7-buffalo?adjust_creative=a2JdNtFqB-C38ga_06BHvw&utm_campaign=yelp_api_v3&utm_medium=api_v3_business_search&utm_source=a2JdNtFqB-C38ga_06BHvw", "review_count": 83, "categories": [{"alias": "cocktailbars", "title": "Cocktail Bars"}, {"alias": "newamerican", "title": "American (New)"}], "rating": 4.0, "coordinates": {"latitude": 42.8769142, "longitude": -78.8769624}, "transactions": ["pickup", "delivery"], "price": "$$", "location": {"address1": "95 Main St", "address2": "", "address3": "Buffalo Marriott Harbor Center", "city": "Buffalo", "zip_code": "14203", "country": "US", "state": "NY", "display_address": ["95 Main St", "Buffalo Marriott Harbor Center", "Buffalo, NY 14203"]}, "phone": "+17168520049", "display_phone": "(716) 852-0049", "distance": 208.58161734648573}, {"id": "NSaIBZKDSikz-Og3m5hLfQ", "alias": "bada-bing-buffalo-3", "name": "Bada Bing", "image_url": "https://s3-media1.fl.yelpcdn.com/bphoto/1HZz6VW1saZ0B5AgeYb7Fg/o.jpg", "is_closed": false, "url": "https://www.yelp.com/biz/bada-bing-buffalo-3?adjust_creative=a2JdNtFqB-C38ga_06BHvw&utm_campaign=yelp_api_v3&utm_medium=api_v3_business_search&utm_source=a2JdNtFqB-C38ga_06BHvw", "review_count": 151, "categories": [{"alias": "sportsbars", "title": "Sports Bars"}, {"alias": "italian", "title": "Italian"}], "rating": 4.0, "coordinates": {"latitude": 42.89021228, "longitude": -78.87461555}, "transactions": ["pickup", "delivery"], "price": "$$", "location": {"address1": "42 W Chippewa St", "address2": "", "address3": "", "city": "Buffalo", "zip_code": "14202", "country": "US", "state": "NY", "display_address": ["42 W Chippewa St", "Buffalo, NY 14202"]}, "phone": "+17168532464", "display_phone": "(716) 853-2464", "distance": 1697.687026067381}, {"id": "0A0q9T_YJMFnsN4kemxVsw", "alias": "graylynn-buffalo", "name": "Graylynn", "image_url": "https://s3-media2.fl.yelpcdn.com/bphoto/Of4QasF_B4q2097ftM-mJA/o.jpg", "is_closed": false, "url": "https://www.yelp.com/biz/graylynn-buffalo?adjust_creative=a2JdNtFqB-C38ga_06BHvw&utm_campaign=yelp_api_v3&utm_medium=api_v3_business_search&utm_source=a2JdNtFqB-C38ga_06BHvw", "review_count": 28, "categories": [{"alias": "cocktailbars", "title": "Cocktail Bars"}, {"alias": "beer_and_wine", "title": "Beer, Wine & Spirits"}, {"alias": "tapasmallplates", "title": "Tapas/Small Plates"}], "rating": 4.5, "coordinates": {"latitude": 42.8880997452205, "longitude": -78.8732042536139}, "transactions": [], "location": {"address1": "537 Main St", "address2": "", "address3": null, "city": "Buffalo", "zip_code": "14203", "country": "US", "state": "NY", "display_address": ["537 Main St", "Buffalo, NY 14203"]}, "phone": "+17163700029", "display_phone": "(716) 370-0029", "distance": 1479.5566489170724}, {"id": "zRWie6SRF7A2iPp_UN1cOQ", "alias": "buffalo-tap-house-buffalo", "name": "Buffalo Tap House", "image_url": "https://s3-media2.fl.yelpcdn.com/bphoto/8eVDC5MDR2biMW6IqXZpTA/o.jpg", "is_closed": false, "url": "https://www.yelp.com/biz/buffalo-tap-house-buffalo?adjust_creative=a2JdNtFqB-C38ga_06BHvw&utm_campaign=yelp_api_v3&utm_medium=api_v3_business_search&utm_source=a2JdNtFqB-C38ga_06BHvw", "review_count": 57, "categories": [{"alias": "pubs", "title": "Pubs"}, {"alias": "tradamerican", "title": "American (Traditional)"}], "rating": 4.0, "coordinates": {"latitude": 42.8907797867667, "longitude": -78.8760907952543}, "transactions": ["pickup", "delivery"], "price": "$", "location": {"address1": "85 W Chippewa St", "address2": "", "address3": "", "city": "Buffalo", "zip_code": "14202", "country": "US", "state": "NY", "display_address": ["85 W Chippewa St", "Buffalo, NY 14202"]}, "phone": "+17163322433", "display_phone": "(716) 332-2433", "distance": 1754.7985024789505}, {"id": "v_NrupgiSQAn_5GwU1F4og", "alias": "falley-allen-buffalo", "name": "Falley Allen", "image_url": "https://s3-media1.fl.yelpcdn.com/bphoto/uB6DM19HZLqYbDoaly5biA/o.jpg", "is_closed": false, "url": "https://www.yelp.com/biz/falley-allen-buffalo?adjust_creative=a2JdNtFqB-C38ga_06BHvw&utm_campaign=yelp_api_v3&utm_medium=api_v3_business_search&utm_source=a2JdNtFqB-C38ga_06BHvw", "review_count": 118, "categories": [{"alias": "newamerican", "title": "American (New)"}, {"alias": "pizza", "title": "Pizza"}, {"alias": "cocktailbars", "title": "Cocktail Bars"}], "rating": 4.0, "coordinates": {"latitude": 42.8992, "longitude": -78.87761}, "transactions": ["pickup", "delivery"], "price": "$$", "location": {"address1": "204 Allen St", "address2": "", "address3": null, "city": "Buffalo", "zip_code": "14201", "country": "US", "state": "NY", "display_address": ["204 Allen St", "Buffalo, NY 14201"]}, "phone": "+17164643903", "display_phone": "(716) 464-3903", "distance": 2702.579936580103}, {"id": "xMvOYYfIRl7f-bma-v5udw", "alias": "sear-buffalo-3", "name": "SEAR", "image_url": "https://s3-media3.fl.yelpcdn.com/bphoto/CrmhWOqVuLFva904liSKDw/o.jpg", "is_closed": false, "url": "https://www.yelp.com/biz/sear-buffalo-3?adjust_creative=a2JdNtFqB-C38ga_06BHvw&utm_campaign=yelp_api_v3&utm_medium=api_v3_business_search&utm_source=a2JdNtFqB-C38ga_06BHvw", "review_count": 190, "categories": [{"alias": "steak", "title": "Steakhouses"}, {"alias": "cocktailbars", "title": "Cocktail Bars"}], "rating": 3.5, "coordinates": {"latitude": 42.8897618, "longitude": -78.8777372}, "transactions": ["pickup", "delivery"], "price": "$$$", "location": {"address1": "200 Delaware Ave", "address2": null, "address3": "", "city": "Buffalo", "zip_code": "14202", "country": "US", "state": "NY", "display_address": ["200 Delaware Ave", "Buffalo, NY 14202"]}, "phone": "+17163191090", "display_phone": "(716) 319-1090", "distance": 1645.107024485057}, {"id": "uQX9p3Wk7kxJ-vz3S0_WOA", "alias": "d-tour-martini-bar-and-kitchen-buffalo-2", "name": "D-Tour Martini Bar and Kitchen", "image_url": "https://s3-media2.fl.yelpcdn.com/bphoto/IcHmP549SyxJP29soDSsAg/o.jpg", "is_closed": false, "url": "https://www.yelp.com/biz/d-tour-martini-bar-and-kitchen-buffalo-2?adjust_creative=a2JdNtFqB-C38ga_06BHvw&utm_campaign=yelp_api_v3&utm_medium=api_v3_business_search&utm_source=a2JdNtFqB-C38ga_06BHvw", "review_count": 57, "categories": [{"alias": "cocktailbars", "title": "Cocktail Bars"}, {"alias": "tapasmallplates", "title": "Tapas/Small Plates"}, {"alias": "newamerican", "title": "American (New)"}], "rating": 4.0, "coordinates": {"latitude": 42.89054, "longitude": -78.87479}, "transactions": ["delivery"], "price": "$$", "location": {"address1": "49 W Chippewa St", "address2": "", "address3": null, "city": "Buffalo", "zip_code": "14202", "country": "US", "state": "NY", "display_address": ["49 W Chippewa St", "Buffalo, NY 14202"]}, "phone": "+17168541250", "display_phone": "(716) 854-1250", "distance": 1738.7535749830136}, {"id": "FFxwh56521w4R-7ZoZRmrQ", "alias": "liberty-hound-buffalo-2", "name": "Liberty Hound", "image_url": "https://s3-media1.fl.yelpcdn.com/bphoto/fDgnpgcDpWauKt2bGAUGhg/o.jpg", "is_closed": false, "url": "https://www.yelp.com/biz/liberty-hound-buffalo-2?adjust_creative=a2JdNtFqB-C38ga_06BHvw&utm_campaign=yelp_api_v3&utm_medium=api_v3_business_search&utm_source=a2JdNtFqB-C38ga_06BHvw", "review_count": 304, "categories": [{"alias": "seafood", "title": "Seafood"}, {"alias": "cocktailbars", "title": "Cocktail Bars"}, {"alias": "tradamerican", "title": "American (Traditional)"}], "rating": 3.5, "coordinates": {"latitude": 42.877395, "longitude": -78.879642}, "transactions": ["delivery"], "price": "$$", "location": {"address1": "1 Naval Park Cv", "address2": "", "address3": "", "city": "Buffalo", "zip_code": "14202", "country": "US", "state": "NY", "display_address": ["1 Naval Park Cv", "Buffalo, NY 14202"]}, "phone": "+17168459173", "display_phone": "(716) 845-9173", "distance": 375.7482396812984}, {"id": "MldHoWF3LA2lfpiX1VNKXQ", "alias": "the-quarter-buffalo", "name": "The Quarter", "image_url": "https://s3-media1.fl.yelpcdn.com/bphoto/CWkv8XUgah0SSwbnTt9ciA/o.jpg", "is_closed": false, "url": "https://www.yelp.com/biz/the-quarter-buffalo?adjust_creative=a2JdNtFqB-C38ga_06BHvw&utm_campaign=yelp_api_v3&utm_medium=api_v3_business_search&utm_source=a2JdNtFqB-C38ga_06BHvw", "review_count": 81, "categories": [{"alias": "cajun", "title": "Cajun/Creole"}, {"alias": "cocktailbars", "title": "Cocktail Bars"}], "rating": 3.5, "coordinates": {"latitude": 42.8975800884066, "longitude": -78.8738515891231}, "transactions": ["delivery"], "price": "$$", "location": {"address1": "26 Virginia Pl", "address2": "", "address3": null, "city": "Buffalo", "zip_code": "14202", "country": "US", "state": "NY", "display_address": ["26 Virginia Pl", "Buffalo, NY 14202"]}, "phone": "+17163225188", "display_phone": "(716) 322-5188", "distance": 2519.2848990569773}, {"id": "nt3A-fA_WJeCtxT-EXdbJg", "alias": "716-food-and-sport-buffalo", "name": "716 Food and Sport", "image_url": "https://s3-media2.fl.yelpcdn.com/bphoto/4glI6c5wbMLG978OoESXyA/o.jpg", "is_closed": false, "url": "https://www.yelp.com/biz/716-food-and-sport-buffalo?adjust_creative=a2JdNtFqB-C38ga_06BHvw&utm_campaign=yelp_api_v3&utm_medium=api_v3_business_search&utm_source=a2JdNtFqB-C38ga_06BHvw", "review_count": 613, "categories": [{"alias": "sportsbars", "title": "Sports Bars"}, {"alias": "burgers", "title": "Burgers"}, {"alias": "tradamerican", "title": "American (Traditional)"}], "rating": 3.0, "coordinates": {"latitude": 42.876997, "longitude": -78.876288}, "transactions": ["pickup", "delivery"], "price": "$$", "location": {"address1": "716 Scott St", "address2": "", "address3": "", "city": "Buffalo", "zip_code": "14203", "country": "US", "state": "NY", "display_address": ["716 Scott St", "Buffalo, NY 14203"]}, "phone": "+17168554716", "display_phone": "(716) 855-4716", "distance": 222.2084886489061}, {"id": "IDm6jFn2uM1GQ5dUFBKRIQ", "alias": "union-pub-buffalo", "name": "Union Pub", "image_url": "https://s3-media4.fl.yelpcdn.com/bphoto/f4b9u_aJyOB0w_T8q4rrGQ/o.jpg", "is_closed": false, "url": "https://www.yelp.com/biz/union-pub-buffalo?adjust_creative=a2JdNtFqB-C38ga_06BHvw&utm_campaign=yelp_api_v3&utm_medium=api_v3_business_search&utm_source=a2JdNtFqB-C38ga_06BHvw", "review_count": 25, "categories": [{"alias": "pubs", "title": "Pubs"}, {"alias": "sportsbars", "title": "Sports Bars"}, {"alias": "tradamerican", "title": "American (Traditional)"}], "rating": 4.0, "coordinates": {"latitude": 42.88182, "longitude": -78.87396}, "transactions": ["delivery", "pickup"], "price": "$", "location": {"address1": "38 Swan St", "address2": null, "address3": "", "city": "Buffalo", "zip_code": "14203", "country": "US", "state": "NY", "display_address": ["38 Swan St", "Buffalo, NY 14203"]}, "phone": "+17168542199", "display_phone": "(716) 854-2199", "distance": 782.7902474663266}, {"id": "VQnO9_qHufycr56X_wnZVA", "alias": "washington-square-bar-and-grill-buffalo", "name": "Washington Square Bar and Grill", "image_url": "https://s3-media3.fl.yelpcdn.com/bphoto/9IZEpIxK8B_XjF8lHkfR_Q/o.jpg", "is_closed": false, "url": "https://www.yelp.com/biz/washington-square-bar-and-grill-buffalo?adjust_creative=a2JdNtFqB-C38ga_06BHvw&utm_campaign=yelp_api_v3&utm_medium=api_v3_business_search&utm_source=a2JdNtFqB-C38ga_06BHvw", "review_count": 33, "categories": [{"alias": "tradamerican", "title": "American (Traditional)"}, {"alias": "sportsbars", "title": "Sports Bars"}], "rating": 4.0, "coordinates": {"latitude": 42.88201, "longitude": -78.8742}, "transactions": ["delivery"], "price": "$", "location": {"address1": "295 Washington St", "address2": "", "address3": "", "city": "Buffalo", "zip_code": "14203", "country": "US", "state": "NY", "display_address": ["295 Washington St", "Buffalo, NY 14203"]}, "phone": "+17168490619", "display_phone": "(716) 849-0619", "distance": 799.6230207123705}, {"id": "iZJIHS5MsdYCNwHh2O1x5Q", "alias": "dukes-bohemian-grove-bar-buffalo", "name": "Duke's Bohemian Grove Bar", "image_url": "https://s3-media3.fl.yelpcdn.com/bphoto/Z7eyF0Z4lVR7lI4O8yuewg/o.jpg", "is_closed": false, "url": "https://www.yelp.com/biz/dukes-bohemian-grove-bar-buffalo?adjust_creative=a2JdNtFqB-C38ga_06BHvw&utm_campaign=yelp_api_v3&utm_medium=api_v3_business_search&utm_source=a2JdNtFqB-C38ga_06BHvw", "review_count": 94, "categories": [{"alias": "musicvenues", "title": "Music Venues"}, {"alias": "pubs", "title": "Pubs"}, {"alias": "newamerican", "title": "American (New)"}], "rating": 3.5, "coordinates": {"latitude": 42.89973, "longitude": -78.87955}, "transactions": ["delivery", "pickup"], "price": "$$", "location": {"address1": "253 Allen St", "address2": "", "address3": "", "city": "Buffalo", "zip_code": "14201", "country": "US", "state": "NY", "display_address": ["253 Allen St", "Buffalo, NY 14201"]}, "phone": "+17162409359", "display_phone": "(716) 240-9359", "distance": 2745.356546302035}, {"id": "9TBHZZbkZUyg6RolYRSfgQ", "alias": "pizza-plant-italian-pub-buffalo-3", "name": "Pizza Plant Italian Pub", "image_url": "https://s3-media3.fl.yelpcdn.com/bphoto/gwXO8hdULLAxZfG-UnSaOg/o.jpg", "is_closed": false, "url": "https://www.yelp.com/biz/pizza-plant-italian-pub-buffalo-3?adjust_creative=a2JdNtFqB-C38ga_06BHvw&utm_campaign=yelp_api_v3&utm_medium=api_v3_business_search&utm_source=a2JdNtFqB-C38ga_06BHvw", "review_count": 110, "categories": [{"alias": "pizza", "title": "Pizza"}, {"alias": "italian", "title": "Italian"}, {"alias": "pubs", "title": "Pubs"}], "rating": 3.5, "coordinates": {"latitude": 42.8782264952051, "longitude": -78.8763401910419}, "transactions": ["delivery", "pickup"], "price": "$$", "location": {"address1": "125 Main St", "address2": "Ste 110", "address3": "", "city": "Buffalo", "zip_code": "14203", "country": "US", "state": "NY", "display_address": ["125 Main St", "Ste 110", "Buffalo, NY 14203"]}, "phone": "+17166265566", "display_phone": "(716) 626-5566", "distance": 358.79154446156303}, {"id": "xlUCl5PPnPN803FXKew-XA", "alias": "marinaros-larkin-tavern-buffalo", "name": "Marinaro's Larkin Tavern", "image_url": "https://s3-media1.fl.yelpcdn.com/bphoto/NlpsoSBz3JCltgxfRpUovg/o.jpg", "is_closed": false, "url": "https://www.yelp.com/biz/marinaros-larkin-tavern-buffalo?adjust_creative=a2JdNtFqB-C38ga_06BHvw&utm_campaign=yelp_api_v3&utm_medium=api_v3_business_search&utm_source=a2JdNtFqB-C38ga_06BHvw", "review_count": 23, "categories": [{"alias": "newamerican", "title": "American (New)"}, {"alias": "sportsbars", "title": "Sports Bars"}, {"alias": "italian", "title": "Italian"}], "rating": 4.0, "coordinates": {"latitude": 42.873222, "longitude": -78.851082}, "transactions": ["delivery"], "price": "$", "location": {"address1": "131 Van Rensselaer St", "address2": "", "address3": "", "city": "Buffalo", "zip_code": "14210", "country": "US", "state": "NY", "display_address": ["131 Van Rensselaer St", "Buffalo, NY 14210"]}, "phone": "+17168455400", "display_phone": "(716) 845-5400", "distance": 2071.976473658892}, {"id": "8Bu5Jf-rjLhAjRK_rc0KMQ", "alias": "the-31-club-buffalo-2", "name": "The 31 Club", "image_url": "https://s3-media2.fl.yelpcdn.com/bphoto/PiW1cx_TBMdDQiNU_yrk0g/o.jpg", "is_closed": false, "url": "https://www.yelp.com/biz/the-31-club-buffalo-2?adjust_creative=a2JdNtFqB-C38ga_06BHvw&utm_campaign=yelp_api_v3&utm_medium=api_v3_business_search&utm_source=a2JdNtFqB-C38ga_06BHvw", "review_count": 174, "categories": [{"alias": "italian", "title": "Italian"}, {"alias": "venues", "title": "Venues & Event Spaces"}, {"alias": "wine_bars", "title": "Wine Bars"}], "rating": 3.0, "coordinates": {"latitude": 42.8926354, "longitude": -78.8773298}, "transactions": ["delivery", "pickup"], "price": "$$$", "location": {"address1": "31 N Johnson Park", "address2": "", "address3": "", "city": "Buffalo", "zip_code": "14201", "country": "US", "state": "NY", "display_address": ["31 N Johnson Park", "Buffalo, NY 14201"]}, "phone": "+17163323131", "display_phone": "(716) 332-3131", "distance": 1969.2494594151703}, {"id": "24KTfn5oBHY0KjlG7_o4hw", "alias": "soho-buffalo-buffalo", "name": "Soho Buffalo", "image_url": "https://s3-media2.fl.yelpcdn.com/bphoto/VxhRKyYLiu9y2RmzxsvPhA/o.jpg", "is_closed": false, "url": "https://www.yelp.com/biz/soho-buffalo-buffalo?adjust_creative=a2JdNtFqB-C38ga_06BHvw&utm_campaign=yelp_api_v3&utm_medium=api_v3_business_search&utm_source=a2JdNtFqB-C38ga_06BHvw", "review_count": 203, "categories": [{"alias": "breakfast_brunch", "title": "Breakfast & Brunch"}, {"alias": "tradamerican", "title": "American (Traditional)"}, {"alias": "sportsbars", "title": "Sports Bars"}], "rating": 3.0, "coordinates": {"latitude": 42.890384, "longitude": -78.8754624}, "transactions": ["delivery", "pickup"], "price": "$$", "location": {"address1": "64 W Chippewa St", "address2": "", "address3": "", "city": "Buffalo", "zip_code": "14202", "country": "US", "state": "NY", "display_address": ["64 W Chippewa St", "Buffalo, NY 14202"]}, "phone": "+17168567646", "display_phone": "(716) 856-7646", "distance": 1712.2860617153565}, {"id": "3Wua1BUuLs1BnHZXzxKqtQ", "alias": "d-arcy-mcgees-irish-pub-buffalo", "name": "D'Arcy McGee's Irish Pub", "image_url": "https://s3-media3.fl.yelpcdn.com/bphoto/1PUG-uGlPkFdq6Ac3qAiZA/o.jpg", "is_closed": false, "url": "https://www.yelp.com/biz/d-arcy-mcgees-irish-pub-buffalo?adjust_creative=a2JdNtFqB-C38ga_06BHvw&utm_campaign=yelp_api_v3&utm_medium=api_v3_business_search&utm_source=a2JdNtFqB-C38ga_06BHvw", "review_count": 30, "categories": [{"alias": "pubs", "title": "Pubs"}, {"alias": "irish", "title": "Irish"}], "rating": 2.0, "coordinates": {"latitude": 42.89114, "longitude": -78.87463}, "transactions": ["delivery"], "price": "$$", "location": {"address1": "257 Franklin St", "address2": "", "address3": "", "city": "Buffalo", "zip_code": "14202", "country": "US", "state": "NY", "display_address": ["257 Franklin St", "Buffalo, NY 14202"]}, "phone": "+17168533600", "display_phone": "(716) 853-3600", "distance": 1800.817343950664}], "absolute total": 28, "total": 28}