{"league": "NHL", "team": "Carolina Hurricanes", "stadium": "PNC Arena", "stadium latitude": 35.803333, "stadium longitude": -78.721944, "radius": "3000 meters", "city": "Raleigh", "state": "North Carolina", "businesses": [{"id": "wEisEZAoUqxuL5Fa5U817A", "alias": "the-oak-raleigh-2", "name": "The Oak", "image_url": "https://s3-media2.fl.yelpcdn.com/bphoto/tqd1I342qUEnEzeMQyw_JQ/o.jpg", "is_closed": false, "url": "https://www.yelp.com/biz/the-oak-raleigh-2?adjust_creative=a2JdNtFqB-C38ga_06BHvw&utm_campaign=yelp_api_v3&utm_medium=api_v3_business_search&utm_source=a2JdNtFqB-C38ga_06BHvw", "review_count": 387, "categories": [{"alias": "newamerican", "title": "American (New)"}, {"alias": "breakfast_brunch", "title": "Breakfast & Brunch"}, {"alias": "cocktailbars", "title": "Cocktail Bars"}], "rating": 4.0, "coordinates": {"latitude": 35.8152502766058, "longitude": -78.6968978648733}, "transactions": ["delivery"], "price": "$$", "location": {"address1": "4035 Lake Boone Trl", "address2": "Ste 115", "address3": "", "city": "Raleigh", "zip_code": "27607", "country": "US", "state": "NC", "display_address": ["4035 Lake Boone Trl", "Ste 115", "Raleigh, NC 27607"]}, "phone": "+19197879100", "display_phone": "(919) 787-9100", "distance": 2618.5941925257857}, {"id": "gBLtnNdleGgfzou-1n2yVw", "alias": "bella-monica-raleigh", "name": "Bella Monica", "image_url": "https://s3-media3.fl.yelpcdn.com/bphoto/OBWLOzWtkfpgU6o-CQIZEQ/o.jpg", "is_closed": false, "url": "https://www.yelp.com/biz/bella-monica-raleigh?adjust_creative=a2JdNtFqB-C38ga_06BHvw&utm_campaign=yelp_api_v3&utm_medium=api_v3_business_search&utm_source=a2JdNtFqB-C38ga_06BHvw", "review_count": 483, "categories": [{"alias": "italian", "title": "Italian"}, {"alias": "pizza", "title": "Pizza"}, {"alias": "wine_bars", "title": "Wine Bars"}], "rating": 4.0, "coordinates": {"latitude": 35.8253816405571, "longitude": -78.706955909729}, "transactions": ["delivery"], "price": "$$", "location": {"address1": "3121-103 Edwards Mill Rd", "address2": "", "address3": "", "city": "Raleigh", "zip_code": "27612", "country": "US", "state": "NC", "display_address": ["3121-103 Edwards Mill Rd", "Raleigh, NC 27612"]}, "phone": "+19198819778", "display_phone": "(919) 881-9778", "distance": 2799.514845911601}, {"id": "qiL7qdwQZICyNRaK3sxpKQ", "alias": "drive-shack-raleigh-raleigh", "name": "Drive Shack Raleigh", "image_url": "https://s3-media1.fl.yelpcdn.com/bphoto/XewMhaCTiWIaVfQ56g5N1Q/o.jpg", "is_closed": false, "url": "https://www.yelp.com/biz/drive-shack-raleigh-raleigh?adjust_creative=a2JdNtFqB-C38ga_06BHvw&utm_campaign=yelp_api_v3&utm_medium=api_v3_business_search&utm_source=a2JdNtFqB-C38ga_06BHvw", "review_count": 228, "categories": [{"alias": "golf", "title": "Golf"}, {"alias": "sportsbars", "title": "Sports Bars"}, {"alias": "newamerican", "title": "American (New)"}], "rating": 3.5, "coordinates": {"latitude": 35.8001549, "longitude": -78.7377282}, "transactions": ["delivery"], "price": "$$", "location": {"address1": "6901 Play Golf Way", "address2": "", "address3": null, "city": "Raleigh", "zip_code": "27607", "country": "US", "state": "NC", "display_address": ["6901 Play Golf Way", "Raleigh, NC 27607"]}, "phone": "+19843298229", "display_phone": "(984) 329-8229", "distance": 1466.6934371333846}, {"id": "hVjXVnLAele62107K92QSg", "alias": "backyard-bistro-raleigh", "name": "Backyard Bistro", "image_url": "https://s3-media3.fl.yelpcdn.com/bphoto/ngHDRssgQwa63hE1E4fm3A/o.jpg", "is_closed": false, "url": "https://www.yelp.com/biz/backyard-bistro-raleigh?adjust_creative=a2JdNtFqB-C38ga_06BHvw&utm_campaign=yelp_api_v3&utm_medium=api_v3_business_search&utm_source=a2JdNtFqB-C38ga_06BHvw", "review_count": 266, "categories": [{"alias": "tradamerican", "title": "American (Traditional)"}, {"alias": "sportsbars", "title": "Sports Bars"}], "rating": 3.0, "coordinates": {"latitude": 35.7989654541016, "longitude": -78.7255477905273}, "transactions": ["pickup", "delivery"], "price": "$$", "location": {"address1": "1235 Hurricane Alley Way", "address2": "", "address3": "", "city": "Raleigh", "zip_code": "27607", "country": "US", "state": "NC", "display_address": ["1235 Hurricane Alley Way", "Raleigh, NC 27607"]}, "phone": "+19198516203", "display_phone": "(919) 851-6203", "distance": 573.7943645715287}, {"id": "1FpDx8M47V4pyU8WRkPvag", "alias": "buffalo-brothers-raleigh", "name": "Buffalo Brothers", "image_url": "https://s3-media2.fl.yelpcdn.com/bphoto/ius0vNQITe058z85R4C-zQ/o.jpg", "is_closed": false, "url": "https://www.yelp.com/biz/buffalo-brothers-raleigh?adjust_creative=a2JdNtFqB-C38ga_06BHvw&utm_campaign=yelp_api_v3&utm_medium=api_v3_business_search&utm_source=a2JdNtFqB-C38ga_06BHvw", "review_count": 177, "categories": [{"alias": "sportsbars", "title": "Sports Bars"}, {"alias": "tradamerican", "title": "American (Traditional)"}], "rating": 3.0, "coordinates": {"latitude": 35.81545, "longitude": -78.69647}, "transactions": ["pickup", "delivery"], "price": "$$", "location": {"address1": "4025 Lake Boone Trl", "address2": "Ste 101", "address3": "", "city": "Raleigh", "zip_code": "27607", "country": "US", "state": "NC", "display_address": ["4025 Lake Boone Trl", "Ste 101", "Raleigh, NC 27607"]}, "phone": "+19197824949", "display_phone": "(919) 782-4949", "distance": 2659.957409253382}, {"id": "vmyT6FrHQqyX1ACYOWzSzA", "alias": "rudinos-sports-corner-raleigh", "name": "Rudino's Sports Corner", "image_url": "https://s3-media4.fl.yelpcdn.com/bphoto/DuI8dqhfhT8mrrGznqM78A/o.jpg", "is_closed": false, "url": "https://www.yelp.com/biz/rudinos-sports-corner-raleigh?adjust_creative=a2JdNtFqB-C38ga_06BHvw&utm_campaign=yelp_api_v3&utm_medium=api_v3_business_search&utm_source=a2JdNtFqB-C38ga_06BHvw", "review_count": 81, "categories": [{"alias": "sandwiches", "title": "Sandwiches"}, {"alias": "pizza", "title": "Pizza"}, {"alias": "sportsbars", "title": "Sports Bars"}], "rating": 3.0, "coordinates": {"latitude": 35.82544, "longitude": -78.70695}, "transactions": ["delivery"], "price": "$$", "location": {"address1": "3101-101 Edwards Mill Rd", "address2": "", "address3": "Olde Raleigh Village", "city": "Raleigh", "zip_code": "27612", "country": "US", "state": "NC", "display_address": ["3101-101 Edwards Mill Rd", "Olde Raleigh Village", "Raleigh, NC 27612"]}, "phone": "+19197864235", "display_phone": "(919) 786-4235", "distance": 2720.243379426773}], "absolute total": 6, "total": 6}