{"league": "MLS", "team": "CF Montréal", "stadium": "Saputo Stadium", "stadium latitude": 45.563056, "stadium longitude": -73.5525, "radius": "3000 meters", "city": "Montreal", "state": "Quebec", "businesses": [{"id": "X2bUZ2udFByvLlKs0FUMYw", "alias": "boswell-montréal-5", "name": "Boswell", "image_url": "https://s3-media1.fl.yelpcdn.com/bphoto/aJgkSMtXIwfO451j0qSoBw/o.jpg", "is_closed": false, "url": "https://www.yelp.com/biz/boswell-montr%C3%A9al-5?adjust_creative=a2JdNtFqB-C38ga_06BHvw&utm_campaign=yelp_api_v3&utm_medium=api_v3_business_search&utm_source=a2JdNtFqB-C38ga_06BHvw", "review_count": 44, "categories": [{"alias": "pubs", "title": "Pubs"}, {"alias": "brasseries", "title": "Brasseries"}, {"alias": "breweries", "title": "Breweries"}], "rating": 4.5, "coordinates": {"latitude": 45.5384, "longitude": -73.56974}, "transactions": [], "price": "$$", "location": {"address1": "2407 Avenue du Mont-Royal E", "address2": null, "address3": "", "city": "Montreal", "zip_code": "H2H 1L2", "country": "CA", "state": "QC", "display_address": ["2407 Avenue du Mont-Royal E", "Montreal, QC H2H 1L2", "Canada"]}, "phone": "+14383864661", "display_phone": "+1 438-386-4661", "distance": 3053.675870902035}, {"id": "MikiqSyk81UYT2Xd70xCog", "alias": "la-bella-italiana-montreal-3", "name": "La Bella Italiana", "image_url": "https://s3-media3.fl.yelpcdn.com/bphoto/DotIj-Alu0LCosft5TW7CA/o.jpg", "is_closed": false, "url": "https://www.yelp.com/biz/la-bella-italiana-montreal-3?adjust_creative=a2JdNtFqB-C38ga_06BHvw&utm_campaign=yelp_api_v3&utm_medium=api_v3_business_search&utm_source=a2JdNtFqB-C38ga_06BHvw", "review_count": 28, "categories": [{"alias": "italian", "title": "Italian"}, {"alias": "pizza", "title": "Pizza"}, {"alias": "wine_bars", "title": "Wine Bars"}], "rating": 4.5, "coordinates": {"latitude": 45.58572930784041, "longitude": -73.579659}, "transactions": [], "price": "$$", "location": {"address1": "5884 Rue Jean Talon E", "address2": "", "address3": "", "city": "Montreal", "zip_code": "H1S 1M2", "country": "CA", "state": "QC", "display_address": ["5884 Rue Jean Talon E", "Montreal, QC H1S 1M2", "Canada"]}, "phone": "+15142544811", "display_phone": "+1 514-254-4811", "distance": 3290.1082657273423}, {"id": "dMzCK_iRUsSkz89UfMUcgA", "alias": "fusion-latino-montréal", "name": "Fusion Latino", "image_url": "https://s3-media3.fl.yelpcdn.com/bphoto/I2uEZG1cLRs-Ijde9WCHqQ/o.jpg", "is_closed": false, "url": "https://www.yelp.com/biz/fusion-latino-montr%C3%A9al?adjust_creative=a2JdNtFqB-C38ga_06BHvw&utm_campaign=yelp_api_v3&utm_medium=api_v3_business_search&utm_source=a2JdNtFqB-C38ga_06BHvw", "review_count": 14, "categories": [{"alias": "mexican", "title": "Mexican"}, {"alias": "cocktailbars", "title": "Cocktail Bars"}], "rating": 5.0, "coordinates": {"latitude": 45.542647, "longitude": -73.5462}, "transactions": [], "location": {"address1": "3336 Rue Ontario E", "address2": "", "address3": null, "city": "Montreal", "zip_code": "H1W 1P7", "country": "CA", "state": "QC", "display_address": ["3336 Rue Ontario E", "Montreal, QC H1W 1P7", "Canada"]}, "phone": "+15145222397", "display_phone": "+1 514-522-2397", "distance": 2321.7872524616523}, {"id": "Akhq4AKxKRDPa6BHpiSEVQ", "alias": "pot-masson-montréal", "name": "Pot Masson", "image_url": "https://s3-media1.fl.yelpcdn.com/bphoto/GWS2nC5jaZTMl7FXiFt3kQ/o.jpg", "is_closed": false, "url": "https://www.yelp.com/biz/pot-masson-montr%C3%A9al?adjust_creative=a2JdNtFqB-C38ga_06BHvw&utm_campaign=yelp_api_v3&utm_medium=api_v3_business_search&utm_source=a2JdNtFqB-C38ga_06BHvw", "review_count": 44, "categories": [{"alias": "cocktailbars", "title": "Cocktail Bars"}, {"alias": "newcanadian", "title": "Canadian (New)"}, {"alias": "breakfast_brunch", "title": "Breakfast & Brunch"}], "rating": 3.5, "coordinates": {"latitude": 45.54976, "longitude": -73.5742}, "transactions": [], "price": "$", "location": {"address1": "3141 Rue Masson", "address2": "", "address3": "", "city": "Montreal", "zip_code": "H1Y 1X9", "country": "CA", "state": "QC", "display_address": ["3141 Rue Masson", "Montreal, QC H1Y 1X9", "Canada"]}, "phone": "+15149034585", "display_phone": "+1 514-903-4585", "distance": 2244.5744148326535}], "absolute total": 4, "total": 4}