{"league": "MLB", "team": "Chicago White Sox", "stadium": "Guaranteed Rate Field", "stadium latitude": 41.83, "stadium longitude": -87.633889, "radius": "3000 meters", "city": "Chicago", "state": "Illinois", "businesses": [{"id": "tQoQbc3vAo3qdTDiNgSekA", "alias": "pleasant-house-pub-chicago-3", "name": "Pleasant House Pub", "image_url": "https://s3-media3.fl.yelpcdn.com/bphoto/qzQBx5S6C-Vm9xhlPEozQQ/o.jpg", "is_closed": false, "url": "https://www.yelp.com/biz/pleasant-house-pub-chicago-3?adjust_creative=a2JdNtFqB-C38ga_06BHvw&utm_campaign=yelp_api_v3&utm_medium=api_v3_business_search&utm_source=a2JdNtFqB-C38ga_06BHvw", "review_count": 808, "categories": [{"alias": "british", "title": "British"}, {"alias": "pubs", "title": "Pubs"}, {"alias": "breakfast_brunch", "title": "Breakfast & Brunch"}], "rating": 4.5, "coordinates": {"latitude": 41.85357, "longitude": -87.64621}, "transactions": ["pickup", "delivery"], "price": "$$", "location": {"address1": "2119 S Halsted St", "address2": "", "address3": null, "city": "Chicago", "zip_code": "60608", "country": "US", "state": "IL", "display_address": ["2119 S Halsted St", "Chicago, IL 60608"]}, "phone": "+17735237437", "display_phone": "(773) 523-7437", "distance": 2813.0613596464714}, {"id": "2mXTTmT65KzUCf_2l-VS-w", "alias": "the-duck-inn-chicago", "name": "The Duck Inn", "image_url": "https://s3-media4.fl.yelpcdn.com/bphoto/X937p3mr0sZirw3hnc_PvQ/o.jpg", "is_closed": false, "url": "https://www.yelp.com/biz/the-duck-inn-chicago?adjust_creative=a2JdNtFqB-C38ga_06BHvw&utm_campaign=yelp_api_v3&utm_medium=api_v3_business_search&utm_source=a2JdNtFqB-C38ga_06BHvw", "review_count": 482, "categories": [{"alias": "cocktailbars", "title": "Cocktail Bars"}, {"alias": "newamerican", "title": "American (New)"}], "rating": 4.0, "coordinates": {"latitude": 41.8444817593219, "longitude": -87.6601841065537}, "transactions": ["pickup", "delivery"], "price": "$$$", "location": {"address1": "2701 S Eleanor", "address2": "", "address3": "", "city": "Chicago", "zip_code": "60608", "country": "US", "state": "IL", "display_address": ["2701 S Eleanor", "Chicago, IL 60608"]}, "phone": "+13127248811", "display_phone": "(312) 724-8811", "distance": 2708.9748000081026}, {"id": "Ocayko4Wvm2Oz7-RGx91kw", "alias": "del-toro-chicago-4", "name": "Del Toro", "image_url": "https://s3-media3.fl.yelpcdn.com/bphoto/AHn23KERf_iHlEdEP9jFgQ/o.jpg", "is_closed": false, "url": "https://www.yelp.com/biz/del-toro-chicago-4?adjust_creative=a2JdNtFqB-C38ga_06BHvw&utm_campaign=yelp_api_v3&utm_medium=api_v3_business_search&utm_source=a2JdNtFqB-C38ga_06BHvw", "review_count": 410, "categories": [{"alias": "burgers", "title": "Burgers"}, {"alias": "mexican", "title": "Mexican"}, {"alias": "cocktailbars", "title": "Cocktail Bars"}], "rating": 4.0, "coordinates": {"latitude": 41.85324, "longitude": -87.6462}, "transactions": ["delivery"], "price": "$$", "location": {"address1": "2133 S Halsted St", "address2": "", "address3": "", "city": "Chicago", "zip_code": "60608", "country": "US", "state": "IL", "display_address": ["2133 S Halsted St", "Chicago, IL 60608"]}, "phone": "+13127337144", "display_phone": "(312) 733-7144", "distance": 2776.931268622325}, {"id": "J2k5JinpSnwiwD0Q_q5taw", "alias": "shinya-ramen-house-chicago-3", "name": "Shinya Ramen House", "image_url": "https://s3-media3.fl.yelpcdn.com/bphoto/-8RKVolLOXfhSE7ZeG_Gfg/o.jpg", "is_closed": false, "url": "https://www.yelp.com/biz/shinya-ramen-house-chicago-3?adjust_creative=a2JdNtFqB-C38ga_06BHvw&utm_campaign=yelp_api_v3&utm_medium=api_v3_business_search&utm_source=a2JdNtFqB-C38ga_06BHvw", "review_count": 153, "categories": [{"alias": "ramen", "title": "Ramen"}, {"alias": "cocktailbars", "title": "Cocktail Bars"}, {"alias": "izakaya", "title": "Izakaya"}], "rating": 4.0, "coordinates": {"latitude": 41.8352, "longitude": -87.64657}, "transactions": ["pickup", "delivery"], "price": "$$", "location": {"address1": "3240 S Halsted St", "address2": "", "address3": null, "city": "Chicago", "zip_code": "60608", "country": "US", "state": "IL", "display_address": ["3240 S Halsted St", "Chicago, IL 60608"]}, "phone": "+13128776008", "display_phone": "(312) 877-6008", "distance": 1189.9333314502833}, {"id": "-XZBa3OugiXRAQGrrl-kCg", "alias": "ballpark-pub-chicago", "name": "BallPark Pub", "image_url": "https://s3-media2.fl.yelpcdn.com/bphoto/eToszHt_UR69oJzwNCUomQ/o.jpg", "is_closed": false, "url": "https://www.yelp.com/biz/ballpark-pub-chicago?adjust_creative=a2JdNtFqB-C38ga_06BHvw&utm_campaign=yelp_api_v3&utm_medium=api_v3_business_search&utm_source=a2JdNtFqB-C38ga_06BHvw", "review_count": 36, "categories": [{"alias": "pubs", "title": "Pubs"}, {"alias": "tradamerican", "title": "American (Traditional)"}], "rating": 4.5, "coordinates": {"latitude": 41.823653, "longitude": -87.639521}, "transactions": ["pickup", "delivery"], "price": "$$", "location": {"address1": "514 W Pershing Rd", "address2": null, "address3": "", "city": "Chicago", "zip_code": "60609", "country": "US", "state": "IL", "display_address": ["514 W Pershing Rd", "Chicago, IL 60609"]}, "phone": "+17736754687", "display_phone": "(773) 675-4687", "distance": 846.0837829478788}, {"id": "WHAfE5eC_fmmFzayu9j91g", "alias": "fat-fish-bar-and-grill-chicago", "name": "Fat Fish Bar and Grill", "image_url": "https://s3-media2.fl.yelpcdn.com/bphoto/Zx5LjiXMxeSretw25IUkHA/o.jpg", "is_closed": false, "url": "https://www.yelp.com/biz/fat-fish-bar-and-grill-chicago?adjust_creative=a2JdNtFqB-C38ga_06BHvw&utm_campaign=yelp_api_v3&utm_medium=api_v3_business_search&utm_source=a2JdNtFqB-C38ga_06BHvw", "review_count": 142, "categories": [{"alias": "seafood", "title": "Seafood"}, {"alias": "sportsbars", "title": "Sports Bars"}], "rating": 4.0, "coordinates": {"latitude": 41.83846, "longitude": -87.63303}, "transactions": ["delivery"], "price": "$$", "location": {"address1": "234 W 31st St", "address2": null, "address3": "", "city": "Chicago", "zip_code": "60616", "country": "US", "state": "IL", "display_address": ["234 W 31st St", "Chicago, IL 60616"]}, "phone": "+13128429200", "display_phone": "(312) 842-9200", "distance": 935.546804778573}, {"id": "DMQw8VjAhyffQW9_iaWudw", "alias": "mitchells-tap-chicago", "name": "Mitchell's Tap", "image_url": "https://s3-media3.fl.yelpcdn.com/bphoto/0un4pORBhxUDlnl5BL491A/o.jpg", "is_closed": false, "url": "https://www.yelp.com/biz/mitchells-tap-chicago?adjust_creative=a2JdNtFqB-C38ga_06BHvw&utm_campaign=yelp_api_v3&utm_medium=api_v3_business_search&utm_source=a2JdNtFqB-C38ga_06BHvw", "review_count": 68, "categories": [{"alias": "sportsbars", "title": "Sports Bars"}, {"alias": "tradamerican", "title": "American (Traditional)"}], "rating": 4.0, "coordinates": {"latitude": 41.83315, "longitude": -87.64652}, "transactions": ["delivery"], "price": "$", "location": {"address1": "3356 S Halsted St", "address2": "", "address3": "", "city": "Chicago", "zip_code": "60608", "country": "US", "state": "IL", "display_address": ["3356 S Halsted St", "Chicago, IL 60608"]}, "phone": "+17739276073", "display_phone": "(773) 927-6073", "distance": 1097.8231330273532}, {"id": "MEHqC12x44q3Gu9lA_Cnog", "alias": "the-bureau-bar-and-restaurant-chicago-2", "name": "The Bureau Bar and Restaurant", "image_url": "https://s3-media1.fl.yelpcdn.com/bphoto/sWod-A1BFImgwtBBN-WwkQ/o.jpg", "is_closed": false, "url": "https://www.yelp.com/biz/the-bureau-bar-and-restaurant-chicago-2?adjust_creative=a2JdNtFqB-C38ga_06BHvw&utm_campaign=yelp_api_v3&utm_medium=api_v3_business_search&utm_source=a2JdNtFqB-C38ga_06BHvw", "review_count": 40, "categories": [{"alias": "pastashops", "title": "Pasta Shops"}, {"alias": "tradamerican", "title": "American (Traditional)"}, {"alias": "cocktailbars", "title": "Cocktail Bars"}], "rating": 3.5, "coordinates": {"latitude": 41.853602, "longitude": -87.626762}, "transactions": ["pickup", "delivery"], "location": {"address1": "2115 S State St", "address2": "", "address3": null, "city": "Chicago", "zip_code": "60616", "country": "US", "state": "IL", "display_address": ["2115 S State St", "Chicago, IL 60616"]}, "phone": "+13128775122", "display_phone": "(312) 877-5122", "distance": 2701.520268534499}, {"id": "xVxhUbwJf3rqmon5s1tdHw", "alias": "stadium-club-at-us-cellular-field-chicago", "name": "Stadium Club at US Cellular Field", "image_url": "https://s3-media2.fl.yelpcdn.com/bphoto/frxbK3FypRwnT_qkJQQohA/o.jpg", "is_closed": false, "url": "https://www.yelp.com/biz/stadium-club-at-us-cellular-field-chicago?adjust_creative=a2JdNtFqB-C38ga_06BHvw&utm_campaign=yelp_api_v3&utm_medium=api_v3_business_search&utm_source=a2JdNtFqB-C38ga_06BHvw", "review_count": 43, "categories": [{"alias": "sportsbars", "title": "Sports Bars"}, {"alias": "tradamerican", "title": "American (Traditional)"}], "rating": 3.5, "coordinates": {"latitude": 41.830085, "longitude": -87.633779}, "transactions": [], "price": "$$", "location": {"address1": "333 W 35th St", "address2": "", "address3": "", "city": "Chicago", "zip_code": "60616", "country": "US", "state": "IL", "display_address": ["333 W 35th St", "Chicago, IL 60616"]}, "phone": "+13126745151", "display_phone": "(312) 674-5151", "distance": 13.12997432726197}], "absolute total": 9, "total": 9}