{"league": "NFL", "team": "Cleveland Browns", "stadium": "FirstEnergy Stadium", "stadium latitude": 41.506111, "stadium longitude": -81.699444, "radius": "3000 meters", "city": "Cleveland", "state": "Ohio", "businesses": [{"id": "32DUrg5Thezf1eGsWK6Gdw", "alias": "moes-tavern-brewing-cleveland-2", "name": "Moes Tavern Brewing", "image_url": "https://s3-media2.fl.yelpcdn.com/bphoto/XRJr4fUwbcEUIFZvM5Veqg/o.jpg", "is_closed": false, "url": "https://www.yelp.com/biz/moes-tavern-brewing-cleveland-2?adjust_creative=a2JdNtFqB-C38ga_06BHvw&utm_campaign=yelp_api_v3&utm_medium=api_v3_business_search&utm_source=a2JdNtFqB-C38ga_06BHvw", "review_count": 48, "categories": [{"alias": "pizza", "title": "Pizza"}, {"alias": "cocktailbars", "title": "Cocktail Bars"}, {"alias": "beerbar", "title": "Beer Bar"}], "rating": 5.0, "coordinates": {"latitude": 41.50395274912079, "longitude": -81.6806362}, "transactions": ["delivery"], "price": "$$", "location": {"address1": "1740 E 17th St", "address2": null, "address3": null, "city": "Cleveland", "zip_code": "44114", "country": "US", "state": "OH", "display_address": ["1740 E 17th St", "Cleveland, OH 44114"]}, "phone": "+14405251041", "display_phone": "(440) 525-1041", "distance": 1584.471350840027}, {"id": "nu8qBc0_l6pCJ2czD1Lxyw", "alias": "avo-modern-mexican-cleveland", "name": "Avo Modern Mexican", "image_url": "https://s3-media2.fl.yelpcdn.com/bphoto/LjUlaZqvxn4-vc3xWHnJUA/o.jpg", "is_closed": false, "url": "https://www.yelp.com/biz/avo-modern-mexican-cleveland?adjust_creative=a2JdNtFqB-C38ga_06BHvw&utm_campaign=yelp_api_v3&utm_medium=api_v3_business_search&utm_source=a2JdNtFqB-C38ga_06BHvw", "review_count": 43, "categories": [{"alias": "newmexican", "title": "New Mexican Cuisine"}, {"alias": "cocktailbars", "title": "Cocktail Bars"}], "rating": 4.5, "coordinates": {"latitude": 41.48334, "longitude": -81.70293}, "transactions": ["delivery"], "location": {"address1": "2058 W 25th St", "address2": null, "address3": "", "city": "Cleveland", "zip_code": "44113", "country": "US", "state": "OH", "display_address": ["2058 W 25th St", "Cleveland, OH 44113"]}, "phone": "+12163316961", "display_phone": "(216) 331-6961", "distance": 2549.185125222348}, {"id": "vdloJPM3bSpQTMlwdFek2A", "alias": "butcher-and-the-brewer-cleveland", "name": "Butcher and the Brewer", "image_url": "https://s3-media3.fl.yelpcdn.com/bphoto/HwBnXPqJpfwakFC--N84OA/o.jpg", "is_closed": false, "url": "https://www.yelp.com/biz/butcher-and-the-brewer-cleveland?adjust_creative=a2JdNtFqB-C38ga_06BHvw&utm_campaign=yelp_api_v3&utm_medium=api_v3_business_search&utm_source=a2JdNtFqB-C38ga_06BHvw", "review_count": 724, "categories": [{"alias": "newamerican", "title": "American (New)"}, {"alias": "pubs", "title": "Pubs"}, {"alias": "breweries", "title": "Breweries"}], "rating": 4.0, "coordinates": {"latitude": 41.4992176741362, "longitude": -81.6901288926601}, "transactions": ["delivery"], "price": "$$", "location": {"address1": "2043 E 4th St", "address2": "", "address3": "", "city": "Cleveland", "zip_code": "44115", "country": "US", "state": "OH", "display_address": ["2043 E 4th St", "Cleveland, OH 44115"]}, "phone": "+12163310805", "display_phone": "(216) 331-0805", "distance": 1090.5422881225786}, {"id": "o4HbgQnUkYnTLsbb6K5hjg", "alias": "society-lounge-cleveland", "name": "Society Lounge", "image_url": "https://s3-media1.fl.yelpcdn.com/bphoto/PYjONUhU9d4UUA9_GI3v3w/o.jpg", "is_closed": false, "url": "https://www.yelp.com/biz/society-lounge-cleveland?adjust_creative=a2JdNtFqB-C38ga_06BHvw&utm_campaign=yelp_api_v3&utm_medium=api_v3_business_search&utm_source=a2JdNtFqB-C38ga_06BHvw", "review_count": 259, "categories": [{"alias": "lounges", "title": "Lounges"}, {"alias": "newamerican", "title": "American (New)"}, {"alias": "cocktailbars", "title": "Cocktail Bars"}], "rating": 4.0, "coordinates": {"latitude": 41.4990300478702, "longitude": -81.6900841240656}, "transactions": ["delivery"], "price": "$$", "location": {"address1": "2063 E 4th St", "address2": null, "address3": "", "city": "Cleveland", "zip_code": "44115", "country": "US", "state": "OH", "display_address": ["2063 E 4th St", "Cleveland, OH 44115"]}, "phone": "+12167819050", "display_phone": "(216) 781-9050", "distance": 1107.9263003808676}, {"id": "T4OTL7ZGe-UTrpWl3KwZOA", "alias": "market-avenue-wine-bar-cleveland", "name": "Market Avenue Wine Bar", "image_url": "https://s3-media4.fl.yelpcdn.com/bphoto/CnG5k-k59HsiaE6FHpRclQ/o.jpg", "is_closed": false, "url": "https://www.yelp.com/biz/market-avenue-wine-bar-cleveland?adjust_creative=a2JdNtFqB-C38ga_06BHvw&utm_campaign=yelp_api_v3&utm_medium=api_v3_business_search&utm_source=a2JdNtFqB-C38ga_06BHvw", "review_count": 100, "categories": [{"alias": "wine_bars", "title": "Wine Bars"}, {"alias": "tapasmallplates", "title": "Tapas/Small Plates"}], "rating": 4.5, "coordinates": {"latitude": 41.4843, "longitude": -81.70404}, "transactions": ["delivery"], "price": "$$", "location": {"address1": "2521 Market Ave", "address2": "", "address3": "", "city": "Cleveland", "zip_code": "44113", "country": "US", "state": "OH", "display_address": ["2521 Market Ave", "Cleveland, OH 44113"]}, "phone": "+12166969463", "display_phone": "(216) 696-9463", "distance": 2471.975822052358}, {"id": "oODLpNDZwO8nU4jZDWRlVA", "alias": "blue-habanero-cleveland", "name": "Blue Habanero", "image_url": "https://s3-media1.fl.yelpcdn.com/bphoto/hPm9SdYncigqtMTnq4gOyw/o.jpg", "is_closed": false, "url": "https://www.yelp.com/biz/blue-habanero-cleveland?adjust_creative=a2JdNtFqB-C38ga_06BHvw&utm_campaign=yelp_api_v3&utm_medium=api_v3_business_search&utm_source=a2JdNtFqB-C38ga_06BHvw", "review_count": 178, "categories": [{"alias": "newmexican", "title": "New Mexican Cuisine"}, {"alias": "tacos", "title": "Tacos"}, {"alias": "cocktailbars", "title": "Cocktail Bars"}], "rating": 4.0, "coordinates": {"latitude": 41.48424, "longitude": -81.73008}, "transactions": ["delivery", "restaurant_reservation", "pickup"], "price": "$$", "location": {"address1": "6416 Detroit Ave", "address2": null, "address3": "", "city": "Cleveland", "zip_code": "44102", "country": "US", "state": "OH", "display_address": ["6416 Detroit Ave", "Cleveland, OH 44102"]}, "phone": "+12164651818", "display_phone": "(216) 465-1818", "distance": 3509.3864708958527}, {"id": "jAhWofys8yG3ueMoXO00wg", "alias": "a-j-roccos-cleveland-2", "name": "A J Rocco's", "image_url": "https://s3-media1.fl.yelpcdn.com/bphoto/JsDFW2G2mD5V2NszNEQ0Gw/o.jpg", "is_closed": false, "url": "https://www.yelp.com/biz/a-j-roccos-cleveland-2?adjust_creative=a2JdNtFqB-C38ga_06BHvw&utm_campaign=yelp_api_v3&utm_medium=api_v3_business_search&utm_source=a2JdNtFqB-C38ga_06BHvw", "review_count": 41, "categories": [{"alias": "coffee", "title": "Coffee & Tea"}, {"alias": "pubs", "title": "Pubs"}, {"alias": "pizza", "title": "Pizza"}], "rating": 4.5, "coordinates": {"latitude": 41.49847548593111, "longitude": -81.68614640199885}, "transactions": ["delivery"], "price": "$", "location": {"address1": "816 Huron Rd E", "address2": "", "address3": "", "city": "Cleveland", "zip_code": "44115", "country": "US", "state": "OH", "display_address": ["816 Huron Rd E", "Cleveland, OH 44115"]}, "phone": "", "display_phone": "", "distance": 1395.4037280546718}, {"id": "ObelBwE40B5oYm2aA8yTjw", "alias": "the-harp-cleveland", "name": "The Harp", "image_url": "https://s3-media3.fl.yelpcdn.com/bphoto/utm_L32mtLd-8Ip_DYwVPA/o.jpg", "is_closed": false, "url": "https://www.yelp.com/biz/the-harp-cleveland?adjust_creative=a2JdNtFqB-C38ga_06BHvw&utm_campaign=yelp_api_v3&utm_medium=api_v3_business_search&utm_source=a2JdNtFqB-C38ga_06BHvw", "review_count": 169, "categories": [{"alias": "irish", "title": "Irish"}, {"alias": "pubs", "title": "Pubs"}], "rating": 4.0, "coordinates": {"latitude": 41.4877586364746, "longitude": -81.7169876098633}, "transactions": ["delivery"], "price": "$$", "location": {"address1": "4408 Detroit Ave", "address2": "", "address3": "", "city": "Cleveland", "zip_code": "44113", "country": "US", "state": "OH", "display_address": ["4408 Detroit Ave", "Cleveland, OH 44113"]}, "phone": "+12169390200", "display_phone": "(216) 939-0200", "distance": 2504.808087711757}, {"id": "wSAGILK2CFbq5BVZ5D67-A", "alias": "adega-cleveland", "name": "Adega", "image_url": "https://s3-media4.fl.yelpcdn.com/bphoto/yp5Deu4qNR6VlYlvRk1fBg/o.jpg", "is_closed": false, "url": "https://www.yelp.com/biz/adega-cleveland?adjust_creative=a2JdNtFqB-C38ga_06BHvw&utm_campaign=yelp_api_v3&utm_medium=api_v3_business_search&utm_source=a2JdNtFqB-C38ga_06BHvw", "review_count": 228, "categories": [{"alias": "modern_european", "title": "Modern European"}, {"alias": "cocktailbars", "title": "Cocktail Bars"}], "rating": 4.0, "coordinates": {"latitude": 41.499615, "longitude": -81.685922}, "transactions": ["delivery", "pickup"], "price": "$$$", "location": {"address1": "2017 E 9th St", "address2": "", "address3": "", "city": "Cleveland", "zip_code": "44115", "country": "US", "state": "OH", "display_address": ["2017 E 9th St", "Cleveland, OH 44115"]}, "phone": "+12163316289", "display_phone": "(216) 331-6289", "distance": 1337.8207075302025}, {"id": "MX3TL4-ij22rLFBD1XjKGw", "alias": "fahrenheit-cleveland-2", "name": "Fahrenheit", "image_url": "https://s3-media1.fl.yelpcdn.com/bphoto/ddUNj0GzGKNz4AcDowNB3Q/o.jpg", "is_closed": false, "url": "https://www.yelp.com/biz/fahrenheit-cleveland-2?adjust_creative=a2JdNtFqB-C38ga_06BHvw&utm_campaign=yelp_api_v3&utm_medium=api_v3_business_search&utm_source=a2JdNtFqB-C38ga_06BHvw", "review_count": 324, "categories": [{"alias": "newamerican", "title": "American (New)"}, {"alias": "seafood", "title": "Seafood"}, {"alias": "cocktailbars", "title": "Cocktail Bars"}], "rating": 4.0, "coordinates": {"latitude": 41.479689, "longitude": -81.684498}, "transactions": ["delivery"], "price": "$$$", "location": {"address1": "2417 Professor Ave", "address2": "", "address3": "", "city": "Cleveland", "zip_code": "44113", "country": "US", "state": "OH", "display_address": ["2417 Professor Ave", "Cleveland, OH 44113"]}, "phone": "+12167818858", "display_phone": "(216) 781-8858", "distance": 3190.8312687441107}, {"id": "yTv4ptghx8xrErx6dcW3HA", "alias": "toast-cleveland", "name": "Toast", "image_url": "https://s3-media2.fl.yelpcdn.com/bphoto/BRfrGTvHGTAR1Yt-7AqhNg/o.jpg", "is_closed": false, "url": "https://www.yelp.com/biz/toast-cleveland?adjust_creative=a2JdNtFqB-C38ga_06BHvw&utm_campaign=yelp_api_v3&utm_medium=api_v3_business_search&utm_source=a2JdNtFqB-C38ga_06BHvw", "review_count": 157, "categories": [{"alias": "wine_bars", "title": "Wine Bars"}, {"alias": "breakfast_brunch", "title": "Breakfast & Brunch"}, {"alias": "tradamerican", "title": "American (Traditional)"}], "rating": 4.0, "coordinates": {"latitude": 41.4849891662598, "longitude": -81.7299499511719}, "transactions": ["delivery"], "price": "$$", "location": {"address1": "1365 W 65th St", "address2": null, "address3": "", "city": "Cleveland", "zip_code": "44102", "country": "US", "state": "OH", "display_address": ["1365 W 65th St", "Cleveland, OH 44102"]}, "phone": "+12168628974", "display_phone": "(216) 862-8974", "distance": 3462.1216843060824}, {"id": "pM5OiwjOih7twp4mP0Rmhw", "alias": "the-old-angle-tavern-cleveland", "name": "The Old Angle Tavern", "image_url": "https://s3-media1.fl.yelpcdn.com/bphoto/V4ZhXjq-3Xi2psUFk4pHbQ/o.jpg", "is_closed": false, "url": "https://www.yelp.com/biz/the-old-angle-tavern-cleveland?adjust_creative=a2JdNtFqB-C38ga_06BHvw&utm_campaign=yelp_api_v3&utm_medium=api_v3_business_search&utm_source=a2JdNtFqB-C38ga_06BHvw", "review_count": 99, "categories": [{"alias": "tradamerican", "title": "American (Traditional)"}, {"alias": "pubs", "title": "Pubs"}], "rating": 4.0, "coordinates": {"latitude": 41.4859, "longitude": -81.70516}, "transactions": ["delivery"], "price": "$$", "location": {"address1": "1848 W 25th St", "address2": "", "address3": "", "city": "Cleveland", "zip_code": "44113", "country": "US", "state": "OH", "display_address": ["1848 W 25th St", "Cleveland, OH 44113"]}, "phone": "+12168615643", "display_phone": "(216) 861-5643", "distance": 2295.07410998897}, {"id": "qDqHD4iPXPecT1WnV0JRzA", "alias": "bin-216-cleveland", "name": "Bin 216", "image_url": "https://s3-media2.fl.yelpcdn.com/bphoto/cuNcXIjxkRyWvFBGqLZ31A/o.jpg", "is_closed": false, "url": "https://www.yelp.com/biz/bin-216-cleveland?adjust_creative=a2JdNtFqB-C38ga_06BHvw&utm_campaign=yelp_api_v3&utm_medium=api_v3_business_search&utm_source=a2JdNtFqB-C38ga_06BHvw", "review_count": 95, "categories": [{"alias": "tapasmallplates", "title": "Tapas/Small Plates"}, {"alias": "wine_bars", "title": "Wine Bars"}], "rating": 4.0, "coordinates": {"latitude": 41.5010234713554, "longitude": -81.6811421513557}, "transactions": ["delivery"], "price": "$$", "location": {"address1": "1515 Euclid Ave", "address2": "", "address3": "", "city": "Cleveland", "zip_code": "44115", "country": "US", "state": "OH", "display_address": ["1515 Euclid Ave", "Cleveland, OH 44115"]}, "phone": "+12168600530", "display_phone": "(216) 860-0530", "distance": 1641.277683291505}, {"id": "W1hXfgnugKfVV1wDhko5lw", "alias": "flat-iron-café-cleveland-2", "name": "Flat Iron Café", "image_url": "https://s3-media3.fl.yelpcdn.com/bphoto/RR4mMrosHlJ-RTNHagmWQg/o.jpg", "is_closed": false, "url": "https://www.yelp.com/biz/flat-iron-caf%C3%A9-cleveland-2?adjust_creative=a2JdNtFqB-C38ga_06BHvw&utm_campaign=yelp_api_v3&utm_medium=api_v3_business_search&utm_source=a2JdNtFqB-C38ga_06BHvw", "review_count": 92, "categories": [{"alias": "pubs", "title": "Pubs"}, {"alias": "irish", "title": "Irish"}], "rating": 4.0, "coordinates": {"latitude": 41.4943149, "longitude": -81.7015377}, "transactions": ["delivery"], "price": "$$", "location": {"address1": "1114 Center St", "address2": "", "address3": "", "city": "Cleveland", "zip_code": "44113", "country": "US", "state": "OH", "display_address": ["1114 Center St", "Cleveland, OH 44113"]}, "phone": "+12166966968", "display_phone": "(216) 696-6968", "distance": 1329.0861548568182}, {"id": "qZZ8VU1Bk-xCruEAZNwm6A", "alias": "sainatos-at-rivergate-cleveland-3", "name": "Sainato's at Rivergate", "image_url": "https://s3-media4.fl.yelpcdn.com/bphoto/3nDxeVdWrm48joFgDAkZAQ/o.jpg", "is_closed": false, "url": "https://www.yelp.com/biz/sainatos-at-rivergate-cleveland-3?adjust_creative=a2JdNtFqB-C38ga_06BHvw&utm_campaign=yelp_api_v3&utm_medium=api_v3_business_search&utm_source=a2JdNtFqB-C38ga_06BHvw", "review_count": 107, "categories": [{"alias": "pizza", "title": "Pizza"}, {"alias": "sportsbars", "title": "Sports Bars"}, {"alias": "italian", "title": "Italian"}], "rating": 4.0, "coordinates": {"latitude": 41.4892123, "longitude": -81.7008022}, "transactions": ["delivery", "pickup"], "price": "$$", "location": {"address1": "1852 Columbus Rd", "address2": "", "address3": "", "city": "Cleveland", "zip_code": "44113", "country": "US", "state": "OH", "display_address": ["1852 Columbus Rd", "Cleveland, OH 44113"]}, "phone": "+12167724400", "display_phone": "(216) 772-4400", "distance": 1882.4491925096893}, {"id": "wmstf9dw0-kN3YThIxx8eQ", "alias": "stone-mad-pub-cleveland", "name": "Stone Mad Pub", "image_url": "https://s3-media4.fl.yelpcdn.com/bphoto/zAmjc6DkUuxZmWVBflFGSw/o.jpg", "is_closed": false, "url": "https://www.yelp.com/biz/stone-mad-pub-cleveland?adjust_creative=a2JdNtFqB-C38ga_06BHvw&utm_campaign=yelp_api_v3&utm_medium=api_v3_business_search&utm_source=a2JdNtFqB-C38ga_06BHvw", "review_count": 175, "categories": [{"alias": "pubs", "title": "Pubs"}, {"alias": "irish", "title": "Irish"}], "rating": 3.5, "coordinates": {"latitude": 41.4867068, "longitude": -81.7304104}, "transactions": ["delivery"], "price": "$$", "location": {"address1": "1306 W 65th St", "address2": "", "address3": "", "city": "Cleveland", "zip_code": "44102", "country": "US", "state": "OH", "display_address": ["1306 W 65th St", "Cleveland, OH 44102"]}, "phone": "+12162816500", "display_phone": "(216) 281-6500", "distance": 3362.5590214659715}, {"id": "dOIUk3wm8LU8-FUpCKa1eg", "alias": "karls-inn-of-the-barristers-cleveland", "name": "Karl's Inn Of The Barristers", "image_url": "https://s3-media1.fl.yelpcdn.com/bphoto/s0YtgwyLTD9wkEShYiETtw/o.jpg", "is_closed": false, "url": "https://www.yelp.com/biz/karls-inn-of-the-barristers-cleveland?adjust_creative=a2JdNtFqB-C38ga_06BHvw&utm_campaign=yelp_api_v3&utm_medium=api_v3_business_search&utm_source=a2JdNtFqB-C38ga_06BHvw", "review_count": 66, "categories": [{"alias": "newamerican", "title": "American (New)"}, {"alias": "pubs", "title": "Pubs"}, {"alias": "sandwiches", "title": "Sandwiches"}], "rating": 4.0, "coordinates": {"latitude": 41.501033, "longitude": -81.698104}, "transactions": ["delivery"], "price": "$$", "location": {"address1": "1264 W 3rd St", "address2": "", "address3": "", "city": "Cleveland", "zip_code": "44113", "country": "US", "state": "OH", "display_address": ["1264 W 3rd St", "Cleveland, OH 44113"]}, "phone": "+12162414141", "display_phone": "(216) 241-4141", "distance": 575.3176046678608}, {"id": "XM2qN3PiQbfSYo6zmHgSlQ", "alias": "gillespies-map-room-cleveland", "name": "Gillespie's Map Room", "image_url": "https://s3-media1.fl.yelpcdn.com/bphoto/R4BFzVb8kPbeIgw9FghLDQ/o.jpg", "is_closed": false, "url": "https://www.yelp.com/biz/gillespies-map-room-cleveland?adjust_creative=a2JdNtFqB-C38ga_06BHvw&utm_campaign=yelp_api_v3&utm_medium=api_v3_business_search&utm_source=a2JdNtFqB-C38ga_06BHvw", "review_count": 152, "categories": [{"alias": "pizza", "title": "Pizza"}, {"alias": "pubs", "title": "Pubs"}], "rating": 3.5, "coordinates": {"latitude": 41.4995918273926, "longitude": -81.700553894043}, "transactions": ["delivery"], "price": "$", "location": {"address1": "1281 W 9th St", "address2": "", "address3": "", "city": "Cleveland", "zip_code": "44113", "country": "US", "state": "OH", "display_address": ["1281 W 9th St", "Cleveland, OH 44113"]}, "phone": "+12166217747", "display_phone": "(216) 621-7747", "distance": 727.4385544421281}, {"id": "9mI2BHTu0at_JA3RA_AEeg", "alias": "the-treehouse-cleveland", "name": "The Treehouse", "image_url": "https://s3-media3.fl.yelpcdn.com/bphoto/VUdwJZRbgdQg3AYW6NX7-Q/o.jpg", "is_closed": false, "url": "https://www.yelp.com/biz/the-treehouse-cleveland?adjust_creative=a2JdNtFqB-C38ga_06BHvw&utm_campaign=yelp_api_v3&utm_medium=api_v3_business_search&utm_source=a2JdNtFqB-C38ga_06BHvw", "review_count": 142, "categories": [{"alias": "pubs", "title": "Pubs"}, {"alias": "tradamerican", "title": "American (Traditional)"}], "rating": 3.5, "coordinates": {"latitude": 41.4807891845703, "longitude": -81.6856002807617}, "transactions": [], "price": "$$", "location": {"address1": "820 College Ave", "address2": null, "address3": "", "city": "Cleveland", "zip_code": "44113", "country": "US", "state": "OH", "display_address": ["820 College Ave", "Cleveland, OH 44113"]}, "phone": "+12166962505", "display_phone": "(216) 696-2505", "distance": 3051.4640332167633}, {"id": "UtyW9cHs9Z8vIEt8I9aIeA", "alias": "city-tap-cleveland-cleveland", "name": "City Tap - Cleveland", "image_url": "https://s3-media3.fl.yelpcdn.com/bphoto/j3DvWOHI6d7_wjU6MBX2KA/o.jpg", "is_closed": false, "url": "https://www.yelp.com/biz/city-tap-cleveland-cleveland?adjust_creative=a2JdNtFqB-C38ga_06BHvw&utm_campaign=yelp_api_v3&utm_medium=api_v3_business_search&utm_source=a2JdNtFqB-C38ga_06BHvw", "review_count": 150, "categories": [{"alias": "sportsbars", "title": "Sports Bars"}, {"alias": "tradamerican", "title": "American (Traditional)"}], "rating": 3.5, "coordinates": {"latitude": 41.498659, "longitude": -81.6868501}, "transactions": ["delivery", "pickup"], "price": "$$", "location": {"address1": "748 Prospect Ave E", "address2": "", "address3": "", "city": "Cleveland", "zip_code": "44115", "country": "US", "state": "OH", "display_address": ["748 Prospect Ave E", "Cleveland, OH 44115"]}, "phone": "+12166962337", "display_phone": "(216) 696-2337", "distance": 1328.1992861729934}, {"id": "EjBZKPyq_G9WMO01N8DnDw", "alias": "winking-lizard-tavern-cleveland-2", "name": "Winking Lizard Tavern", "image_url": "https://s3-media4.fl.yelpcdn.com/bphoto/dHKNSg7w26Gw8KiNTM6zZw/o.jpg", "is_closed": false, "url": "https://www.yelp.com/biz/winking-lizard-tavern-cleveland-2?adjust_creative=a2JdNtFqB-C38ga_06BHvw&utm_campaign=yelp_api_v3&utm_medium=api_v3_business_search&utm_source=a2JdNtFqB-C38ga_06BHvw", "review_count": 230, "categories": [{"alias": "sportsbars", "title": "Sports Bars"}, {"alias": "burgers", "title": "Burgers"}], "rating": 3.5, "coordinates": {"latitude": 41.4986396580935, "longitude": -81.6864227503538}, "transactions": [], "price": "$$", "location": {"address1": "811 Huron Rd E", "address2": "", "address3": "", "city": "Cleveland", "zip_code": "44115", "country": "US", "state": "OH", "display_address": ["811 Huron Rd E", "Cleveland, OH 44115"]}, "phone": "+12165890313", "display_phone": "(216) 589-0313", "distance": 1346.2939098257323}, {"id": "Y1x-DOdfvlIGxVzDXmd-eg", "alias": "winking-lizard-tavern-cleveland-4", "name": "Winking Lizard Tavern", "image_url": "https://s3-media3.fl.yelpcdn.com/bphoto/_wVODNFE1L2HkNLfBDUkRQ/o.jpg", "is_closed": false, "url": "https://www.yelp.com/biz/winking-lizard-tavern-cleveland-4?adjust_creative=a2JdNtFqB-C38ga_06BHvw&utm_campaign=yelp_api_v3&utm_medium=api_v3_business_search&utm_source=a2JdNtFqB-C38ga_06BHvw", "review_count": 198, "categories": [{"alias": "tradamerican", "title": "American (Traditional)"}, {"alias": "sportsbars", "title": "Sports Bars"}], "rating": 3.5, "coordinates": {"latitude": 41.504518, "longitude": -81.690215}, "transactions": ["delivery"], "price": "$$", "location": {"address1": "1301 E 9th St", "address2": "", "address3": "Galleria At Erieview", "city": "Cleveland", "zip_code": "44114", "country": "US", "state": "OH", "display_address": ["1301 E 9th St", "Galleria At Erieview", "Cleveland, OH 44114"]}, "phone": "+12162974490", "display_phone": "(216) 297-4490", "distance": 788.6769559773818}, {"id": "82aapoEF7sBcxrrP9AWiEw", "alias": "the-burnham-restaurant-cleveland", "name": "The Burnham Restaurant", "image_url": "https://s3-media3.fl.yelpcdn.com/bphoto/saGCs3B94cP-LdB0jX3pSQ/o.jpg", "is_closed": false, "url": "https://www.yelp.com/biz/the-burnham-restaurant-cleveland?adjust_creative=a2JdNtFqB-C38ga_06BHvw&utm_campaign=yelp_api_v3&utm_medium=api_v3_business_search&utm_source=a2JdNtFqB-C38ga_06BHvw", "review_count": 92, "categories": [{"alias": "newamerican", "title": "American (New)"}, {"alias": "tapasmallplates", "title": "Tapas/Small Plates"}, {"alias": "cocktailbars", "title": "Cocktail Bars"}], "rating": 3.5, "coordinates": {"latitude": 41.50283, "longitude": -81.69596}, "transactions": ["delivery"], "price": "$$", "location": {"address1": "100 Lakeside Ave E", "address2": "", "address3": "", "city": "Cleveland", "zip_code": "44114", "country": "US", "state": "OH", "display_address": ["100 Lakeside Ave E", "Cleveland, OH 44114"]}, "phone": "+12164135120", "display_phone": "(216) 413-5120", "distance": 461.3620354481781}, {"id": "8bnX7WyIZ_ZMoUNnkkFa_Q", "alias": "turn-bar-kitchen-cleveland", "name": "Turn Bar + Kitchen", "image_url": "https://s3-media4.fl.yelpcdn.com/bphoto/jHH8cl0JmvEqE8FP6-MhdQ/o.jpg", "is_closed": false, "url": "https://www.yelp.com/biz/turn-bar-kitchen-cleveland?adjust_creative=a2JdNtFqB-C38ga_06BHvw&utm_campaign=yelp_api_v3&utm_medium=api_v3_business_search&utm_source=a2JdNtFqB-C38ga_06BHvw", "review_count": 39, "categories": [{"alias": "newamerican", "title": "American (New)"}, {"alias": "lounges", "title": "Lounges"}, {"alias": "wine_bars", "title": "Wine Bars"}], "rating": 4.0, "coordinates": {"latitude": 41.4973289910614, "longitude": -81.6944058601189}, "transactions": [], "price": "$$$", "location": {"address1": "1515 West Third Street", "address2": "", "address3": "", "city": "Cleveland", "zip_code": "44113", "country": "US", "state": "OH", "display_address": ["1515 West Third Street", "Cleveland, OH 44113"]}, "phone": "+12166231300", "display_phone": "(216) 623-1300", "distance": 1062.8329877043386}, {"id": "nkTKlVAdh7DhFJMFvQiAXQ", "alias": "paninis-bar-and-grill-cleveland-5", "name": "Paninis Bar & Grill", "image_url": "https://s3-media2.fl.yelpcdn.com/bphoto/yEh83Iq4tI4kE_nmPovxkg/o.jpg", "is_closed": false, "url": "https://www.yelp.com/biz/paninis-bar-and-grill-cleveland-5?adjust_creative=a2JdNtFqB-C38ga_06BHvw&utm_campaign=yelp_api_v3&utm_medium=api_v3_business_search&utm_source=a2JdNtFqB-C38ga_06BHvw", "review_count": 59, "categories": [{"alias": "sandwiches", "title": "Sandwiches"}, {"alias": "pizza", "title": "Pizza"}, {"alias": "sportsbars", "title": "Sports Bars"}], "rating": 3.5, "coordinates": {"latitude": 41.498736, "longitude": -81.6857399124714}, "transactions": ["delivery"], "price": "$", "location": {"address1": "840 Huron Rd E", "address2": "", "address3": "", "city": "Cleveland", "zip_code": "44115", "country": "US", "state": "OH", "display_address": ["840 Huron Rd E", "Cleveland, OH 44115"]}, "phone": "+12165221510", "display_phone": "(216) 522-1510", "distance": 1405.3166900504748}, {"id": "uBGPTzye3wrxZPf54AXuFg", "alias": "nuevo-modern-mexican-and-tequila-bar-cleveland-3", "name": "Nuevo Modern Mexican & Tequila Bar", "image_url": "https://s3-media2.fl.yelpcdn.com/bphoto/bBkos9rjLvJOXiMOoXJENA/o.jpg", "is_closed": false, "url": "https://www.yelp.com/biz/nuevo-modern-mexican-and-tequila-bar-cleveland-3?adjust_creative=a2JdNtFqB-C38ga_06BHvw&utm_campaign=yelp_api_v3&utm_medium=api_v3_business_search&utm_source=a2JdNtFqB-C38ga_06BHvw", "review_count": 351, "categories": [{"alias": "cocktailbars", "title": "Cocktail Bars"}, {"alias": "venues", "title": "Venues & Event Spaces"}, {"alias": "mexican", "title": "Mexican"}], "rating": 3.0, "coordinates": {"latitude": 41.5108337402344, "longitude": -81.6961975097656}, "transactions": ["pickup", "delivery"], "price": "$$", "location": {"address1": "1000 East 9th St", "address2": "", "address3": null, "city": "Cleveland", "zip_code": "44114", "country": "US", "state": "OH", "display_address": ["1000 East 9th St", "Cleveland, OH 44114"]}, "phone": "+12167371000", "display_phone": "(216) 737-1000", "distance": 584.8497871691703}, {"id": "bbnpPdoRymorHJLY2owBiQ", "alias": "the-market-cafe-and-wine-bar-cleveland-2", "name": "The Market Cafe and Wine Bar", "image_url": "https://s3-media3.fl.yelpcdn.com/bphoto/7rUAfuupgu6oYufkKSShvg/o.jpg", "is_closed": false, "url": "https://www.yelp.com/biz/the-market-cafe-and-wine-bar-cleveland-2?adjust_creative=a2JdNtFqB-C38ga_06BHvw&utm_campaign=yelp_api_v3&utm_medium=api_v3_business_search&utm_source=a2JdNtFqB-C38ga_06BHvw", "review_count": 39, "categories": [{"alias": "tradamerican", "title": "American (Traditional)"}, {"alias": "wine_bars", "title": "Wine Bars"}], "rating": 3.5, "coordinates": {"latitude": 41.50173, "longitude": -81.68753}, "transactions": ["pickup", "delivery"], "price": "$$", "location": {"address1": "1801 E 9th St", "address2": "", "address3": "", "city": "Cleveland", "zip_code": "44114", "country": "US", "state": "OH", "display_address": ["1801 E 9th St", "Cleveland, OH 44114"]}, "phone": "+12163940124", "display_phone": "(216) 394-0124", "distance": 1145.3940672433896}, {"id": "nlrUUtIO0s0a6umCE55prA", "alias": "mulberrys-cleveland", "name": "Mulberry's", "image_url": "https://s3-media2.fl.yelpcdn.com/bphoto/4sVKscL8rOKJaZy2pT3VRg/o.jpg", "is_closed": false, "url": "https://www.yelp.com/biz/mulberrys-cleveland?adjust_creative=a2JdNtFqB-C38ga_06BHvw&utm_campaign=yelp_api_v3&utm_medium=api_v3_business_search&utm_source=a2JdNtFqB-C38ga_06BHvw", "review_count": 21, "categories": [{"alias": "sportsbars", "title": "Sports Bars"}, {"alias": "sports_clubs", "title": "Sports Clubs"}, {"alias": "pizza", "title": "Pizza"}], "rating": 4.0, "coordinates": {"latitude": 41.49484, "longitude": -81.70806}, "transactions": ["delivery"], "price": "$", "location": {"address1": "2316 Mulberry Ave", "address2": "", "address3": "", "city": "Cleveland", "zip_code": "44113", "country": "US", "state": "OH", "display_address": ["2316 Mulberry Ave", "Cleveland, OH 44113"]}, "phone": "+12164434843", "display_phone": "(216) 443-4843", "distance": 1443.6451355515078}, {"id": "4V2KN03EJMzaoOmLOy5UhQ", "alias": "barley-house-cleveland", "name": "Barley House", "image_url": "https://s3-media3.fl.yelpcdn.com/bphoto/C4JF6BrRb4LuriG-ChVBVA/o.jpg", "is_closed": false, "url": "https://www.yelp.com/biz/barley-house-cleveland?adjust_creative=a2JdNtFqB-C38ga_06BHvw&utm_campaign=yelp_api_v3&utm_medium=api_v3_business_search&utm_source=a2JdNtFqB-C38ga_06BHvw", "review_count": 232, "categories": [{"alias": "newamerican", "title": "American (New)"}, {"alias": "pubs", "title": "Pubs"}], "rating": 3.0, "coordinates": {"latitude": 41.500608, "longitude": -81.698986}, "transactions": ["delivery"], "price": "$$", "location": {"address1": "1261 W 6th St", "address2": "", "address3": "", "city": "Cleveland", "zip_code": "44113", "country": "US", "state": "OH", "display_address": ["1261 W 6th St", "Cleveland, OH 44113"]}, "phone": "+12166231700", "display_phone": "(216) 623-1700", "distance": 613.0924981202202}, {"id": "Lox6-6gfbRXgc4VMMwPb7g", "alias": "thirsty-parrot-cleveland", "name": "Thirsty Parrot", "image_url": "https://s3-media2.fl.yelpcdn.com/bphoto/Zn73iUozPPlKzxulSKWKdw/o.jpg", "is_closed": false, "url": "https://www.yelp.com/biz/thirsty-parrot-cleveland?adjust_creative=a2JdNtFqB-C38ga_06BHvw&utm_campaign=yelp_api_v3&utm_medium=api_v3_business_search&utm_source=a2JdNtFqB-C38ga_06BHvw", "review_count": 42, "categories": [{"alias": "newamerican", "title": "American (New)"}, {"alias": "sportsbars", "title": "Sports Bars"}], "rating": 3.5, "coordinates": {"latitude": 41.498101, "longitude": -81.685811}, "transactions": ["delivery"], "price": "$$", "location": {"address1": "812 Huron Rd E", "address2": "", "address3": "", "city": "Cleveland", "zip_code": "44115", "country": "US", "state": "OH", "display_address": ["812 Huron Rd E", "Cleveland, OH 44115"]}, "phone": "+12166853200", "display_phone": "(216) 685-3200", "distance": 1442.9979788803544}, {"id": "ToHKLIjR05Rz9boWvmWaPA", "alias": "the-corner-alley-cleveland-10", "name": "The Corner Alley", "image_url": "https://s3-media2.fl.yelpcdn.com/bphoto/89LYjDqhY5yinBIbaFw43Q/o.jpg", "is_closed": false, "url": "https://www.yelp.com/biz/the-corner-alley-cleveland-10?adjust_creative=a2JdNtFqB-C38ga_06BHvw&utm_campaign=yelp_api_v3&utm_medium=api_v3_business_search&utm_source=a2JdNtFqB-C38ga_06BHvw", "review_count": 262, "categories": [{"alias": "bowling", "title": "Bowling"}, {"alias": "sportsbars", "title": "Sports Bars"}, {"alias": "tradamerican", "title": "American (Traditional)"}], "rating": 3.0, "coordinates": {"latitude": 41.499507, "longitude": -81.689842}, "transactions": ["pickup", "delivery"], "price": "$$", "location": {"address1": "402 Euclid Ave", "address2": "", "address3": "", "city": "Cleveland", "zip_code": "44114", "country": "US", "state": "OH", "display_address": ["402 Euclid Ave", "Cleveland, OH 44114"]}, "phone": "+12162984070", "display_phone": "(216) 298-4070", "distance": 1085.6486314586864}, {"id": "lGZTrn_6sN5OP_P_88VKXA", "alias": "proof-bar-bq-and-cocktails-cleveland", "name": "Proof Bar-BQ and Cocktails", "image_url": "https://s3-media4.fl.yelpcdn.com/bphoto/vgeEY_wrI2EXnkcUDYYpuw/o.jpg", "is_closed": false, "url": "https://www.yelp.com/biz/proof-bar-bq-and-cocktails-cleveland?adjust_creative=a2JdNtFqB-C38ga_06BHvw&utm_campaign=yelp_api_v3&utm_medium=api_v3_business_search&utm_source=a2JdNtFqB-C38ga_06BHvw", "review_count": 12, "categories": [{"alias": "bbq", "title": "Barbeque"}, {"alias": "cocktailbars", "title": "Cocktail Bars"}], "rating": 4.0, "coordinates": {"latitude": 41.4812, "longitude": -81.68664}, "transactions": [], "location": {"address1": "2258 Professor Ave", "address2": null, "address3": null, "city": "Cleveland", "zip_code": "44113", "country": "US", "state": "OH", "display_address": ["2258 Professor Ave", "Cleveland, OH 44113"]}, "phone": "+12165830551", "display_phone": "(216) 583-0551", "distance": 2967.8285145733307}, {"id": "knJh7agyWMdPyndI9dURjw", "alias": "zócalo-tequilería-cleveland-3", "name": "Zócalo Tequilería", "image_url": "https://s3-media3.fl.yelpcdn.com/bphoto/wNCskIF-xhG1GLCSXIPFgw/o.jpg", "is_closed": false, "url": "https://www.yelp.com/biz/z%C3%B3calo-tequiler%C3%ADa-cleveland-3?adjust_creative=a2JdNtFqB-C38ga_06BHvw&utm_campaign=yelp_api_v3&utm_medium=api_v3_business_search&utm_source=a2JdNtFqB-C38ga_06BHvw", "review_count": 482, "categories": [{"alias": "mexican", "title": "Mexican"}, {"alias": "cocktailbars", "title": "Cocktail Bars"}, {"alias": "seafood", "title": "Seafood"}], "rating": 2.5, "coordinates": {"latitude": 41.4987544, "longitude": -81.6898625}, "transactions": ["delivery"], "price": "$$", "location": {"address1": "2071 E 4th St", "address2": null, "address3": null, "city": "Cleveland", "zip_code": "44115", "country": "US", "state": "OH", "display_address": ["2071 E 4th St", "Cleveland, OH 44115"]}, "phone": "+12167810420", "display_phone": "(216) 781-0420", "distance": 1145.4495034008019}, {"id": "gUR2pWQKLPgMEm_R_aI_aw", "alias": "shooters-on-the-water-cleveland-4", "name": "Shooters On The Water", "image_url": "https://s3-media1.fl.yelpcdn.com/bphoto/qnxGOMqKQk9CoDVhrjHtFw/o.jpg", "is_closed": false, "url": "https://www.yelp.com/biz/shooters-on-the-water-cleveland-4?adjust_creative=a2JdNtFqB-C38ga_06BHvw&utm_campaign=yelp_api_v3&utm_medium=api_v3_business_search&utm_source=a2JdNtFqB-C38ga_06BHvw", "review_count": 177, "categories": [{"alias": "venues", "title": "Venues & Event Spaces"}, {"alias": "tradamerican", "title": "American (Traditional)"}, {"alias": "cocktailbars", "title": "Cocktail Bars"}], "rating": 2.5, "coordinates": {"latitude": 41.4983091353557, "longitude": -81.7074845635629}, "transactions": [], "price": "$$", "location": {"address1": "1148 Main Ave", "address2": "", "address3": "", "city": "Cleveland", "zip_code": "44113", "country": "US", "state": "OH", "display_address": ["1148 Main Ave", "Cleveland, OH 44113"]}, "phone": "+12168616900", "display_phone": "(216) 861-6900", "distance": 1095.8833986019943}, {"id": "Rcx0AQSEmqiuRDE_FUMUGQ", "alias": "whiskey-island-still-and-eatery-cleveland", "name": "Whiskey Island Still & Eatery", "image_url": "https://s3-media4.fl.yelpcdn.com/bphoto/tXBEHG71MudMlJ42A7dqgQ/o.jpg", "is_closed": false, "url": "https://www.yelp.com/biz/whiskey-island-still-and-eatery-cleveland?adjust_creative=a2JdNtFqB-C38ga_06BHvw&utm_campaign=yelp_api_v3&utm_medium=api_v3_business_search&utm_source=a2JdNtFqB-C38ga_06BHvw", "review_count": 35, "categories": [{"alias": "tradamerican", "title": "American (Traditional)"}, {"alias": "musicvenues", "title": "Music Venues"}, {"alias": "pubs", "title": "Pubs"}], "rating": 3.0, "coordinates": {"latitude": 41.4958743, "longitude": -81.7176246}, "transactions": [], "price": "$$", "location": {"address1": "2800 Whiskey Island", "address2": "", "address3": "", "city": "Cleveland", "zip_code": "44102", "country": "US", "state": "OH", "display_address": ["2800 Whiskey Island", "Cleveland, OH 44102"]}, "phone": "+12166311800", "display_phone": "(216) 631-1800", "distance": 1656.0491422364}, {"id": "HYm_XUwKk_s-gCC0kdERDA", "alias": "gateway-bar-and-grill-cleveland", "name": "Gateway Bar And Grill", "image_url": "https://s3-media2.fl.yelpcdn.com/bphoto/8_ULsV6HYiKBtGem1q6lgg/o.jpg", "is_closed": false, "url": "https://www.yelp.com/biz/gateway-bar-and-grill-cleveland?adjust_creative=a2JdNtFqB-C38ga_06BHvw&utm_campaign=yelp_api_v3&utm_medium=api_v3_business_search&utm_source=a2JdNtFqB-C38ga_06BHvw", "review_count": 37, "categories": [{"alias": "sportsbars", "title": "Sports Bars"}, {"alias": "tradamerican", "title": "American (Traditional)"}], "rating": 3.0, "coordinates": {"latitude": 41.4981918, "longitude": -81.687707}, "transactions": ["delivery"], "price": "$$", "location": {"address1": "651 Huron Rd E", "address2": "", "address3": "", "city": "Cleveland", "zip_code": "44115", "country": "US", "state": "OH", "display_address": ["651 Huron Rd E", "Cleveland, OH 44115"]}, "phone": "+12166587300", "display_phone": "(216) 658-7300", "distance": 1315.587096438939}, {"id": "huYgyzdbIwj2JF3U4fGT6w", "alias": "w-xyz-bar-cleveland", "name": "W XYZ Bar", "image_url": "https://s3-media2.fl.yelpcdn.com/bphoto/gVCVfif_uBOr0-rav5iHTA/o.jpg", "is_closed": false, "url": "https://www.yelp.com/biz/w-xyz-bar-cleveland?adjust_creative=a2JdNtFqB-C38ga_06BHvw&utm_campaign=yelp_api_v3&utm_medium=api_v3_business_search&utm_source=a2JdNtFqB-C38ga_06BHvw", "review_count": 9, "categories": [{"alias": "venues", "title": "Venues & Event Spaces"}, {"alias": "tapasmallplates", "title": "Tapas/Small Plates"}, {"alias": "cocktailbars", "title": "Cocktail Bars"}], "rating": 3.5, "coordinates": {"latitude": 41.500030442849, "longitude": -81.7055074678589}, "transactions": [], "location": {"address1": "1111 West 10th St", "address2": "Aloft Cleveland Downtown", "address3": "", "city": "Cleveland", "zip_code": "44113", "country": "US", "state": "OH", "display_address": ["1111 West 10th St", "Aloft Cleveland Downtown", "Cleveland, OH 44113"]}, "phone": "+12164006469", "display_phone": "(216) 400-6469", "distance": 843.8677802173156}, {"id": "WuPSEvu8pES752S92awAVQ", "alias": "buffalo-wild-wings-cleveland-6", "name": "Buffalo Wild Wings", "image_url": "https://s3-media3.fl.yelpcdn.com/bphoto/SCTLHFaJKYi4w6qmnO9ZIw/o.jpg", "is_closed": false, "url": "https://www.yelp.com/biz/buffalo-wild-wings-cleveland-6?adjust_creative=a2JdNtFqB-C38ga_06BHvw&utm_campaign=yelp_api_v3&utm_medium=api_v3_business_search&utm_source=a2JdNtFqB-C38ga_06BHvw", "review_count": 74, "categories": [{"alias": "sportsbars", "title": "Sports Bars"}, {"alias": "tradamerican", "title": "American (Traditional)"}, {"alias": "chicken_wings", "title": "Chicken Wings"}], "rating": 2.0, "coordinates": {"latitude": 41.4984471871876, "longitude": -81.6874265670776}, "transactions": ["pickup", "delivery"], "price": "$$", "location": {"address1": "724 Prospect Ave E", "address2": null, "address3": null, "city": "Cleveland", "zip_code": "44115", "country": "US", "state": "OH", "display_address": ["724 Prospect Ave E", "Cleveland, OH 44115"]}, "phone": "+12162917772", "display_phone": "(216) 291-7772", "distance": 1314.4419356830178}, {"id": "ACfokx9YuO74JJgQnXXljg", "alias": "the-oasis-pub-and-grill-cleveland", "name": "The Oasis Pub & Grill", "image_url": "https://s3-media3.fl.yelpcdn.com/bphoto/Ft0X0uscWuBVt0N-vYjvUQ/o.jpg", "is_closed": false, "url": "https://www.yelp.com/biz/the-oasis-pub-and-grill-cleveland?adjust_creative=a2JdNtFqB-C38ga_06BHvw&utm_campaign=yelp_api_v3&utm_medium=api_v3_business_search&utm_source=a2JdNtFqB-C38ga_06BHvw", "review_count": 4, "categories": [{"alias": "sportsbars", "title": "Sports Bars"}, {"alias": "burgers", "title": "Burgers"}, {"alias": "sandwiches", "title": "Sandwiches"}], "rating": 4.0, "coordinates": {"latitude": 41.4882232611619, "longitude": -81.6661321453886}, "transactions": [], "location": {"address1": "3403 Croton Ave", "address2": "", "address3": "", "city": "Cleveland", "zip_code": "44115", "country": "US", "state": "OH", "display_address": ["3403 Croton Ave", "Cleveland, OH 44115"]}, "phone": "+12164269999", "display_phone": "(216) 426-9999", "distance": 3413.6685583173075}, {"id": "8jOJmMw6Vfn8ug1nZstH3A", "alias": "harveys-bar-and-grille-cleveland", "name": "Harvey's Bar & Grille", "image_url": "https://s3-media2.fl.yelpcdn.com/bphoto/UQ4ZFcEIjdFSUA5aGRYJdQ/o.jpg", "is_closed": false, "url": "https://www.yelp.com/biz/harveys-bar-and-grille-cleveland?adjust_creative=a2JdNtFqB-C38ga_06BHvw&utm_campaign=yelp_api_v3&utm_medium=api_v3_business_search&utm_source=a2JdNtFqB-C38ga_06BHvw", "review_count": 3, "categories": [{"alias": "sportsbars", "title": "Sports Bars"}, {"alias": "tradamerican", "title": "American (Traditional)"}, {"alias": "sandwiches", "title": "Sandwiches"}], "rating": 3.5, "coordinates": {"latitude": 41.4963492694069, "longitude": -81.6815160314295}, "transactions": [], "price": "$$", "location": {"address1": "1100 Carnegie Ave", "address2": "", "address3": "Hilton Garden Inn Cleveland Downtown", "city": "Cleveland", "zip_code": "44115", "country": "US", "state": "OH", "display_address": ["1100 Carnegie Ave", "Hilton Garden Inn Cleveland Downtown", "Cleveland, OH 44115"]}, "phone": "", "display_phone": "", "distance": 1845.886315777426}, {"id": "y6T_e4UwJzL6LcThHax_yA", "alias": "chucks-place-cleveland-2", "name": "Chuck's Place", "image_url": "https://s3-media1.fl.yelpcdn.com/bphoto/rf0PgUOYSWDXIJHblhxwyw/o.jpg", "is_closed": false, "url": "https://www.yelp.com/biz/chucks-place-cleveland-2?adjust_creative=a2JdNtFqB-C38ga_06BHvw&utm_campaign=yelp_api_v3&utm_medium=api_v3_business_search&utm_source=a2JdNtFqB-C38ga_06BHvw", "review_count": 1, "categories": [{"alias": "pubs", "title": "Pubs"}, {"alias": "tradamerican", "title": "American (Traditional)"}], "rating": 4.0, "coordinates": {"latitude": 41.51535, "longitude": -81.666}, "transactions": ["delivery"], "location": {"address1": "3830 St Clair Ave NE", "address2": null, "address3": "", "city": "Cleveland", "zip_code": "44114", "country": "US", "state": "OH", "display_address": ["3830 St Clair Ave NE", "Cleveland, OH 44114"]}, "phone": "+12163619031", "display_phone": "(216) 361-9031", "distance": 2968.615207620259}], "absolute total": 41, "total": 41}