{"league": "MLS", "team": "Columbus Crew SC", "stadium": "Historic Crew Stadium", "stadium latitude": 40.009444, "stadium longitude": -82.991111, "radius": "3000 meters", "city": "Columbus", "state": "Ohio", "businesses": [{"id": "VVlOfK7Cz-1s3p8B8Fxbkg", "alias": "service-bar-columbus", "name": "Service Bar", "image_url": "https://s3-media2.fl.yelpcdn.com/bphoto/zCWG7lCC-WNXz1FdJGhx3A/o.jpg", "is_closed": false, "url": "https://www.yelp.com/biz/service-bar-columbus?adjust_creative=a2JdNtFqB-C38ga_06BHvw&utm_campaign=yelp_api_v3&utm_medium=api_v3_business_search&utm_source=a2JdNtFqB-C38ga_06BHvw", "review_count": 114, "categories": [{"alias": "newamerican", "title": "American (New)"}, {"alias": "cocktailbars", "title": "Cocktail Bars"}], "rating": 4.5, "coordinates": {"latitude": 39.9874821290394, "longitude": -83.0047189788486}, "transactions": ["delivery"], "price": "$$$", "location": {"address1": "1230 Courtland Ave", "address2": "", "address3": null, "city": "Columbus", "zip_code": "43201", "country": "US", "state": "OH", "display_address": ["1230 Courtland Ave", "Columbus, OH 43201"]}, "phone": "+16149471231", "display_phone": "(614) 947-1231", "distance": 2703.188983725029}, {"id": "t82Dd-RhKZXB9eIvIH5mmQ", "alias": "paulie-gees-short-north-columbus", "name": "Paulie Gee's Short North", "image_url": "https://s3-media2.fl.yelpcdn.com/bphoto/yfD_miWNOyNQmto2DlhyOQ/o.jpg", "is_closed": false, "url": "https://www.yelp.com/biz/paulie-gees-short-north-columbus?adjust_creative=a2JdNtFqB-C38ga_06BHvw&utm_campaign=yelp_api_v3&utm_medium=api_v3_business_search&utm_source=a2JdNtFqB-C38ga_06BHvw", "review_count": 221, "categories": [{"alias": "pizza", "title": "Pizza"}, {"alias": "cocktailbars", "title": "Cocktail Bars"}, {"alias": "vegan", "title": "Vegan"}], "rating": 4.5, "coordinates": {"latitude": 39.9867412256178, "longitude": -83.0056298414597}, "transactions": ["delivery"], "price": "$$", "location": {"address1": "1195 N High St", "address2": "", "address3": "", "city": "Columbus", "zip_code": "43201", "country": "US", "state": "OH", "display_address": ["1195 N High St", "Columbus, OH 43201"]}, "phone": "+16148080112", "display_phone": "(614) 808-0112", "distance": 2811.103780408784}, {"id": "Pp-1SyD2-EigcHMKZcL4cQ", "alias": "fireproof-restaurant-columbus-2", "name": "Fireproof Restaurant", "image_url": "https://s3-media1.fl.yelpcdn.com/bphoto/NKg1RBtYGzRumLtbegzI5Q/o.jpg", "is_closed": false, "url": "https://www.yelp.com/biz/fireproof-restaurant-columbus-2?adjust_creative=a2JdNtFqB-C38ga_06BHvw&utm_campaign=yelp_api_v3&utm_medium=api_v3_business_search&utm_source=a2JdNtFqB-C38ga_06BHvw", "review_count": 161, "categories": [{"alias": "tapasmallplates", "title": "Tapas/Small Plates"}, {"alias": "wine_bars", "title": "Wine Bars"}, {"alias": "lounges", "title": "Lounges"}], "rating": 4.0, "coordinates": {"latitude": 39.98332, "longitude": -83.00461}, "transactions": ["pickup", "delivery"], "location": {"address1": "1026 N High St", "address2": null, "address3": "", "city": "Columbus", "zip_code": "43201", "country": "US", "state": "OH", "display_address": ["1026 N High St", "Columbus, OH 43201"]}, "phone": "+16147064425", "display_phone": "(614) 706-4425", "distance": 3111.030622676165}, {"id": "eY43FJjF_4hd79ccSfZnUw", "alias": "o-reillys-pub-columbus-2", "name": "O'Reilly's Pub", "image_url": "https://s3-media2.fl.yelpcdn.com/bphoto/uUUxe4TTcHnWsGqIFCPTHA/o.jpg", "is_closed": false, "url": "https://www.yelp.com/biz/o-reillys-pub-columbus-2?adjust_creative=a2JdNtFqB-C38ga_06BHvw&utm_campaign=yelp_api_v3&utm_medium=api_v3_business_search&utm_source=a2JdNtFqB-C38ga_06BHvw", "review_count": 133, "categories": [{"alias": "pubs", "title": "Pubs"}, {"alias": "burgers", "title": "Burgers"}], "rating": 4.0, "coordinates": {"latitude": 40.0198916288865, "longitude": -83.012430024165}, "transactions": ["delivery"], "price": "$$", "location": {"address1": "2822 N High St", "address2": "", "address3": "", "city": "Columbus", "zip_code": "43202", "country": "US", "state": "OH", "display_address": ["2822 N High St", "Columbus, OH 43202"]}, "phone": "+16142626343", "display_phone": "(614) 262-6343", "distance": 2155.43136542635}, {"id": "8TEF5h7dvF71avyDhoo6MQ", "alias": "short-north-food-hall-columbus", "name": "Short North Food Hall", "image_url": "https://s3-media3.fl.yelpcdn.com/bphoto/4x-fZCGl2h364qyjwrCJtw/o.jpg", "is_closed": false, "url": "https://www.yelp.com/biz/short-north-food-hall-columbus?adjust_creative=a2JdNtFqB-C38ga_06BHvw&utm_campaign=yelp_api_v3&utm_medium=api_v3_business_search&utm_source=a2JdNtFqB-C38ga_06BHvw", "review_count": 147, "categories": [{"alias": "cocktailbars", "title": "Cocktail Bars"}, {"alias": "tradamerican", "title": "American (Traditional)"}, {"alias": "venues", "title": "Venues & Event Spaces"}], "rating": 4.0, "coordinates": {"latitude": 39.9850119, "longitude": -83.0047051}, "transactions": ["delivery"], "price": "$$", "location": {"address1": "1112 N High St", "address2": "", "address3": null, "city": "Columbus", "zip_code": "43211", "country": "US", "state": "OH", "display_address": ["1112 N High St", "Columbus, OH 43211"]}, "phone": "+16149650518", "display_phone": "(614) 965-0518", "distance": 2953.224161703004}, {"id": "V-kNDhctcHi9k9UjF7vKyw", "alias": "the-chop-shop-columbus-2", "name": "The Chop Shop", "image_url": "https://s3-media4.fl.yelpcdn.com/bphoto/G2yx_ao2yaZLTApAOAuxHQ/o.jpg", "is_closed": false, "url": "https://www.yelp.com/biz/the-chop-shop-columbus-2?adjust_creative=a2JdNtFqB-C38ga_06BHvw&utm_campaign=yelp_api_v3&utm_medium=api_v3_business_search&utm_source=a2JdNtFqB-C38ga_06BHvw", "review_count": 98, "categories": [{"alias": "burgers", "title": "Burgers"}, {"alias": "sportsbars", "title": "Sports Bars"}, {"alias": "tradamerican", "title": "American (Traditional)"}], "rating": 4.0, "coordinates": {"latitude": 40.0063781738281, "longitude": -83.0096893310547}, "transactions": ["pickup", "delivery"], "price": "$", "location": {"address1": "2159 N High St", "address2": "", "address3": "", "city": "Columbus", "zip_code": "43201", "country": "US", "state": "OH", "display_address": ["2159 N High St", "Columbus, OH 43201"]}, "phone": "+16147253600", "display_phone": "(614) 725-3600", "distance": 1616.055784877289}, {"id": "hwXHTLP_Isc-JCq-KbZe1Q", "alias": "oldfields-north-fourth-tavern-columbus", "name": "Oldfield's North Fourth Tavern", "image_url": "https://s3-media4.fl.yelpcdn.com/bphoto/vlwKQUJ-jDo71phCzku4mw/o.jpg", "is_closed": false, "url": "https://www.yelp.com/biz/oldfields-north-fourth-tavern-columbus?adjust_creative=a2JdNtFqB-C38ga_06BHvw&utm_campaign=yelp_api_v3&utm_medium=api_v3_business_search&utm_source=a2JdNtFqB-C38ga_06BHvw", "review_count": 24, "categories": [{"alias": "pizza", "title": "Pizza"}, {"alias": "pubs", "title": "Pubs"}, {"alias": "karaoke", "title": "Karaoke"}], "rating": 4.5, "coordinates": {"latitude": 39.9953047, "longitude": -82.9991771}, "transactions": ["delivery"], "price": "$", "location": {"address1": "1571 N 4th St", "address2": "", "address3": "", "city": "Columbus", "zip_code": "43201", "country": "US", "state": "OH", "display_address": ["1571 N 4th St", "Columbus, OH 43201"]}, "phone": "+16142915598", "display_phone": "(614) 291-5598", "distance": 1715.7796995434462}, {"id": "S608EbOcnQu7Vl9dCJEnpw", "alias": "bravo-italian-kitchen-columbus-3", "name": "Bravo! Italian Kitchen", "image_url": "https://s3-media1.fl.yelpcdn.com/bphoto/Y33NLTWVoqIILzybNjNfhQ/o.jpg", "is_closed": false, "url": "https://www.yelp.com/biz/bravo-italian-kitchen-columbus-3?adjust_creative=a2JdNtFqB-C38ga_06BHvw&utm_campaign=yelp_api_v3&utm_medium=api_v3_business_search&utm_source=a2JdNtFqB-C38ga_06BHvw", "review_count": 184, "categories": [{"alias": "italian", "title": "Italian"}, {"alias": "gluten_free", "title": "Gluten-Free"}, {"alias": "wine_bars", "title": "Wine Bars"}], "rating": 3.5, "coordinates": {"latitude": 39.99623, "longitude": -83.02583}, "transactions": ["pickup", "delivery"], "price": "$$", "location": {"address1": "1803 Olentangy River Rd", "address2": "", "address3": "", "city": "Columbus", "zip_code": "43212", "country": "US", "state": "OH", "display_address": ["1803 Olentangy River Rd", "Columbus, OH 43212"]}, "phone": "+16142918210", "display_phone": "(614) 291-8210", "distance": 3292.5362637591916}, {"id": "-Xi_eE0A2bBcc93l0LCkhg", "alias": "columbus-fish-market-columbus-5", "name": "Columbus Fish Market", "image_url": "https://s3-media1.fl.yelpcdn.com/bphoto/aMn0yjTuPByKLiAAUzZqiw/o.jpg", "is_closed": false, "url": "https://www.yelp.com/biz/columbus-fish-market-columbus-5?adjust_creative=a2JdNtFqB-C38ga_06BHvw&utm_campaign=yelp_api_v3&utm_medium=api_v3_business_search&utm_source=a2JdNtFqB-C38ga_06BHvw", "review_count": 292, "categories": [{"alias": "seafood", "title": "Seafood"}, {"alias": "steak", "title": "Steakhouses"}, {"alias": "cocktailbars", "title": "Cocktail Bars"}], "rating": 3.0, "coordinates": {"latitude": 39.9853349569922, "longitude": -83.0237728357315}, "transactions": ["pickup", "delivery"], "price": "$$", "location": {"address1": "1245 Olentangy River Rd", "address2": "", "address3": "", "city": "Columbus", "zip_code": "43212", "country": "US", "state": "OH", "display_address": ["1245 Olentangy River Rd", "Columbus, OH 43212"]}, "phone": "+16142913474", "display_phone": "(614) 291-3474", "distance": 3863.623558858596}, {"id": "lWLc8qOGTPzWZD3VM08rbw", "alias": "buffalo-wild-wings-columbus-7", "name": "Buffalo Wild Wings", "image_url": "https://s3-media2.fl.yelpcdn.com/bphoto/vnDxqHBj3mycQLGVcNcSCw/o.jpg", "is_closed": false, "url": "https://www.yelp.com/biz/buffalo-wild-wings-columbus-7?adjust_creative=a2JdNtFqB-C38ga_06BHvw&utm_campaign=yelp_api_v3&utm_medium=api_v3_business_search&utm_source=a2JdNtFqB-C38ga_06BHvw", "review_count": 71, "categories": [{"alias": "chicken_wings", "title": "Chicken Wings"}, {"alias": "sportsbars", "title": "Sports Bars"}, {"alias": "tradamerican", "title": "American (Traditional)"}], "rating": 3.0, "coordinates": {"latitude": 40.0062228, "longitude": -83.0095933453867}, "transactions": ["delivery"], "price": "$$", "location": {"address1": "2151 North High St", "address2": "", "address3": "", "city": "Columbus", "zip_code": "43201", "country": "US", "state": "OH", "display_address": ["2151 North High St", "Columbus, OH 43201"]}, "phone": "+16142912362", "display_phone": "(614) 291-2362", "distance": 1614.3844084597429}, {"id": "xpxL0GqEAJrUL-LjgXpAvw", "alias": "urban-chophouse-columbus-2", "name": "Urban Chophouse", "image_url": "https://s3-media2.fl.yelpcdn.com/bphoto/WxRxUm9GXvazJ4Dkxh5dFA/o.jpg", "is_closed": false, "url": "https://www.yelp.com/biz/urban-chophouse-columbus-2?adjust_creative=a2JdNtFqB-C38ga_06BHvw&utm_campaign=yelp_api_v3&utm_medium=api_v3_business_search&utm_source=a2JdNtFqB-C38ga_06BHvw", "review_count": 9, "categories": [{"alias": "cocktailbars", "title": "Cocktail Bars"}, {"alias": "sushi", "title": "Sushi Bars"}, {"alias": "steak", "title": "Steakhouses"}], "rating": 4.0, "coordinates": {"latitude": 39.98427, "longitude": -83.0053367}, "transactions": [], "location": {"address1": "1079 N High St", "address2": "", "address3": null, "city": "Columbus", "zip_code": "43201", "country": "US", "state": "OH", "display_address": ["1079 N High St", "Columbus, OH 43201"]}, "phone": "+16149295430", "display_phone": "(614) 929-5430", "distance": 3044.821519773404}, {"id": "_TuP__VKQIEglg9nGgOTvQ", "alias": "fireproof-columbus", "name": "Fireproof", "image_url": "https://s3-media1.fl.yelpcdn.com/bphoto/QCLwQPxqdPP8ejC7AjaBBg/o.jpg", "is_closed": false, "url": "https://www.yelp.com/biz/fireproof-columbus?adjust_creative=a2JdNtFqB-C38ga_06BHvw&utm_campaign=yelp_api_v3&utm_medium=api_v3_business_search&utm_source=a2JdNtFqB-C38ga_06BHvw", "review_count": 10, "categories": [{"alias": "tradamerican", "title": "American (Traditional)"}, {"alias": "cocktailbars", "title": "Cocktail Bars"}], "rating": 3.0, "coordinates": {"latitude": 39.9833716, "longitude": -83.0046178}, "transactions": [], "location": {"address1": "1020 N High St", "address2": "", "address3": null, "city": "Columbus", "zip_code": "43201", "country": "US", "state": "OH", "display_address": ["1020 N High St", "Columbus, OH 43201"]}, "phone": "+16142530000", "display_phone": "(614) 253-0000", "distance": 3131.9135169246942}, {"id": "C6QtjWdoEc6AXVUGXjhDqQ", "alias": "the-big-bar-and-grill-columbus", "name": "The Big Bar & Grill", "image_url": "https://s3-media1.fl.yelpcdn.com/bphoto/OnZ8CrhmZ7vqUoM3PUokEQ/o.jpg", "is_closed": false, "url": "https://www.yelp.com/biz/the-big-bar-and-grill-columbus?adjust_creative=a2JdNtFqB-C38ga_06BHvw&utm_campaign=yelp_api_v3&utm_medium=api_v3_business_search&utm_source=a2JdNtFqB-C38ga_06BHvw", "review_count": 17, "categories": [{"alias": "sportsbars", "title": "Sports Bars"}, {"alias": "tradamerican", "title": "American (Traditional)"}], "rating": 2.0, "coordinates": {"latitude": 39.997384, "longitude": -83.007059}, "transactions": ["delivery"], "price": "$", "location": {"address1": "1716 N High St", "address2": "", "address3": "", "city": "Columbus", "zip_code": "43201", "country": "US", "state": "OH", "display_address": ["1716 N High St", "Columbus, OH 43201"]}, "phone": "+16142941800", "display_phone": "(614) 294-1800", "distance": 1908.799775313064}], "absolute total": 13, "total": 13}