{"league": "MLS", "team": "FC Dallas", "stadium": "Toyota Stadium", "stadium latitude": 33.154444, "stadium longitude": -96.835278, "radius": "3000 meters", "city": "Frisco", "state": "Texas", "businesses": [{"id": "isYi-iSEDl_GjEuW9Wml0g", "alias": "didi-s-downtown-frisco", "name": "Didiâ€™s Downtown", "image_url": "https://s3-media3.fl.yelpcdn.com/bphoto/1xs0d7voyJ7tlun3sReFxQ/o.jpg", "is_closed": false, "url": "https://www.yelp.com/biz/didi-s-downtown-frisco?adjust_creative=a2JdNtFqB-C38ga_06BHvw&utm_campaign=yelp_api_v3&utm_medium=api_v3_business_search&utm_source=a2JdNtFqB-C38ga_06BHvw", "review_count": 203, "categories": [{"alias": "cheesesteaks", "title": "Cheesesteaks"}, {"alias": "cocktailbars", "title": "Cocktail Bars"}, {"alias": "tradamerican", "title": "American (Traditional)"}], "rating": 4.5, "coordinates": {"latitude": 33.15032, "longitude": -96.82131}, "transactions": ["pickup", "delivery"], "price": "$$", "location": {"address1": "7210 Main St", "address2": "", "address3": null, "city": "Frisco", "zip_code": "75033", "country": "US", "state": "TX", "display_address": ["7210 Main St", "Frisco, TX 75033"]}, "phone": "+14698884020", "display_phone": "(469) 888-4020", "distance": 1374.8987224274995}, {"id": "saVF1GAai9idAncGgH--Tg", "alias": "eight-11-frisco", "name": "Eight 11", "image_url": "https://s3-media2.fl.yelpcdn.com/bphoto/fDg4rbM-OYT0Y0tzFXbE2A/o.jpg", "is_closed": false, "url": "https://www.yelp.com/biz/eight-11-frisco?adjust_creative=a2JdNtFqB-C38ga_06BHvw&utm_campaign=yelp_api_v3&utm_medium=api_v3_business_search&utm_source=a2JdNtFqB-C38ga_06BHvw", "review_count": 327, "categories": [{"alias": "wine_bars", "title": "Wine Bars"}, {"alias": "beerbar", "title": "Beer Bar"}, {"alias": "newamerican", "title": "American (New)"}], "rating": 4.0, "coordinates": {"latitude": 33.1506059, "longitude": -96.822885}, "transactions": ["delivery"], "price": "$$", "location": {"address1": "7080 Main St", "address2": "", "address3": "", "city": "Frisco", "zip_code": "75033", "country": "US", "state": "TX", "display_address": ["7080 Main St", "Frisco, TX 75033"]}, "phone": "+14698884037", "display_phone": "(469) 888-4037", "distance": 1230.1226550288761}, {"id": "pbAZBIf0UDp3hyDztApznQ", "alias": "nerdvana-frisco-2", "name": "Nerdvana ", "image_url": "https://s3-media1.fl.yelpcdn.com/bphoto/G9vgMgwaQ0qMzre7KAyXNw/o.jpg", "is_closed": false, "url": "https://www.yelp.com/biz/nerdvana-frisco-2?adjust_creative=a2JdNtFqB-C38ga_06BHvw&utm_campaign=yelp_api_v3&utm_medium=api_v3_business_search&utm_source=a2JdNtFqB-C38ga_06BHvw", "review_count": 470, "categories": [{"alias": "newamerican", "title": "American (New)"}, {"alias": "beerbar", "title": "Beer Bar"}, {"alias": "cocktailbars", "title": "Cocktail Bars"}], "rating": 4.0, "coordinates": {"latitude": 33.152213, "longitude": -96.836955}, "transactions": ["pickup", "delivery"], "price": "$$", "location": {"address1": "5757 Main St", "address2": "Ste 112", "address3": null, "city": "Frisco", "zip_code": "75034", "country": "US", "state": "TX", "display_address": ["5757 Main St", "Ste 112", "Frisco, TX 75034"]}, "phone": "+12143089080", "display_phone": "(214) 308-9080", "distance": 293.1112857061715}, {"id": "Q1uNE4_H_Lczy7hMg8WZhA", "alias": "the-heritage-table-frisco", "name": "The Heritage Table", "image_url": "https://s3-media1.fl.yelpcdn.com/bphoto/lwZqA19qKESRlIBlQdecJQ/o.jpg", "is_closed": false, "url": "https://www.yelp.com/biz/the-heritage-table-frisco?adjust_creative=a2JdNtFqB-C38ga_06BHvw&utm_campaign=yelp_api_v3&utm_medium=api_v3_business_search&utm_source=a2JdNtFqB-C38ga_06BHvw", "review_count": 260, "categories": [{"alias": "tradamerican", "title": "American (Traditional)"}, {"alias": "beer_and_wine", "title": "Beer, Wine & Spirits"}, {"alias": "cocktailbars", "title": "Cocktail Bars"}], "rating": 4.0, "coordinates": {"latitude": 33.150545, "longitude": -96.822425}, "transactions": ["delivery"], "price": "$$", "location": {"address1": "7110 Main St", "address2": "", "address3": "", "city": "Frisco", "zip_code": "75033", "country": "US", "state": "TX", "display_address": ["7110 Main St", "Frisco, TX 75033"]}, "phone": "+14696640100", "display_phone": "(469) 664-0100", "distance": 1264.1550673599033}, {"id": "It5tdF9-kQpnxMOaNMsatA", "alias": "rockfish-seafood-and-grill-frisco-frisco", "name": "Rockfish Seafood and Grill - Frisco", "image_url": "https://s3-media2.fl.yelpcdn.com/bphoto/h3Fm0LcYBjvUWH6TjbeMZA/o.jpg", "is_closed": false, "url": "https://www.yelp.com/biz/rockfish-seafood-and-grill-frisco-frisco?adjust_creative=a2JdNtFqB-C38ga_06BHvw&utm_campaign=yelp_api_v3&utm_medium=api_v3_business_search&utm_source=a2JdNtFqB-C38ga_06BHvw", "review_count": 153, "categories": [{"alias": "seafood", "title": "Seafood"}, {"alias": "cajun", "title": "Cajun/Creole"}, {"alias": "cocktailbars", "title": "Cocktail Bars"}], "rating": 3.5, "coordinates": {"latitude": 33.15441239472143, "longitude": -96.8411542436554}, "transactions": ["pickup", "delivery"], "price": "$$", "location": {"address1": "9179 Dallas Pkwy", "address2": "Ste 170", "address3": "", "city": "Frisco", "zip_code": "75034", "country": "US", "state": "TX", "display_address": ["9179 Dallas Pkwy", "Ste 170", "Frisco, TX 75034"]}, "phone": "+14692878793", "display_phone": "(469) 287-8793", "distance": 547.04398116545}, {"id": "ETA-JSx9f5wjDqWFKoOPIA", "alias": "the-green-gator-frisco", "name": "The Green Gator", "image_url": "https://s3-media3.fl.yelpcdn.com/bphoto/1ee0X1tvM7gXCCXCm57wNA/o.jpg", "is_closed": false, "url": "https://www.yelp.com/biz/the-green-gator-frisco?adjust_creative=a2JdNtFqB-C38ga_06BHvw&utm_campaign=yelp_api_v3&utm_medium=api_v3_business_search&utm_source=a2JdNtFqB-C38ga_06BHvw", "review_count": 166, "categories": [{"alias": "cajun", "title": "Cajun/Creole"}, {"alias": "tradamerican", "title": "American (Traditional)"}, {"alias": "sportsbars", "title": "Sports Bars"}], "rating": 3.0, "coordinates": {"latitude": 33.153277, "longitude": -96.838834}, "transactions": ["pickup"], "price": "$$", "location": {"address1": "5566 Main St", "address2": "Ste 110", "address3": null, "city": "Frisco", "zip_code": "75034", "country": "US", "state": "TX", "display_address": ["5566 Main St", "Ste 110", "Frisco, TX 75034"]}, "phone": "+12146182334", "display_phone": "(214) 618-2334", "distance": 362.3546481902013}, {"id": "yarRK_CyQjiA7TlezTHb6Q", "alias": "snookered-billiards-and-bar-frisco-2", "name": "Snookered Billiards & Bar", "image_url": "https://s3-media3.fl.yelpcdn.com/bphoto/WSiTL80KDBGI6KMkNc3Apg/o.jpg", "is_closed": false, "url": "https://www.yelp.com/biz/snookered-billiards-and-bar-frisco-2?adjust_creative=a2JdNtFqB-C38ga_06BHvw&utm_campaign=yelp_api_v3&utm_medium=api_v3_business_search&utm_source=a2JdNtFqB-C38ga_06BHvw", "review_count": 30, "categories": [{"alias": "poolhalls", "title": "Pool Halls"}, {"alias": "sportsbars", "title": "Sports Bars"}, {"alias": "tradamerican", "title": "American (Traditional)"}], "rating": 4.0, "coordinates": {"latitude": 33.15723, "longitude": -96.8393}, "transactions": [], "location": {"address1": "9550 Dallas Pkwy", "address2": "", "address3": null, "city": "Frisco", "zip_code": "75034", "country": "US", "state": "TX", "display_address": ["9550 Dallas Pkwy", "Frisco, TX 75034"]}, "phone": "+19722126187", "display_phone": "(972) 212-6187", "distance": 490.77294413997896}, {"id": "2xZILGaSKG2pSXEK0jQDew", "alias": "the-revel-frisco", "name": "The Revel", "image_url": "https://s3-media2.fl.yelpcdn.com/bphoto/m5dD5w6j0xkYUMg0QR77Fw/o.jpg", "is_closed": false, "url": "https://www.yelp.com/biz/the-revel-frisco?adjust_creative=a2JdNtFqB-C38ga_06BHvw&utm_campaign=yelp_api_v3&utm_medium=api_v3_business_search&utm_source=a2JdNtFqB-C38ga_06BHvw", "review_count": 64, "categories": [{"alias": "tradamerican", "title": "American (Traditional)"}, {"alias": "sportsbars", "title": "Sports Bars"}], "rating": 3.5, "coordinates": {"latitude": 33.1551902622268, "longitude": -96.804449}, "transactions": ["delivery"], "price": "$$", "location": {"address1": "9305 Preston Rd", "address2": null, "address3": "", "city": "Frisco", "zip_code": "75033", "country": "US", "state": "TX", "display_address": ["9305 Preston Rd", "Frisco, TX 75033"]}, "phone": "+14693847700", "display_phone": "(469) 384-7700", "distance": 2871.1273612360696}], "absolute total": 8, "total": 8}