{"league": "NHL", "team": "Florida Panthers", "stadium": "BB&T Center", "stadium latitude": 26.158333, "stadium longitude": -80.325556, "radius": "3000 meters", "city": "Sunrise", "state": "Florida", "businesses": [{"id": "pNXpkFYizkBp0W3-TSUNbQ", "alias": "seasons-52-sunrise-3", "name": "Seasons 52", "image_url": "https://s3-media2.fl.yelpcdn.com/bphoto/XIkEFqcN9KVwK8U6cjy1zQ/o.jpg", "is_closed": false, "url": "https://www.yelp.com/biz/seasons-52-sunrise-3?adjust_creative=a2JdNtFqB-C38ga_06BHvw&utm_campaign=yelp_api_v3&utm_medium=api_v3_business_search&utm_source=a2JdNtFqB-C38ga_06BHvw", "review_count": 138, "categories": [{"alias": "newamerican", "title": "American (New)"}, {"alias": "seafood", "title": "Seafood"}, {"alias": "wine_bars", "title": "Wine Bars"}], "rating": 3.5, "coordinates": {"latitude": 26.1495253071111, "longitude": -80.3192186263893}, "transactions": [], "price": "$$", "location": {"address1": "1862 Sawgrass Mills Cir", "address2": "", "address3": null, "city": "Sunrise", "zip_code": "33323", "country": "US", "state": "FL", "display_address": ["1862 Sawgrass Mills Cir", "Sunrise, FL 33323"]}, "phone": "+19548460052", "display_phone": "(954) 846-0052", "distance": 1165.8741683578496}, {"id": "yt5xZ6oNP8zcsHblfuTN1w", "alias": "quarterdeck-restaurants-plantation", "name": "Quarterdeck Restaurants", "image_url": "https://s3-media4.fl.yelpcdn.com/bphoto/dlJrKKrrd6hgCk1vI_jCoQ/o.jpg", "is_closed": false, "url": "https://www.yelp.com/biz/quarterdeck-restaurants-plantation?adjust_creative=a2JdNtFqB-C38ga_06BHvw&utm_campaign=yelp_api_v3&utm_medium=api_v3_business_search&utm_source=a2JdNtFqB-C38ga_06BHvw", "review_count": 217, "categories": [{"alias": "tradamerican", "title": "American (Traditional)"}, {"alias": "seafood", "title": "Seafood"}, {"alias": "sportsbars", "title": "Sports Bars"}], "rating": 3.5, "coordinates": {"latitude": 26.144527633043, "longitude": -80.313651560316}, "transactions": ["delivery"], "price": "$$", "location": {"address1": "12310 W Sunrise Blvd", "address2": "", "address3": "", "city": "Plantation", "zip_code": "33323", "country": "US", "state": "FL", "display_address": ["12310 W Sunrise Blvd", "Plantation, FL 33323"]}, "phone": "+19544234197", "display_phone": "(954) 423-4197", "distance": 1941.2163325449021}, {"id": "DYCMyHDc6LyLjnSUGPzPwg", "alias": "the-inn-field-sunrise", "name": "The Inn-Field", "image_url": "https://s3-media2.fl.yelpcdn.com/bphoto/D1hTaqLNHvJWfPK1qwN5jQ/o.jpg", "is_closed": false, "url": "https://www.yelp.com/biz/the-inn-field-sunrise?adjust_creative=a2JdNtFqB-C38ga_06BHvw&utm_campaign=yelp_api_v3&utm_medium=api_v3_business_search&utm_source=a2JdNtFqB-C38ga_06BHvw", "review_count": 31, "categories": [{"alias": "sportsbars", "title": "Sports Bars"}, {"alias": "breakfast_brunch", "title": "Breakfast & Brunch"}], "rating": 3.5, "coordinates": {"latitude": 26.1685791, "longitude": -80.3007271}, "transactions": ["delivery", "pickup"], "price": "$$", "location": {"address1": "11439 W Oakland Park Blvd", "address2": "", "address3": "", "city": "Sunrise", "zip_code": "33323", "country": "US", "state": "FL", "display_address": ["11439 W Oakland Park Blvd", "Sunrise, FL 33323"]}, "phone": "+19547412100", "display_phone": "(954) 741-2100", "distance": 2727.3355540395455}], "absolute total": 3, "total": 3}