{"league": "NFL", "team": "Houston Texans", "stadium": "NRG Stadium", "stadium latitude": 29.684721999999997, "stadium longitude": -95.410833, "radius": "3000 meters", "city": "Houston", "state": "Texas", "businesses": [{"id": "eDVkLnGK3fSHiYiwX6pZ7w", "alias": "akashi-asian-sushi-cuisine-and-wine-bar-houston-7", "name": "Akashi Asian Sushi Cuisine & Wine Bar", "image_url": "https://s3-media1.fl.yelpcdn.com/bphoto/cqG7xQfwQvxSq8Xuv_8rKw/o.jpg", "is_closed": false, "url": "https://www.yelp.com/biz/akashi-asian-sushi-cuisine-and-wine-bar-houston-7?adjust_creative=a2JdNtFqB-C38ga_06BHvw&utm_campaign=yelp_api_v3&utm_medium=api_v3_business_search&utm_source=a2JdNtFqB-C38ga_06BHvw", "review_count": 219, "categories": [{"alias": "sushi", "title": "Sushi Bars"}, {"alias": "chinese", "title": "Chinese"}, {"alias": "cocktailbars", "title": "Cocktail Bars"}], "rating": 4.0, "coordinates": {"latitude": 29.6914752582579, "longitude": -95.4131117723453}, "transactions": ["delivery", "pickup"], "price": "$$", "location": {"address1": "8216 Kirby Dr", "address2": "", "address3": null, "city": "Houston", "zip_code": "77054", "country": "US", "state": "TX", "display_address": ["8216 Kirby Dr", "Houston, TX 77054"]}, "phone": "+17136658888", "display_phone": "(713) 665-8888", "distance": 782.5262933131081}, {"id": "6YiMq5EfAQhSdaKjcM6xWQ", "alias": "third-coast-houston-3", "name": "Third Coast", "image_url": "https://s3-media3.fl.yelpcdn.com/bphoto/Bn3btXv53_5-EL-UCOfdOg/o.jpg", "is_closed": false, "url": "https://www.yelp.com/biz/third-coast-houston-3?adjust_creative=a2JdNtFqB-C38ga_06BHvw&utm_campaign=yelp_api_v3&utm_medium=api_v3_business_search&utm_source=a2JdNtFqB-C38ga_06BHvw", "review_count": 61, "categories": [{"alias": "newamerican", "title": "American (New)"}, {"alias": "cocktailbars", "title": "Cocktail Bars"}, {"alias": "venues", "title": "Venues & Event Spaces"}], "rating": 4.0, "coordinates": {"latitude": 29.709431, "longitude": -95.397966}, "transactions": ["delivery"], "price": "$$$", "location": {"address1": "6550 Bertner Ave", "address2": "Fl 6", "address3": null, "city": "Houston", "zip_code": "77030", "country": "US", "state": "TX", "display_address": ["6550 Bertner Ave", "Fl 6", "Houston, TX 77030"]}, "phone": "+17137490400", "display_phone": "(713) 749-0400", "distance": 3036.3815060971656}, {"id": "7DqqfJjT1Yq4pA8-qc7ioA", "alias": "safina-mediterranean-houston", "name": "Safina Mediterranean", "image_url": "https://s3-media2.fl.yelpcdn.com/bphoto/XgQ4ccjFIkqj45dwOX4F4Q/o.jpg", "is_closed": false, "url": "https://www.yelp.com/biz/safina-mediterranean-houston?adjust_creative=a2JdNtFqB-C38ga_06BHvw&utm_campaign=yelp_api_v3&utm_medium=api_v3_business_search&utm_source=a2JdNtFqB-C38ga_06BHvw", "review_count": 32, "categories": [{"alias": "mediterranean", "title": "Mediterranean"}, {"alias": "breakfast_brunch", "title": "Breakfast & Brunch"}, {"alias": "cocktailbars", "title": "Cocktail Bars"}], "rating": 3.5, "coordinates": {"latitude": 29.7082022615957, "longitude": -95.4041817784309}, "transactions": [], "location": {"address1": "6750 Main St", "address2": "", "address3": null, "city": "Houston", "zip_code": "77030", "country": "US", "state": "TX", "display_address": ["6750 Main St", "Houston, TX 77030"]}, "phone": "+17134222779", "display_phone": "(713) 422-2779", "distance": 2688.7632005458245}], "absolute total": 3, "total": 3}