{"league": "MLS", "team": "LA Galaxy", "stadium": "Dignity Health Sports Park", "stadium latitude": 33.864000000000004, "stadium longitude": -118.26100000000001, "radius": "3000 meters", "city": "Carson", "state": "California", "businesses": [{"id": "zcTsUa_ER96JXO75nUcDOw", "alias": "restaurant-917-carson", "name": "Restaurant 917", "image_url": "https://s3-media1.fl.yelpcdn.com/bphoto/0Jv5VYP0tawA0l2rWG3PLQ/o.jpg", "is_closed": false, "url": "https://www.yelp.com/biz/restaurant-917-carson?adjust_creative=a2JdNtFqB-C38ga_06BHvw&utm_campaign=yelp_api_v3&utm_medium=api_v3_business_search&utm_source=a2JdNtFqB-C38ga_06BHvw", "review_count": 205, "categories": [{"alias": "newamerican", "title": "American (New)"}, {"alias": "cocktailbars", "title": "Cocktail Bars"}], "rating": 4.5, "coordinates": {"latitude": 33.8510213, "longitude": -118.2801942}, "transactions": [], "price": "$$$", "location": {"address1": "19800 S Main St", "address2": null, "address3": null, "city": "Carson", "zip_code": "90745", "country": "US", "state": "CA", "display_address": ["19800 S Main St", "Carson, CA 90745"]}, "phone": "+17702907917", "display_phone": "(770) 290-7917", "distance": 2249.0957737690605}, {"id": "qiuDH1lXma_9Qsz-hK1toA", "alias": "las-islas-marias-gardena", "name": "Las Islas Marias", "image_url": "https://s3-media3.fl.yelpcdn.com/bphoto/F0lg3Dm0DAKiJcPgQljhXw/o.jpg", "is_closed": false, "url": "https://www.yelp.com/biz/las-islas-marias-gardena?adjust_creative=a2JdNtFqB-C38ga_06BHvw&utm_campaign=yelp_api_v3&utm_medium=api_v3_business_search&utm_source=a2JdNtFqB-C38ga_06BHvw", "review_count": 114, "categories": [{"alias": "seafood", "title": "Seafood"}, {"alias": "sportsbars", "title": "Sports Bars"}, {"alias": "mexican", "title": "Mexican"}], "rating": 2.5, "coordinates": {"latitude": 33.8816730452785, "longitude": -118.28205473721}, "transactions": ["delivery", "pickup"], "price": "$$", "location": {"address1": "444 W Gardena Blvd", "address2": "", "address3": null, "city": "Gardena", "zip_code": "90248", "country": "US", "state": "CA", "display_address": ["444 W Gardena Blvd", "Gardena, CA 90248"]}, "phone": "+13105320212", "display_phone": "(310) 532-0212", "distance": 2764.104279569367}, {"id": "ILuXurLzw4N30I_RbPON2A", "alias": "buffalo-wild-wings-carson", "name": "Buffalo Wild Wings", "image_url": "https://s3-media3.fl.yelpcdn.com/bphoto/AiLWW0Yj21naCm1jVuwoGQ/o.jpg", "is_closed": false, "url": "https://www.yelp.com/biz/buffalo-wild-wings-carson?adjust_creative=a2JdNtFqB-C38ga_06BHvw&utm_campaign=yelp_api_v3&utm_medium=api_v3_business_search&utm_source=a2JdNtFqB-C38ga_06BHvw", "review_count": 1116, "categories": [{"alias": "chicken_wings", "title": "Chicken Wings"}, {"alias": "sportsbars", "title": "Sports Bars"}, {"alias": "tradamerican", "title": "American (Traditional)"}], "rating": 1.5, "coordinates": {"latitude": 33.8470072, "longitude": -118.2623011}, "transactions": ["delivery"], "price": "$$", "location": {"address1": "736 East Del Amo Blvd", "address2": "", "address3": "", "city": "Carson", "zip_code": "90746", "country": "US", "state": "CA", "display_address": ["736 East Del Amo Blvd", "Carson, CA 90746"]}, "phone": "+13104367793", "display_phone": "(310) 436-7793", "distance": 1893.3269322468216}], "absolute total": 3, "total": 3}