{"league": "MLS", "team": "Los Angeles FC", "stadium": "Banc of California Stadium", "stadium latitude": 34.013000000000005, "stadium longitude": -118.285, "radius": "3000 meters", "city": "Los Angeles", "state": "California", "businesses": [{"id": "-9NXuo0g_NwOPfnKX3Vr_g", "alias": "dama-los-angeles-6", "name": "DAMA", "image_url": "https://s3-media2.fl.yelpcdn.com/bphoto/Bs6olGjz_2_CDwRI7tYp2g/o.jpg", "is_closed": false, "url": "https://www.yelp.com/biz/dama-los-angeles-6?adjust_creative=a2JdNtFqB-C38ga_06BHvw&utm_campaign=yelp_api_v3&utm_medium=api_v3_business_search&utm_source=a2JdNtFqB-C38ga_06BHvw", "review_count": 600, "categories": [{"alias": "latin", "title": "Latin American"}, {"alias": "cocktailbars", "title": "Cocktail Bars"}, {"alias": "wine_bars", "title": "Wine Bars"}], "rating": 4.5, "coordinates": {"latitude": 34.0352819442964, "longitude": -118.253066191412}, "transactions": ["pickup", "delivery"], "price": "$$$", "location": {"address1": "612 E 11th St", "address2": null, "address3": "", "city": "Los Angeles", "zip_code": "90015", "country": "US", "state": "CA", "display_address": ["612 E 11th St", "Los Angeles, CA 90015"]}, "phone": "+12137410612", "display_phone": "(213) 741-0612", "distance": 3847.0454270048526}, {"id": "YYKK5pDAWQimcHzOz-7nug", "alias": "rossoblu-los-angeles-2", "name": "Rossoblu", "image_url": "https://s3-media3.fl.yelpcdn.com/bphoto/TeXdKVqEyoljlF3N4eW1VQ/o.jpg", "is_closed": false, "url": "https://www.yelp.com/biz/rossoblu-los-angeles-2?adjust_creative=a2JdNtFqB-C38ga_06BHvw&utm_campaign=yelp_api_v3&utm_medium=api_v3_business_search&utm_source=a2JdNtFqB-C38ga_06BHvw", "review_count": 607, "categories": [{"alias": "italian", "title": "Italian"}, {"alias": "pastashops", "title": "Pasta Shops"}, {"alias": "wine_bars", "title": "Wine Bars"}], "rating": 4.0, "coordinates": {"latitude": 34.0351, "longitude": -118.25332}, "transactions": ["delivery"], "price": "$$$", "location": {"address1": "1124 San Julian St", "address2": "", "address3": null, "city": "Los Angeles", "zip_code": "90015", "country": "US", "state": "CA", "display_address": ["1124 San Julian St", "Los Angeles, CA 90015"]}, "phone": "+12137491099", "display_phone": "(213) 749-1099", "distance": 3802.8674529131667}, {"id": "w46a3cQ970NC3v-2Fw7xYw", "alias": "banditos-tacos-and-tequila-los-angeles", "name": "Banditos Tacos & Tequila", "image_url": "https://s3-media2.fl.yelpcdn.com/bphoto/m5_PfoFAmojh9zYbT2N24Q/o.jpg", "is_closed": false, "url": "https://www.yelp.com/biz/banditos-tacos-and-tequila-los-angeles?adjust_creative=a2JdNtFqB-C38ga_06BHvw&utm_campaign=yelp_api_v3&utm_medium=api_v3_business_search&utm_source=a2JdNtFqB-C38ga_06BHvw", "review_count": 307, "categories": [{"alias": "sportsbars", "title": "Sports Bars"}, {"alias": "tacos", "title": "Tacos"}, {"alias": "venues", "title": "Venues & Event Spaces"}], "rating": 4.0, "coordinates": {"latitude": 34.0107222718441, "longitude": -118.290144279599}, "transactions": ["pickup", "delivery"], "price": "$$", "location": {"address1": "900 W Martin Luther King Jr Blvd", "address2": "", "address3": null, "city": "Los Angeles", "zip_code": "90037", "country": "US", "state": "CA", "display_address": ["900 W Martin Luther King Jr Blvd", "Los Angeles, CA 90037"]}, "phone": "+13234322474", "display_phone": "(323) 432-2474", "distance": 537.5609675139507}, {"id": "Mi72K5ZUWKDw6YXmRZNpSg", "alias": "rock-and-reillys-usc-village-los-angeles", "name": "Rock and Reilly's USC Village", "image_url": "https://s3-media4.fl.yelpcdn.com/bphoto/gzStrK7LICNRIy5L0_EwUw/o.jpg", "is_closed": false, "url": "https://www.yelp.com/biz/rock-and-reillys-usc-village-los-angeles?adjust_creative=a2JdNtFqB-C38ga_06BHvw&utm_campaign=yelp_api_v3&utm_medium=api_v3_business_search&utm_source=a2JdNtFqB-C38ga_06BHvw", "review_count": 184, "categories": [{"alias": "sportsbars", "title": "Sports Bars"}, {"alias": "gastropubs", "title": "Gastropubs"}, {"alias": "irish_pubs", "title": "Irish Pub"}], "rating": 3.5, "coordinates": {"latitude": 34.0247522500497, "longitude": -118.28428332887}, "transactions": ["pickup", "delivery"], "price": "$$", "location": {"address1": "3201 S Hoover St", "address2": "Ste 1810", "address3": null, "city": "Los Angeles", "zip_code": "90007", "country": "US", "state": "CA", "display_address": ["3201 S Hoover St", "Ste 1810", "Los Angeles, CA 90007"]}, "phone": "+12135365584", "display_phone": "(213) 536-5584", "distance": 1308.457345876105}, {"id": "DXFhzx94myitMxmBhsdz8A", "alias": "traditions-los-angeles", "name": "Traditions", "image_url": "https://s3-media2.fl.yelpcdn.com/bphoto/dCdiaefnHSkI23ZIPk2jNg/o.jpg", "is_closed": false, "url": "https://www.yelp.com/biz/traditions-los-angeles?adjust_creative=a2JdNtFqB-C38ga_06BHvw&utm_campaign=yelp_api_v3&utm_medium=api_v3_business_search&utm_source=a2JdNtFqB-C38ga_06BHvw", "review_count": 116, "categories": [{"alias": "divebars", "title": "Dive Bars"}, {"alias": "sportsbars", "title": "Sports Bars"}, {"alias": "burgers", "title": "Burgers"}], "rating": 3.5, "coordinates": {"latitude": 34.019963, "longitude": -118.286161}, "transactions": [], "price": "$$", "location": {"address1": "3607 Trousdale Pkwy", "address2": null, "address3": "", "city": "Los Angeles", "zip_code": "90089", "country": "US", "state": "CA", "display_address": ["3607 Trousdale Pkwy", "Los Angeles, CA 90089"]}, "phone": "+12138213445", "display_phone": "(213) 821-3445", "distance": 781.6088295913506}, {"id": "xqrzvZtSaNoXA6g-iflE4Q", "alias": "moreton-fig-los-angeles", "name": "Moreton Fig", "image_url": "https://s3-media2.fl.yelpcdn.com/bphoto/uhviYSylqlu4P8K_tbMvog/o.jpg", "is_closed": false, "url": "https://www.yelp.com/biz/moreton-fig-los-angeles?adjust_creative=a2JdNtFqB-C38ga_06BHvw&utm_campaign=yelp_api_v3&utm_medium=api_v3_business_search&utm_source=a2JdNtFqB-C38ga_06BHvw", "review_count": 120, "categories": [{"alias": "newamerican", "title": "American (New)"}, {"alias": "cocktailbars", "title": "Cocktail Bars"}], "rating": 3.5, "coordinates": {"latitude": 34.0197812799184, "longitude": -118.286040828711}, "transactions": ["delivery"], "price": "$$", "location": {"address1": "3607 Trousdale Pkwy", "address2": "", "address3": "", "city": "Los Angeles", "zip_code": "90089", "country": "US", "state": "CA", "display_address": ["3607 Trousdale Pkwy", "Los Angeles, CA 90089"]}, "phone": "+12138213441", "display_phone": "(213) 821-3441", "distance": 760.1207330205427}], "absolute total": 6, "total": 6}