{"league": "MLB", "team": "Los Angeles Dodgers", "stadium": "Dodger Stadium", "stadium latitude": 34.073611, "stadium longitude": -118.24, "radius": "3000 meters", "city": "Los Angeles", "state": "California", "businesses": [{"id": "wvOLfMsrzTlgZw6GDgbz0g", "alias": "mazal-los-angeles", "name": "Mazal", "image_url": "https://s3-media2.fl.yelpcdn.com/bphoto/6bz_39GGrrOGykbuCOVSTQ/o.jpg", "is_closed": false, "url": "https://www.yelp.com/biz/mazal-los-angeles?adjust_creative=a2JdNtFqB-C38ga_06BHvw&utm_campaign=yelp_api_v3&utm_medium=api_v3_business_search&utm_source=a2JdNtFqB-C38ga_06BHvw", "review_count": 81, "categories": [{"alias": "wine_bars", "title": "Wine Bars"}, {"alias": "mediterranean", "title": "Mediterranean"}, {"alias": "mideastern", "title": "Middle Eastern"}], "rating": 5.0, "coordinates": {"latitude": 34.074708, "longitude": -118.221158}, "transactions": [], "location": {"address1": "110 N San Fernando Rd", "address2": null, "address3": "", "city": "Los Angeles", "zip_code": "90031", "country": "US", "state": "CA", "display_address": ["110 N San Fernando Rd", "Los Angeles, CA 90031"]}, "phone": "+13235762138", "display_phone": "(323) 576-2138", "distance": 1735.7337907736128}, {"id": "h3KzTYozazMtdhS8C1qBXg", "alias": "the-semi-tropic-los-angeles", "name": "The Semi-Tropic", "image_url": "https://s3-media2.fl.yelpcdn.com/bphoto/wYRCTorpE6CL-Du3HovLfw/o.jpg", "is_closed": false, "url": "https://www.yelp.com/biz/the-semi-tropic-los-angeles?adjust_creative=a2JdNtFqB-C38ga_06BHvw&utm_campaign=yelp_api_v3&utm_medium=api_v3_business_search&utm_source=a2JdNtFqB-C38ga_06BHvw", "review_count": 410, "categories": [{"alias": "diners", "title": "Diners"}, {"alias": "cocktailbars", "title": "Cocktail Bars"}], "rating": 4.5, "coordinates": {"latitude": 34.07998, "longitude": -118.25979}, "transactions": ["pickup", "delivery"], "price": "$$", "location": {"address1": "1412 Glendale Blvd", "address2": null, "address3": "", "city": "Los Angeles", "zip_code": "90026", "country": "US", "state": "CA", "display_address": ["1412 Glendale Blvd", "Los Angeles, CA 90026"]}, "phone": "+12135683827", "display_phone": "(213) 568-3827", "distance": 1961.8610048731205}, {"id": "wiVESQxDY3CiXwohYs66lg", "alias": "garçons-de-café-los-angeles", "name": "Garçons de Café", "image_url": "https://s3-media2.fl.yelpcdn.com/bphoto/xRDxCiO0Z0ji6nE4sx0noA/o.jpg", "is_closed": false, "url": "https://www.yelp.com/biz/gar%C3%A7ons-de-caf%C3%A9-los-angeles?adjust_creative=a2JdNtFqB-C38ga_06BHvw&utm_campaign=yelp_api_v3&utm_medium=api_v3_business_search&utm_source=a2JdNtFqB-C38ga_06BHvw", "review_count": 107, "categories": [{"alias": "wine_bars", "title": "Wine Bars"}, {"alias": "french", "title": "French"}, {"alias": "breakfast_brunch", "title": "Breakfast & Brunch"}], "rating": 4.5, "coordinates": {"latitude": 34.0464895, "longitude": -118.2506481}, "transactions": [], "price": "$$", "location": {"address1": "541 S Spring St", "address2": "Ste 114", "address3": "Spring Arcade Building", "city": "Los Angeles", "zip_code": "90013", "country": "US", "state": "CA", "display_address": ["541 S Spring St", "Ste 114", "Spring Arcade Building", "Los Angeles, CA 90013"]}, "phone": "+12133446254", "display_phone": "(213) 344-6254", "distance": 3171.281595546476}, {"id": "hnTTd5XfwSoj7gI7Bl7r9A", "alias": "hill-street-bar-and-restaurant-los-angeles", "name": "Hill Street Bar & Restaurant", "image_url": "https://s3-media2.fl.yelpcdn.com/bphoto/fdUNHtJ_6IK-XtlDaeQnRA/o.jpg", "is_closed": false, "url": "https://www.yelp.com/biz/hill-street-bar-and-restaurant-los-angeles?adjust_creative=a2JdNtFqB-C38ga_06BHvw&utm_campaign=yelp_api_v3&utm_medium=api_v3_business_search&utm_source=a2JdNtFqB-C38ga_06BHvw", "review_count": 169, "categories": [{"alias": "newamerican", "title": "American (New)"}, {"alias": "burgers", "title": "Burgers"}, {"alias": "cocktailbars", "title": "Cocktail Bars"}], "rating": 4.5, "coordinates": {"latitude": 34.05273, "longitude": -118.24769}, "transactions": ["pickup", "delivery"], "price": "$$", "location": {"address1": "200 S Hill St", "address2": null, "address3": "", "city": "Los Angeles", "zip_code": "90012", "country": "US", "state": "CA", "display_address": ["200 S Hill St", "Los Angeles, CA 90012"]}, "phone": "+18664455781", "display_phone": "(866) 445-5781", "distance": 2429.307207030158}, {"id": "dl2EANNpRKjPBuQ_-iRrIA", "alias": "keepers-los-angeles", "name": "Keepers", "image_url": "https://s3-media3.fl.yelpcdn.com/bphoto/eWCu4kV6xQx7aTdYLHDsjA/o.jpg", "is_closed": false, "url": "https://www.yelp.com/biz/keepers-los-angeles?adjust_creative=a2JdNtFqB-C38ga_06BHvw&utm_campaign=yelp_api_v3&utm_medium=api_v3_business_search&utm_source=a2JdNtFqB-C38ga_06BHvw", "review_count": 122, "categories": [{"alias": "breakfast_brunch", "title": "Breakfast & Brunch"}, {"alias": "newamerican", "title": "American (New)"}, {"alias": "cocktailbars", "title": "Cocktail Bars"}], "rating": 4.5, "coordinates": {"latitude": 34.049827, "longitude": -118.243313}, "transactions": ["pickup", "delivery"], "location": {"address1": "200 S Los Angeles St", "address2": null, "address3": "", "city": "Los Angeles", "zip_code": "90012", "country": "US", "state": "CA", "display_address": ["200 S Los Angeles St", "Los Angeles, CA 90012"]}, "phone": "+12132668156", "display_phone": "(213) 266-8156", "distance": 2661.27337620899}, {"id": "gd6PYDx-leOM97a3MWoO1g", "alias": "maccheroni-republic-los-angeles", "name": "Maccheroni Republic", "image_url": "https://s3-media4.fl.yelpcdn.com/bphoto/I-4SnHvaWothASzVaMhVYw/o.jpg", "is_closed": false, "url": "https://www.yelp.com/biz/maccheroni-republic-los-angeles?adjust_creative=a2JdNtFqB-C38ga_06BHvw&utm_campaign=yelp_api_v3&utm_medium=api_v3_business_search&utm_source=a2JdNtFqB-C38ga_06BHvw", "review_count": 3127, "categories": [{"alias": "italian", "title": "Italian"}, {"alias": "wine_bars", "title": "Wine Bars"}], "rating": 4.5, "coordinates": {"latitude": 34.050039, "longitude": -118.248552}, "transactions": ["pickup", "delivery"], "price": "$$", "location": {"address1": "332 S Broadway", "address2": "", "address3": "", "city": "Los Angeles", "zip_code": "90013", "country": "US", "state": "CA", "display_address": ["332 S Broadway", "Los Angeles, CA 90013"]}, "phone": "+12133469725", "display_phone": "(213) 346-9725", "distance": 2736.912930321715}, {"id": "_B4--xvtNrw-oNLL49Sqtw", "alias": "bar-avalon-los-angeles-3", "name": "Bar Avalon", "image_url": "https://s3-media3.fl.yelpcdn.com/bphoto/3zOPEot9mY9ZV7PfkVnBHQ/o.jpg", "is_closed": false, "url": "https://www.yelp.com/biz/bar-avalon-los-angeles-3?adjust_creative=a2JdNtFqB-C38ga_06BHvw&utm_campaign=yelp_api_v3&utm_medium=api_v3_business_search&utm_source=a2JdNtFqB-C38ga_06BHvw", "review_count": 35, "categories": [{"alias": "newamerican", "title": "American (New)"}, {"alias": "wine_bars", "title": "Wine Bars"}, {"alias": "coffee", "title": "Coffee & Tea"}], "rating": 5.0, "coordinates": {"latitude": 34.077204, "longitude": -118.264219}, "transactions": ["delivery"], "price": "$$", "location": {"address1": "2112 W Sunset Blvd", "address2": "Ste J", "address3": "", "city": "Los Angeles", "zip_code": "90026", "country": "US", "state": "CA", "display_address": ["2112 W Sunset Blvd", "Ste J", "Los Angeles, CA 90026"]}, "phone": "+12139085352", "display_phone": "(213) 908-5352", "distance": 2259.6329502009553}, {"id": "6k9zcclgcVtGmeRpwdMcog", "alias": "e-stretto-los-angeles-2", "name": "E Stretto", "image_url": "https://s3-media1.fl.yelpcdn.com/bphoto/eBJ-oXTGJ9rc3lZ_gDJ9sg/o.jpg", "is_closed": false, "url": "https://www.yelp.com/biz/e-stretto-los-angeles-2?adjust_creative=a2JdNtFqB-C38ga_06BHvw&utm_campaign=yelp_api_v3&utm_medium=api_v3_business_search&utm_source=a2JdNtFqB-C38ga_06BHvw", "review_count": 101, "categories": [{"alias": "sandwiches", "title": "Sandwiches"}, {"alias": "wine_bars", "title": "Wine Bars"}], "rating": 4.5, "coordinates": {"latitude": 34.0498933036789, "longitude": -118.249227992454}, "transactions": ["pickup", "delivery"], "price": "$$", "location": {"address1": "351 S Broadway", "address2": "", "address3": null, "city": "Los Angeles", "zip_code": "90013", "country": "US", "state": "CA", "display_address": ["351 S Broadway", "Los Angeles, CA 90013"]}, "phone": "+12132657017", "display_phone": "(213) 265-7017", "distance": 2770.897474390602}, {"id": "9EaRONZCZxomy3TTkLM8DA", "alias": "oriel-chinatown-los-angeles", "name": "Oriel Chinatown", "image_url": "https://s3-media1.fl.yelpcdn.com/bphoto/Q8anHvra7nxJF2hQKEEMTQ/o.jpg", "is_closed": false, "url": "https://www.yelp.com/biz/oriel-chinatown-los-angeles?adjust_creative=a2JdNtFqB-C38ga_06BHvw&utm_campaign=yelp_api_v3&utm_medium=api_v3_business_search&utm_source=a2JdNtFqB-C38ga_06BHvw", "review_count": 147, "categories": [{"alias": "french", "title": "French"}, {"alias": "wine_bars", "title": "Wine Bars"}], "rating": 4.5, "coordinates": {"latitude": 34.0625239, "longitude": -118.2362958}, "transactions": ["pickup", "delivery"], "price": "$$", "location": {"address1": "1135 N Alameda St", "address2": "", "address3": null, "city": "Los Angeles", "zip_code": "90012", "country": "US", "state": "CA", "display_address": ["1135 N Alameda St", "Los Angeles, CA 90012"]}, "phone": "+12132539419", "display_phone": "(213) 253-9419", "distance": 1261.783325857278}, {"id": "OwoEStx-D5Dy5cGedkXrdQ", "alias": "blacksmiths-los-angeles-2", "name": "Blacksmiths", "image_url": "https://s3-media2.fl.yelpcdn.com/bphoto/4vosW5D4L1-r_b29VJm1VA/o.jpg", "is_closed": false, "url": "https://www.yelp.com/biz/blacksmiths-los-angeles-2?adjust_creative=a2JdNtFqB-C38ga_06BHvw&utm_campaign=yelp_api_v3&utm_medium=api_v3_business_search&utm_source=a2JdNtFqB-C38ga_06BHvw", "review_count": 629, "categories": [{"alias": "newamerican", "title": "American (New)"}, {"alias": "cocktailbars", "title": "Cocktail Bars"}], "rating": 4.0, "coordinates": {"latitude": 34.04716, "longitude": -118.24708}, "transactions": ["delivery"], "price": "$$$", "location": {"address1": "117 Winston St", "address2": null, "address3": "", "city": "Los Angeles", "zip_code": "90013", "country": "US", "state": "CA", "display_address": ["117 Winston St", "Los Angeles, CA 90013"]}, "phone": "+12136283847", "display_phone": "(213) 628-3847", "distance": 3017.4754494062645}, {"id": "5SVj7kpiXxCEnkzL_8wA1g", "alias": "redbird-los-angeles-2", "name": "Redbird", "image_url": "https://s3-media3.fl.yelpcdn.com/bphoto/zWgBLwNGsTGuZCI9uWFt2w/o.jpg", "is_closed": false, "url": "https://www.yelp.com/biz/redbird-los-angeles-2?adjust_creative=a2JdNtFqB-C38ga_06BHvw&utm_campaign=yelp_api_v3&utm_medium=api_v3_business_search&utm_source=a2JdNtFqB-C38ga_06BHvw", "review_count": 1518, "categories": [{"alias": "cocktailbars", "title": "Cocktail Bars"}, {"alias": "newamerican", "title": "American (New)"}, {"alias": "wineries", "title": "Wineries"}], "rating": 4.0, "coordinates": {"latitude": 34.05049, "longitude": -118.24406}, "transactions": ["delivery"], "price": "$$$", "location": {"address1": "114 E 2nd St", "address2": "", "address3": "", "city": "Los Angeles", "zip_code": "90012", "country": "US", "state": "CA", "display_address": ["114 E 2nd St", "Los Angeles, CA 90012"]}, "phone": "+12137881191", "display_phone": "(213) 788-1191", "distance": 2594.268710686356}, {"id": "yyTLKAplUF89xydeB2bZWQ", "alias": "mezcalero-los-angeles-2", "name": "Mezcalero", "image_url": "https://s3-media1.fl.yelpcdn.com/bphoto/AvjF3RH0TjgBjPTXWqN_XA/o.jpg", "is_closed": false, "url": "https://www.yelp.com/biz/mezcalero-los-angeles-2?adjust_creative=a2JdNtFqB-C38ga_06BHvw&utm_campaign=yelp_api_v3&utm_medium=api_v3_business_search&utm_source=a2JdNtFqB-C38ga_06BHvw", "review_count": 546, "categories": [{"alias": "cocktailbars", "title": "Cocktail Bars"}, {"alias": "mexican", "title": "Mexican"}], "rating": 4.0, "coordinates": {"latitude": 34.04751, "longitude": -118.25072}, "transactions": ["pickup", "delivery"], "price": "$$", "location": {"address1": "510 S Broadway", "address2": null, "address3": "", "city": "Los Angeles", "zip_code": "90013", "country": "US", "state": "CA", "display_address": ["510 S Broadway", "Los Angeles, CA 90013"]}, "phone": "+12136283337", "display_phone": "(213) 628-3337", "distance": 3064.395425887944}, {"id": "nGlLaC0p0naSlgdy2-HCVw", "alias": "71-above-los-angeles-2", "name": "71 Above", "image_url": "https://s3-media4.fl.yelpcdn.com/bphoto/M7u8p47OhdoJu084C8rXGw/o.jpg", "is_closed": false, "url": "https://www.yelp.com/biz/71-above-los-angeles-2?adjust_creative=a2JdNtFqB-C38ga_06BHvw&utm_campaign=yelp_api_v3&utm_medium=api_v3_business_search&utm_source=a2JdNtFqB-C38ga_06BHvw", "review_count": 1904, "categories": [{"alias": "tradamerican", "title": "American (Traditional)"}, {"alias": "cocktailbars", "title": "Cocktail Bars"}], "rating": 4.0, "coordinates": {"latitude": 34.0511203, "longitude": -118.2543221}, "transactions": ["delivery"], "price": "$$$$", "location": {"address1": "633 W 5th St", "address2": "Fl 71", "address3": "", "city": "Los Angeles", "zip_code": "90071", "country": "US", "state": "CA", "display_address": ["633 W 5th St", "Fl 71", "Los Angeles, CA 90071"]}, "phone": "+12137122683", "display_phone": "(213) 712-2683", "distance": 2827.5110817091595}, {"id": "nYD88woJ2pQn8iGPi6emrQ", "alias": "10e-los-angeles-6", "name": "10e", "image_url": "https://s3-media4.fl.yelpcdn.com/bphoto/QBN828FQDVv5hdqg3SCbmw/o.jpg", "is_closed": false, "url": "https://www.yelp.com/biz/10e-los-angeles-6?adjust_creative=a2JdNtFqB-C38ga_06BHvw&utm_campaign=yelp_api_v3&utm_medium=api_v3_business_search&utm_source=a2JdNtFqB-C38ga_06BHvw", "review_count": 651, "categories": [{"alias": "mediterranean", "title": "Mediterranean"}, {"alias": "armenian", "title": "Armenian"}, {"alias": "cocktailbars", "title": "Cocktail Bars"}], "rating": 4.0, "coordinates": {"latitude": 34.0489812, "longitude": -118.2589574}, "transactions": ["pickup", "delivery"], "price": "$$", "location": {"address1": "811 W 7th St", "address2": "", "address3": "", "city": "Los Angeles", "zip_code": "90017", "country": "US", "state": "CA", "display_address": ["811 W 7th St", "Los Angeles, CA 90017"]}, "phone": "+12134881096", "display_phone": "(213) 488-1096", "distance": 3243.979947894657}, {"id": "451LU9SaBEoxtLJ8NZdXIA", "alias": "ootoro-little-tokyo-los-angeles", "name": "OOTORO Little Tokyo", "image_url": "https://s3-media2.fl.yelpcdn.com/bphoto/wCx9G3yTpU9cRqxzqT9Vaw/o.jpg", "is_closed": false, "url": "https://www.yelp.com/biz/ootoro-little-tokyo-los-angeles?adjust_creative=a2JdNtFqB-C38ga_06BHvw&utm_campaign=yelp_api_v3&utm_medium=api_v3_business_search&utm_source=a2JdNtFqB-C38ga_06BHvw", "review_count": 62, "categories": [{"alias": "japanese", "title": "Japanese"}, {"alias": "sushi", "title": "Sushi Bars"}, {"alias": "wine_bars", "title": "Wine Bars"}], "rating": 4.5, "coordinates": {"latitude": 34.049327, "longitude": -118.242476}, "transactions": [], "location": {"address1": "232 E 2nd St", "address2": "Ste E", "address3": "", "city": "Los Angeles", "zip_code": "90012", "country": "US", "state": "CA", "display_address": ["232 E 2nd St", "Ste E", "Los Angeles, CA 90012"]}, "phone": "+12132780056", "display_phone": "(213) 278-0056", "distance": 2739.4874507891727}, {"id": "L95iQyXrXFgYdfD_IIxmbw", "alias": "locala-los-angeles", "name": "Locala", "image_url": "https://s3-media3.fl.yelpcdn.com/bphoto/EY1923Y6R5w50CQ574l16w/o.jpg", "is_closed": false, "url": "https://www.yelp.com/biz/locala-los-angeles?adjust_creative=a2JdNtFqB-C38ga_06BHvw&utm_campaign=yelp_api_v3&utm_medium=api_v3_business_search&utm_source=a2JdNtFqB-C38ga_06BHvw", "review_count": 88, "categories": [{"alias": "newamerican", "title": "American (New)"}, {"alias": "breakfast_brunch", "title": "Breakfast & Brunch"}, {"alias": "cocktailbars", "title": "Cocktail Bars"}], "rating": 4.5, "coordinates": {"latitude": 34.0519387, "longitude": -118.2675999}, "transactions": ["delivery"], "location": {"address1": "1256 W 7th St", "address2": null, "address3": null, "city": "Los Angeles", "zip_code": "90017", "country": "US", "state": "CA", "display_address": ["1256 W 7th St", "Los Angeles, CA 90017"]}, "phone": "+12136321210", "display_phone": "(213) 632-1210", "distance": 3503.0259336545128}, {"id": "cxU5blDB5nnZIkn4amrf5A", "alias": "grá-los-angeles-2", "name": "Grá", "image_url": "https://s3-media3.fl.yelpcdn.com/bphoto/y8f4j-YI0N4osGp2-nC4jA/o.jpg", "is_closed": false, "url": "https://www.yelp.com/biz/gr%C3%A1-los-angeles-2?adjust_creative=a2JdNtFqB-C38ga_06BHvw&utm_campaign=yelp_api_v3&utm_medium=api_v3_business_search&utm_source=a2JdNtFqB-C38ga_06BHvw", "review_count": 98, "categories": [{"alias": "pizza", "title": "Pizza"}, {"alias": "salad", "title": "Salad"}, {"alias": "wine_bars", "title": "Wine Bars"}], "rating": 4.5, "coordinates": {"latitude": 34.066696, "longitude": -118.2607331}, "transactions": [], "location": {"address1": "1524 Pizarro St", "address2": null, "address3": null, "city": "Los Angeles", "zip_code": "90026", "country": "US", "state": "CA", "display_address": ["1524 Pizarro St", "Los Angeles, CA 90026"]}, "phone": "", "display_phone": "", "distance": 2064.9549631218515}, {"id": "-kXz-ND_kQuBnOhpdlN7gA", "alias": "red-lion-tavern-los-angeles", "name": "Red Lion Tavern", "image_url": "https://s3-media1.fl.yelpcdn.com/bphoto/IoRY3S78OzOlQjNQk9FJqQ/o.jpg", "is_closed": false, "url": "https://www.yelp.com/biz/red-lion-tavern-los-angeles?adjust_creative=a2JdNtFqB-C38ga_06BHvw&utm_campaign=yelp_api_v3&utm_medium=api_v3_business_search&utm_source=a2JdNtFqB-C38ga_06BHvw", "review_count": 1664, "categories": [{"alias": "pubs", "title": "Pubs"}, {"alias": "german", "title": "German"}], "rating": 4.0, "coordinates": {"latitude": 34.09921755262867, "longitude": -118.25892339999997}, "transactions": ["pickup", "delivery"], "price": "$$", "location": {"address1": "2366 Glendale Blvd", "address2": "", "address3": "", "city": "Los Angeles", "zip_code": "90039", "country": "US", "state": "CA", "display_address": ["2366 Glendale Blvd", "Los Angeles, CA 90039"]}, "phone": "+13236625337", "display_phone": "(323) 662-5337", "distance": 3338.2790926903294}, {"id": "wtp1izuuno7wsPBhPRcGqw", "alias": "library-bar-los-angeles", "name": "Library Bar", "image_url": "https://s3-media1.fl.yelpcdn.com/bphoto/mi_feqxtzxhAnibLGfbIOA/o.jpg", "is_closed": false, "url": "https://www.yelp.com/biz/library-bar-los-angeles?adjust_creative=a2JdNtFqB-C38ga_06BHvw&utm_campaign=yelp_api_v3&utm_medium=api_v3_business_search&utm_source=a2JdNtFqB-C38ga_06BHvw", "review_count": 1777, "categories": [{"alias": "newamerican", "title": "American (New)"}, {"alias": "cocktailbars", "title": "Cocktail Bars"}], "rating": 4.0, "coordinates": {"latitude": 34.04939, "longitude": -118.256506}, "transactions": ["delivery"], "price": "$$", "location": {"address1": "630 W 6th St", "address2": "Ste 116-A", "address3": "", "city": "Los Angeles", "zip_code": "90017", "country": "US", "state": "CA", "display_address": ["630 W 6th St", "Ste 116-A", "Los Angeles, CA 90017"]}, "phone": "+12136141900", "display_phone": "(213) 614-1900", "distance": 3092.8150485757046}, {"id": "jEc9UnIE0LnMOpadEWxcLg", "alias": "the-oyster-gourmet-los-angeles-3", "name": "The Oyster Gourmet", "image_url": "https://s3-media3.fl.yelpcdn.com/bphoto/CaXvgQrHfby1CGu6EWUd3Q/o.jpg", "is_closed": false, "url": "https://www.yelp.com/biz/the-oyster-gourmet-los-angeles-3?adjust_creative=a2JdNtFqB-C38ga_06BHvw&utm_campaign=yelp_api_v3&utm_medium=api_v3_business_search&utm_source=a2JdNtFqB-C38ga_06BHvw", "review_count": 260, "categories": [{"alias": "seafood", "title": "Seafood"}, {"alias": "wine_bars", "title": "Wine Bars"}], "rating": 4.0, "coordinates": {"latitude": 34.0509763035137, "longitude": -118.249221384131}, "transactions": ["delivery"], "price": "$$", "location": {"address1": "317 S Broadway", "address2": "", "address3": "", "city": "Los Angeles", "zip_code": "90013", "country": "US", "state": "CA", "display_address": ["317 S Broadway", "Los Angeles, CA 90013"]}, "phone": "+13105700682", "display_phone": "(310) 570-0682", "distance": 2656.3408075811735}, {"id": "SGr-W_g4ecqkkEweCc1RVg", "alias": "bar-ama-los-angeles", "name": "BAR Ama", "image_url": "https://s3-media1.fl.yelpcdn.com/bphoto/nUOKNhcxzlWEyD6fuhFlZA/o.jpg", "is_closed": false, "url": "https://www.yelp.com/biz/bar-ama-los-angeles?adjust_creative=a2JdNtFqB-C38ga_06BHvw&utm_campaign=yelp_api_v3&utm_medium=api_v3_business_search&utm_source=a2JdNtFqB-C38ga_06BHvw", "review_count": 1226, "categories": [{"alias": "tex-mex", "title": "Tex-Mex"}, {"alias": "cocktailbars", "title": "Cocktail Bars"}, {"alias": "newmexican", "title": "New Mexican Cuisine"}], "rating": 4.0, "coordinates": {"latitude": 34.0483374, "longitude": -118.2477806}, "transactions": ["pickup", "delivery"], "price": "$$", "location": {"address1": "118 W 4th St", "address2": "", "address3": "", "city": "Los Angeles", "zip_code": "90013", "country": "US", "state": "CA", "display_address": ["118 W 4th St", "Los Angeles, CA 90013"]}, "phone": "+12136878002", "display_phone": "(213) 687-8002", "distance": 2895.310047648649}, {"id": "4Ttfvrc3S3xW1sxHF-oFPg", "alias": "el-paseo-inn-los-angeles", "name": "El Paseo Inn", "image_url": "https://s3-media4.fl.yelpcdn.com/bphoto/46gvnaS8O5O0M74WiDDixg/o.jpg", "is_closed": false, "url": "https://www.yelp.com/biz/el-paseo-inn-los-angeles?adjust_creative=a2JdNtFqB-C38ga_06BHvw&utm_campaign=yelp_api_v3&utm_medium=api_v3_business_search&utm_source=a2JdNtFqB-C38ga_06BHvw", "review_count": 1264, "categories": [{"alias": "mexican", "title": "Mexican"}, {"alias": "cocktailbars", "title": "Cocktail Bars"}, {"alias": "venues", "title": "Venues & Event Spaces"}], "rating": 4.0, "coordinates": {"latitude": 34.0574823572481, "longitude": -118.237740052736}, "transactions": ["delivery"], "price": "$$", "location": {"address1": "11 E Olvera St", "address2": "", "address3": "", "city": "Los Angeles", "zip_code": "90012", "country": "US", "state": "CA", "display_address": ["11 E Olvera St", "Los Angeles, CA 90012"]}, "phone": "+12136261361", "display_phone": "(213) 626-1361", "distance": 1805.4626067369556}, {"id": "Brpb042-ps06D6w3E50f1g", "alias": "traxx-restaurant-los-angeles-2", "name": "TRAXX RESTAURANT", "image_url": "https://s3-media1.fl.yelpcdn.com/bphoto/G17lubQTDjD5hi83dZMNKw/o.jpg", "is_closed": false, "url": "https://www.yelp.com/biz/traxx-restaurant-los-angeles-2?adjust_creative=a2JdNtFqB-C38ga_06BHvw&utm_campaign=yelp_api_v3&utm_medium=api_v3_business_search&utm_source=a2JdNtFqB-C38ga_06BHvw", "review_count": 31, "categories": [{"alias": "wine_bars", "title": "Wine Bars"}, {"alias": "tradamerican", "title": "American (Traditional)"}, {"alias": "cocktailbars", "title": "Cocktail Bars"}], "rating": 4.5, "coordinates": {"latitude": 34.0561350995455, "longitude": -118.237482804911}, "transactions": ["delivery"], "location": {"address1": "800 N Alameda St", "address2": "", "address3": null, "city": "Los Angeles", "zip_code": "90012", "country": "US", "state": "CA", "display_address": ["800 N Alameda St", "Los Angeles, CA 90012"]}, "phone": "+13234707094", "display_phone": "(323) 470-7094", "distance": 1957.0139496286363}, {"id": "yqfZcttHy2WdYFzMQQaXoA", "alias": "le-petit-paris-los-angeles-3", "name": "Le Petit Paris", "image_url": "https://s3-media2.fl.yelpcdn.com/bphoto/ZHloSf8T4DAXALeaEuggew/o.jpg", "is_closed": false, "url": "https://www.yelp.com/biz/le-petit-paris-los-angeles-3?adjust_creative=a2JdNtFqB-C38ga_06BHvw&utm_campaign=yelp_api_v3&utm_medium=api_v3_business_search&utm_source=a2JdNtFqB-C38ga_06BHvw", "review_count": 1263, "categories": [{"alias": "french", "title": "French"}, {"alias": "cocktailbars", "title": "Cocktail Bars"}, {"alias": "modern_european", "title": "Modern European"}], "rating": 4.0, "coordinates": {"latitude": 34.0481, "longitude": -118.24846}, "transactions": ["pickup", "delivery"], "price": "$$$", "location": {"address1": "418 /420 S Spring St", "address2": "", "address3": "", "city": "Los Angeles", "zip_code": "90013", "country": "US", "state": "CA", "display_address": ["418 /420 S Spring St", "Los Angeles, CA 90013"]}, "phone": "+12132174445", "display_phone": "(213) 217-4445", "distance": 2923.0946607008127}, {"id": "tNLPTQYYfzh3IL7YoS1s_g", "alias": "district-los-angeles-2", "name": "District", "image_url": "https://s3-media3.fl.yelpcdn.com/bphoto/BiLPNESqVmSNvUr6d369kQ/o.jpg", "is_closed": false, "url": "https://www.yelp.com/biz/district-los-angeles-2?adjust_creative=a2JdNtFqB-C38ga_06BHvw&utm_campaign=yelp_api_v3&utm_medium=api_v3_business_search&utm_source=a2JdNtFqB-C38ga_06BHvw", "review_count": 547, "categories": [{"alias": "cocktailbars", "title": "Cocktail Bars"}, {"alias": "tradamerican", "title": "American (Traditional)"}, {"alias": "venues", "title": "Venues & Event Spaces"}], "rating": 4.0, "coordinates": {"latitude": 34.0479912921288, "longitude": -118.258466860049}, "transactions": ["delivery"], "price": "$$", "location": {"address1": "700 West 7th St", "address2": "", "address3": "", "city": "Los Angeles", "zip_code": "90017", "country": "US", "state": "CA", "display_address": ["700 West 7th St", "Los Angeles, CA 90017"]}, "phone": "+12136123185", "display_phone": "(213) 612-3185", "distance": 3318.0449047906422}, {"id": "77OCLqNangVVY-GHXAE7ng", "alias": "the-nomad-restaurant-los-angeles", "name": "The NoMad Restaurant", "image_url": "https://s3-media2.fl.yelpcdn.com/bphoto/FPY01v5LIFqVEJ_DYuUkYQ/o.jpg", "is_closed": false, "url": "https://www.yelp.com/biz/the-nomad-restaurant-los-angeles?adjust_creative=a2JdNtFqB-C38ga_06BHvw&utm_campaign=yelp_api_v3&utm_medium=api_v3_business_search&utm_source=a2JdNtFqB-C38ga_06BHvw", "review_count": 351, "categories": [{"alias": "newamerican", "title": "American (New)"}, {"alias": "cocktailbars", "title": "Cocktail Bars"}, {"alias": "tapasmallplates", "title": "Tapas/Small Plates"}], "rating": 4.0, "coordinates": {"latitude": 34.04697, "longitude": -118.25557}, "transactions": ["delivery"], "price": "$$$$", "location": {"address1": "649 S Olive St", "address2": "", "address3": null, "city": "Los Angeles", "zip_code": "90014", "country": "US", "state": "CA", "display_address": ["649 S Olive St", "Los Angeles, CA 90014"]}, "phone": "+12133580000", "display_phone": "(213) 358-0000", "distance": 3280.1185829958363}, {"id": "20q1O9lNZsD9RrKTURFr2A", "alias": "the-wolves-los-angeles", "name": "The Wolves", "image_url": "https://s3-media1.fl.yelpcdn.com/bphoto/tzh6sQpSI28zJPSGu1dkTw/o.jpg", "is_closed": false, "url": "https://www.yelp.com/biz/the-wolves-los-angeles?adjust_creative=a2JdNtFqB-C38ga_06BHvw&utm_campaign=yelp_api_v3&utm_medium=api_v3_business_search&utm_source=a2JdNtFqB-C38ga_06BHvw", "review_count": 227, "categories": [{"alias": "cocktailbars", "title": "Cocktail Bars"}, {"alias": "newamerican", "title": "American (New)"}], "rating": 4.0, "coordinates": {"latitude": 34.0470476, "longitude": -118.2501702}, "transactions": [], "price": "$$", "location": {"address1": "519 S Spring St", "address2": "", "address3": null, "city": "Los Angeles", "zip_code": "90013", "country": "US", "state": "CA", "display_address": ["519 S Spring St", "Los Angeles, CA 90013"]}, "phone": "+12132657952", "display_phone": "(213) 265-7952", "distance": 3102.190103852267}, {"id": "d5DBVWKAn3VQ1cLZ7t6P-Q", "alias": "golden-road-brewing-los-angeles-3", "name": "Golden Road Brewing", "image_url": "https://s3-media2.fl.yelpcdn.com/bphoto/sR1mpDx0ApkSL7KOcJ_D0g/o.jpg", "is_closed": false, "url": "https://www.yelp.com/biz/golden-road-brewing-los-angeles-3?adjust_creative=a2JdNtFqB-C38ga_06BHvw&utm_campaign=yelp_api_v3&utm_medium=api_v3_business_search&utm_source=a2JdNtFqB-C38ga_06BHvw", "review_count": 249, "categories": [{"alias": "pubs", "title": "Pubs"}, {"alias": "breweries", "title": "Breweries"}, {"alias": "breakfast_brunch", "title": "Breakfast & Brunch"}], "rating": 4.0, "coordinates": {"latitude": 34.051081, "longitude": -118.249108}, "transactions": ["delivery"], "price": "$$", "location": {"address1": "317 S Broadway", "address2": null, "address3": "", "city": "Los Angeles", "zip_code": "90013", "country": "US", "state": "CA", "display_address": ["317 S Broadway", "Los Angeles, CA 90013"]}, "phone": "+12136283336", "display_phone": "(213) 628-3336", "distance": 2651.5154325413764}, {"id": "I_TuSSaSdjgM9h7C8mkX1A", "alias": "bunker-hill-bar-and-grill-los-angeles", "name": "Bunker Hill Bar & Grill", "image_url": "https://s3-media2.fl.yelpcdn.com/bphoto/RI3wMbtbGdkk-uD3qU5khQ/o.jpg", "is_closed": false, "url": "https://www.yelp.com/biz/bunker-hill-bar-and-grill-los-angeles?adjust_creative=a2JdNtFqB-C38ga_06BHvw&utm_campaign=yelp_api_v3&utm_medium=api_v3_business_search&utm_source=a2JdNtFqB-C38ga_06BHvw", "review_count": 845, "categories": [{"alias": "newamerican", "title": "American (New)"}, {"alias": "sportsbars", "title": "Sports Bars"}, {"alias": "sushi", "title": "Sushi Bars"}], "rating": 3.5, "coordinates": {"latitude": 34.050802, "longitude": -118.253996}, "transactions": ["pickup", "delivery"], "price": "$$", "location": {"address1": "601 W 5th St", "address2": "Ste R 201", "address3": "", "city": "Los Angeles", "zip_code": "90017", "country": "US", "state": "CA", "display_address": ["601 W 5th St", "Ste R 201", "Los Angeles, CA 90017"]}, "phone": "+12136882988", "display_phone": "(213) 688-2988", "distance": 2845.1264603036543}, {"id": "EjRBYCUq2sx-TH77zubUfw", "alias": "far-bar-los-angeles-4", "name": "Far Bar", "image_url": "https://s3-media2.fl.yelpcdn.com/bphoto/W82kCJsKyJzMOUqa3gI_jw/o.jpg", "is_closed": false, "url": "https://www.yelp.com/biz/far-bar-los-angeles-4?adjust_creative=a2JdNtFqB-C38ga_06BHvw&utm_campaign=yelp_api_v3&utm_medium=api_v3_business_search&utm_source=a2JdNtFqB-C38ga_06BHvw", "review_count": 1956, "categories": [{"alias": "asianfusion", "title": "Asian Fusion"}, {"alias": "cocktailbars", "title": "Cocktail Bars"}, {"alias": "beerbar", "title": "Beer Bar"}], "rating": 3.5, "coordinates": {"latitude": 34.04973, "longitude": -118.23944}, "transactions": ["pickup", "delivery"], "price": "$$", "location": {"address1": "347 E 1st St", "address2": "", "address3": "", "city": "Los Angeles", "zip_code": "90012", "country": "US", "state": "CA", "display_address": ["347 E 1st St", "Los Angeles, CA 90012"]}, "phone": "+12136179990", "display_phone": "(213) 617-9990", "distance": 2653.8196917369187}, {"id": "5_6Gn67IRK2AcHfwWjIARQ", "alias": "cosa-buona-los-angeles-3", "name": "Cosa Buona", "image_url": "https://s3-media3.fl.yelpcdn.com/bphoto/r0Jct2wJvbIwarf_-2YDJQ/o.jpg", "is_closed": false, "url": "https://www.yelp.com/biz/cosa-buona-los-angeles-3?adjust_creative=a2JdNtFqB-C38ga_06BHvw&utm_campaign=yelp_api_v3&utm_medium=api_v3_business_search&utm_source=a2JdNtFqB-C38ga_06BHvw", "review_count": 332, "categories": [{"alias": "pizza", "title": "Pizza"}, {"alias": "sandwiches", "title": "Sandwiches"}, {"alias": "wine_bars", "title": "Wine Bars"}], "rating": 4.0, "coordinates": {"latitude": 34.07727, "longitude": -118.26389}, "transactions": ["delivery"], "price": "$$", "location": {"address1": "2100 Sunset Blvd", "address2": "", "address3": null, "city": "Los Angeles", "zip_code": "90026", "country": "US", "state": "CA", "display_address": ["2100 Sunset Blvd", "Los Angeles, CA 90026"]}, "phone": "+12139085211", "display_phone": "(213) 908-5211", "distance": 2240.3509585991255}, {"id": "9qDA6kGLxuZ0bOSYWet4uA", "alias": "botanica-restaurant-and-market-los-angeles", "name": "Botanica Restaurant & Market", "image_url": "https://s3-media1.fl.yelpcdn.com/bphoto/KPmKDiFNW3jdXcPLmbq3cQ/o.jpg", "is_closed": false, "url": "https://www.yelp.com/biz/botanica-restaurant-and-market-los-angeles?adjust_creative=a2JdNtFqB-C38ga_06BHvw&utm_campaign=yelp_api_v3&utm_medium=api_v3_business_search&utm_source=a2JdNtFqB-C38ga_06BHvw", "review_count": 279, "categories": [{"alias": "newamerican", "title": "American (New)"}, {"alias": "cocktailbars", "title": "Cocktail Bars"}, {"alias": "coffee", "title": "Coffee & Tea"}], "rating": 4.0, "coordinates": {"latitude": 34.088443, "longitude": -118.268825}, "transactions": ["delivery"], "price": "$$", "location": {"address1": "1620 Silver Lake Blvd", "address2": null, "address3": "", "city": "Los Angeles", "zip_code": "90026", "country": "US", "state": "CA", "display_address": ["1620 Silver Lake Blvd", "Los Angeles, CA 90026"]}, "phone": "+13235226106", "display_phone": "(323) 522-6106", "distance": 3125.2765258030195}, {"id": "yFEqBhIr_YtAibpyBzQKtw", "alias": "yakuza-sushi-los-angeles-3", "name": "Yakuza Sushi", "image_url": "https://s3-media1.fl.yelpcdn.com/bphoto/m-j3THFx6ZK-JCED0iFebQ/o.jpg", "is_closed": false, "url": "https://www.yelp.com/biz/yakuza-sushi-los-angeles-3?adjust_creative=a2JdNtFqB-C38ga_06BHvw&utm_campaign=yelp_api_v3&utm_medium=api_v3_business_search&utm_source=a2JdNtFqB-C38ga_06BHvw", "review_count": 170, "categories": [{"alias": "sushi", "title": "Sushi Bars"}, {"alias": "japanese", "title": "Japanese"}, {"alias": "wine_bars", "title": "Wine Bars"}], "rating": 4.0, "coordinates": {"latitude": 34.0893594018348, "longitude": -118.268309100123}, "transactions": ["pickup", "delivery"], "price": "$$", "location": {"address1": "1700 Silver Lake Blvd", "address2": null, "address3": "", "city": "Los Angeles", "zip_code": "90026", "country": "US", "state": "CA", "display_address": ["1700 Silver Lake Blvd", "Los Angeles, CA 90026"]}, "phone": "+13237418282", "display_phone": "(323) 741-8282", "distance": 3140.664081167824}, {"id": "6VlvPYFbm4NSrzF23i90_w", "alias": "the-mermaid-los-angeles-6", "name": "The Mermaid", "image_url": "https://s3-media2.fl.yelpcdn.com/bphoto/Iy9LWS522CvvPdI1p2pWfA/o.jpg", "is_closed": false, "url": "https://www.yelp.com/biz/the-mermaid-los-angeles-6?adjust_creative=a2JdNtFqB-C38ga_06BHvw&utm_campaign=yelp_api_v3&utm_medium=api_v3_business_search&utm_source=a2JdNtFqB-C38ga_06BHvw", "review_count": 138, "categories": [{"alias": "cocktailbars", "title": "Cocktail Bars"}, {"alias": "newamerican", "title": "American (New)"}], "rating": 4.0, "coordinates": {"latitude": 34.047183, "longitude": -118.2388289}, "transactions": ["pickup", "delivery"], "price": "$$", "location": {"address1": "428 E 2nd St", "address2": null, "address3": "", "city": "Los Angeles", "zip_code": "90012", "country": "US", "state": "CA", "display_address": ["428 E 2nd St", "Los Angeles, CA 90012"]}, "phone": "+12139473347", "display_phone": "(213) 947-3347", "distance": 2958.482908890493}, {"id": "Zub7WJxbguc1I5YRWKKDfQ", "alias": "same-same-los-angeles", "name": "Same Same", "image_url": "https://s3-media3.fl.yelpcdn.com/bphoto/MrFFI08vLafi8-_kwSNFkg/o.jpg", "is_closed": false, "url": "https://www.yelp.com/biz/same-same-los-angeles?adjust_creative=a2JdNtFqB-C38ga_06BHvw&utm_campaign=yelp_api_v3&utm_medium=api_v3_business_search&utm_source=a2JdNtFqB-C38ga_06BHvw", "review_count": 285, "categories": [{"alias": "wine_bars", "title": "Wine Bars"}, {"alias": "thai", "title": "Thai"}], "rating": 4.0, "coordinates": {"latitude": 34.082354, "longitude": -118.27228}, "transactions": ["pickup", "delivery"], "price": "$$", "location": {"address1": "2835 W Sunset Blvd", "address2": "", "address3": "", "city": "Los Angeles", "zip_code": "90026", "country": "US", "state": "CA", "display_address": ["2835 W Sunset Blvd", "Los Angeles, CA 90026"]}, "phone": "+12132738424", "display_phone": "(213) 273-8424", "distance": 3141.5120985220456}, {"id": "blQ_tkX_WFeyj34lVvwEEQ", "alias": "redwood-bar-and-grill-los-angeles-3", "name": "Redwood Bar & Grill", "image_url": "https://s3-media3.fl.yelpcdn.com/bphoto/4rgQLgq9EKjGpF02bNrxbw/o.jpg", "is_closed": false, "url": "https://www.yelp.com/biz/redwood-bar-and-grill-los-angeles-3?adjust_creative=a2JdNtFqB-C38ga_06BHvw&utm_campaign=yelp_api_v3&utm_medium=api_v3_business_search&utm_source=a2JdNtFqB-C38ga_06BHvw", "review_count": 652, "categories": [{"alias": "tradamerican", "title": "American (Traditional)"}, {"alias": "fishnchips", "title": "Fish & Chips"}, {"alias": "cocktailbars", "title": "Cocktail Bars"}], "rating": 3.5, "coordinates": {"latitude": 34.0526, "longitude": -118.24747}, "transactions": ["pickup", "delivery"], "price": "$$", "location": {"address1": "316 W 2nd St", "address2": "", "address3": "", "city": "Los Angeles", "zip_code": "90012", "country": "US", "state": "CA", "display_address": ["316 W 2nd St", "Los Angeles, CA 90012"]}, "phone": "+12136802600", "display_phone": "(213) 680-2600", "distance": 2424.792175277477}, {"id": "gbuJA_HqN_dxgFUF5mnmjA", "alias": "caseys-irish-pub-los-angeles-3", "name": "Casey's Irish Pub", "image_url": "https://s3-media3.fl.yelpcdn.com/bphoto/yUfi8s4rnFdOvjP84ZODow/o.jpg", "is_closed": false, "url": "https://www.yelp.com/biz/caseys-irish-pub-los-angeles-3?adjust_creative=a2JdNtFqB-C38ga_06BHvw&utm_campaign=yelp_api_v3&utm_medium=api_v3_business_search&utm_source=a2JdNtFqB-C38ga_06BHvw", "review_count": 809, "categories": [{"alias": "pubs", "title": "Pubs"}, {"alias": "irish", "title": "Irish"}, {"alias": "sportsbars", "title": "Sports Bars"}], "rating": 3.5, "coordinates": {"latitude": 34.048458205004, "longitude": -118.25575420061}, "transactions": ["delivery"], "price": "$$", "location": {"address1": "613 S Grand Ave", "address2": "", "address3": "", "city": "Los Angeles", "zip_code": "90017", "country": "US", "state": "CA", "display_address": ["613 S Grand Ave", "Los Angeles, CA 90017"]}, "phone": "+12136292353", "display_phone": "(213) 629-2353", "distance": 3150.9612916470387}, {"id": "Up2tmE-SJD5ngkzgNqIj4w", "alias": "the-restaurant-at-the-standard-downtown-la-los-angeles-2", "name": "The Restaurant at The Standard, Downtown LA", "image_url": "https://s3-media3.fl.yelpcdn.com/bphoto/zYPnM4he5CjqAJGZtclboQ/o.jpg", "is_closed": false, "url": "https://www.yelp.com/biz/the-restaurant-at-the-standard-downtown-la-los-angeles-2?adjust_creative=a2JdNtFqB-C38ga_06BHvw&utm_campaign=yelp_api_v3&utm_medium=api_v3_business_search&utm_source=a2JdNtFqB-C38ga_06BHvw", "review_count": 369, "categories": [{"alias": "newamerican", "title": "American (New)"}, {"alias": "breakfast_brunch", "title": "Breakfast & Brunch"}, {"alias": "cocktailbars", "title": "Cocktail Bars"}], "rating": 3.5, "coordinates": {"latitude": 34.0519319017591, "longitude": -118.256685063243}, "transactions": ["pickup", "delivery"], "price": "$$", "location": {"address1": "550 S Flower St", "address2": "", "address3": "", "city": "Los Angeles", "zip_code": "90071", "country": "US", "state": "CA", "display_address": ["550 S Flower St", "Los Angeles, CA 90071"]}, "phone": "+12134393030", "display_phone": "(213) 439-3030", "distance": 2858.895299395768}, {"id": "yy6HIDpS1lwxjY_VmFC-mQ", "alias": "alimento-los-angeles-2", "name": "Alimento", "image_url": "https://s3-media1.fl.yelpcdn.com/bphoto/gPKVSywtIoKCmTXpl7KN7w/o.jpg", "is_closed": false, "url": "https://www.yelp.com/biz/alimento-los-angeles-2?adjust_creative=a2JdNtFqB-C38ga_06BHvw&utm_campaign=yelp_api_v3&utm_medium=api_v3_business_search&utm_source=a2JdNtFqB-C38ga_06BHvw", "review_count": 483, "categories": [{"alias": "italian", "title": "Italian"}, {"alias": "wine_bars", "title": "Wine Bars"}], "rating": 3.5, "coordinates": {"latitude": 34.089478, "longitude": -118.26812}, "transactions": ["delivery"], "price": "$$$", "location": {"address1": "1710 Silver Lake Blvd", "address2": "", "address3": "", "city": "Los Angeles", "zip_code": "90026", "country": "US", "state": "CA", "display_address": ["1710 Silver Lake Blvd", "Los Angeles, CA 90026"]}, "phone": "+13239282888", "display_phone": "(323) 928-2888", "distance": 3133.626591912472}, {"id": "hsg7A_rxF-G4Zp0TgAsIfw", "alias": "freedmans-los-angeles", "name": "Freedman's", "image_url": "https://s3-media1.fl.yelpcdn.com/bphoto/rBMSDmVcYX2-5vqB4Atlnw/o.jpg", "is_closed": false, "url": "https://www.yelp.com/biz/freedmans-los-angeles?adjust_creative=a2JdNtFqB-C38ga_06BHvw&utm_campaign=yelp_api_v3&utm_medium=api_v3_business_search&utm_source=a2JdNtFqB-C38ga_06BHvw", "review_count": 213, "categories": [{"alias": "cocktailbars", "title": "Cocktail Bars"}, {"alias": "newamerican", "title": "American (New)"}, {"alias": "eventplanning", "title": "Party & Event Planning"}], "rating": 3.5, "coordinates": {"latitude": 34.08052, "longitude": -118.26991}, "transactions": ["pickup", "delivery"], "price": "$$", "location": {"address1": "2619 Sunset Blvd", "address2": null, "address3": "", "city": "Los Angeles", "zip_code": "90026", "country": "US", "state": "CA", "display_address": ["2619 Sunset Blvd", "Los Angeles, CA 90026"]}, "phone": "+12135000916", "display_phone": "(213) 500-0916", "distance": 2857.855959834344}, {"id": "PnQdOlJG3ErVz4W-HH-0Dg", "alias": "vespaio-los-angeles-6", "name": "Vespaio", "image_url": "https://s3-media4.fl.yelpcdn.com/bphoto/b94qbupZn5n47DsKNu3oMQ/o.jpg", "is_closed": false, "url": "https://www.yelp.com/biz/vespaio-los-angeles-6?adjust_creative=a2JdNtFqB-C38ga_06BHvw&utm_campaign=yelp_api_v3&utm_medium=api_v3_business_search&utm_source=a2JdNtFqB-C38ga_06BHvw", "review_count": 687, "categories": [{"alias": "italian", "title": "Italian"}, {"alias": "pizza", "title": "Pizza"}, {"alias": "wine_bars", "title": "Wine Bars"}], "rating": 3.5, "coordinates": {"latitude": 34.0538862751801, "longitude": -118.250720304946}, "transactions": ["delivery"], "price": "$$", "location": {"address1": "225 S Grand Ave", "address2": "", "address3": "", "city": "Los Angeles", "zip_code": "90012", "country": "US", "state": "CA", "display_address": ["225 S Grand Ave", "Los Angeles, CA 90012"]}, "phone": "+12132217244", "display_phone": "(213) 221-7244", "distance": 2405.342909539821}, {"id": "t3tEurb20KwPc4bFeuzVDQ", "alias": "the-holloway-los-angeles", "name": "The Holloway", "image_url": "https://s3-media1.fl.yelpcdn.com/bphoto/JXvQxgNIvASoNKYg0VkaNg/o.jpg", "is_closed": false, "url": "https://www.yelp.com/biz/the-holloway-los-angeles?adjust_creative=a2JdNtFqB-C38ga_06BHvw&utm_campaign=yelp_api_v3&utm_medium=api_v3_business_search&utm_source=a2JdNtFqB-C38ga_06BHvw", "review_count": 172, "categories": [{"alias": "tradamerican", "title": "American (Traditional)"}, {"alias": "sportsbars", "title": "Sports Bars"}], "rating": 3.5, "coordinates": {"latitude": 34.07727, "longitude": -118.2567}, "transactions": ["delivery"], "price": "$$", "location": {"address1": "1320 Echo Park Ave", "address2": "", "address3": "", "city": "Los Angeles", "zip_code": "90026", "country": "US", "state": "CA", "display_address": ["1320 Echo Park Ave", "Los Angeles, CA 90026"]}, "phone": "+12132217615", "display_phone": "(213) 221-7615", "distance": 1602.8608492691437}, {"id": "2hWFIL6qJI6FgqmKdXLFKA", "alias": "el-compadre-los-angeles-9", "name": "El Compadre", "image_url": "https://s3-media3.fl.yelpcdn.com/bphoto/fRKMdua-CXohtNnFlDs5Vg/o.jpg", "is_closed": false, "url": "https://www.yelp.com/biz/el-compadre-los-angeles-9?adjust_creative=a2JdNtFqB-C38ga_06BHvw&utm_campaign=yelp_api_v3&utm_medium=api_v3_business_search&utm_source=a2JdNtFqB-C38ga_06BHvw", "review_count": 766, "categories": [{"alias": "mexican", "title": "Mexican"}, {"alias": "cocktailbars", "title": "Cocktail Bars"}], "rating": 3.5, "coordinates": {"latitude": 34.07513, "longitude": -118.25307}, "transactions": ["delivery"], "price": "$$", "location": {"address1": "1449 W Sunset Blvd", "address2": "", "address3": "", "city": "Los Angeles", "zip_code": "90026", "country": "US", "state": "CA", "display_address": ["1449 W Sunset Blvd", "Los Angeles, CA 90026"]}, "phone": "+12132504505", "display_phone": "(213) 250-4505", "distance": 1224.099627349532}, {"id": "z7Ug-Wr853Nlt9Wpltd-xQ", "alias": "cargo-snack-shack-los-angeles", "name": "Cargo Snack Shack", "image_url": "https://s3-media1.fl.yelpcdn.com/bphoto/_Fpo3yTIkWCdOKh483k8Uw/o.jpg", "is_closed": false, "url": "https://www.yelp.com/biz/cargo-snack-shack-los-angeles?adjust_creative=a2JdNtFqB-C38ga_06BHvw&utm_campaign=yelp_api_v3&utm_medium=api_v3_business_search&utm_source=a2JdNtFqB-C38ga_06BHvw", "review_count": 12, "categories": [{"alias": "burgers", "title": "Burgers"}, {"alias": "sandwiches", "title": "Sandwiches"}, {"alias": "cocktailbars", "title": "Cocktail Bars"}], "rating": 5.0, "coordinates": {"latitude": 34.0660373, "longitude": -118.2338668}, "transactions": ["delivery", "pickup"], "location": {"address1": "1279 N Spring St", "address2": null, "address3": "", "city": "Los Angeles", "zip_code": "90012", "country": "US", "state": "CA", "display_address": ["1279 N Spring St", "Los Angeles, CA 90012"]}, "phone": "+12135770193", "display_phone": "(213) 577-0193", "distance": 979.7820197598988}, {"id": "1mb6fp_JRp4Y68GStJsGIQ", "alias": "the-rooftop-at-the-wayfarer-downtown-la-los-angeles", "name": "The Rooftop at The Wayfarer Downtown LA", "image_url": "https://s3-media2.fl.yelpcdn.com/bphoto/R20OakugcbEUSHuJHnouFA/o.jpg", "is_closed": false, "url": "https://www.yelp.com/biz/the-rooftop-at-the-wayfarer-downtown-la-los-angeles?adjust_creative=a2JdNtFqB-C38ga_06BHvw&utm_campaign=yelp_api_v3&utm_medium=api_v3_business_search&utm_source=a2JdNtFqB-C38ga_06BHvw", "review_count": 182, "categories": [{"alias": "newamerican", "title": "American (New)"}, {"alias": "cocktailbars", "title": "Cocktail Bars"}, {"alias": "tikibars", "title": "Tiki Bars"}], "rating": 3.5, "coordinates": {"latitude": 34.04712, "longitude": -118.26073}, "transactions": [], "price": "$$$", "location": {"address1": "813 Flower St", "address2": null, "address3": null, "city": "Los Angeles", "zip_code": "90017", "country": "US", "state": "CA", "display_address": ["813 Flower St", "Los Angeles, CA 90017"]}, "phone": "+12132854391", "display_phone": "(213) 285-4391", "distance": 3509.7432902819664}, {"id": "ejfEY1V3g3x3Q-8gbDlHaA", "alias": "engine-co-no-28-los-angeles", "name": "Engine Co No 28", "image_url": "https://s3-media2.fl.yelpcdn.com/bphoto/s4n-4hsfJOlMwUpkgmL9Zg/o.jpg", "is_closed": false, "url": "https://www.yelp.com/biz/engine-co-no-28-los-angeles?adjust_creative=a2JdNtFqB-C38ga_06BHvw&utm_campaign=yelp_api_v3&utm_medium=api_v3_business_search&utm_source=a2JdNtFqB-C38ga_06BHvw", "review_count": 784, "categories": [{"alias": "tradamerican", "title": "American (Traditional)"}, {"alias": "wine_bars", "title": "Wine Bars"}], "rating": 3.5, "coordinates": {"latitude": 34.049753, "longitude": -118.259359}, "transactions": ["delivery", "pickup"], "price": "$$", "location": {"address1": "644 S Figueroa St", "address2": "Fl 1", "address3": "", "city": "Los Angeles", "zip_code": "90017", "country": "US", "state": "CA", "display_address": ["644 S Figueroa St", "Fl 1", "Los Angeles, CA 90017"]}, "phone": "+12136246996", "display_phone": "(213) 624-6996", "distance": 3196.5579393561784}, {"id": "Gler-blXeDRz6YnNnrEd5g", "alias": "lasita-los-angeles", "name": "Lasita", "image_url": "https://s3-media2.fl.yelpcdn.com/bphoto/ocQwj0KL7a1QGGu2DR_QIg/o.jpg", "is_closed": false, "url": "https://www.yelp.com/biz/lasita-los-angeles?adjust_creative=a2JdNtFqB-C38ga_06BHvw&utm_campaign=yelp_api_v3&utm_medium=api_v3_business_search&utm_source=a2JdNtFqB-C38ga_06BHvw", "review_count": 10, "categories": [{"alias": "chickenshop", "title": "Chicken Shop"}, {"alias": "filipino", "title": "Filipino"}, {"alias": "wine_bars", "title": "Wine Bars"}], "rating": 5.0, "coordinates": {"latitude": 34.061376027416166, "longitude": -118.2394108712142}, "transactions": [], "location": {"address1": "727 N Broadway", "address2": "", "address3": null, "city": "Los Angeles", "zip_code": "90012", "country": "US", "state": "CA", "display_address": ["727 N Broadway", "Los Angeles, CA 90012"]}, "phone": "+12134436163", "display_phone": "(213) 443-6163", "distance": 1361.5471943904593}, {"id": "4dGt-8wBw449e2e1nIj8MA", "alias": "rodeo-mexican-grill-los-angeles", "name": "Rodeo Mexican Grill", "image_url": "https://s3-media2.fl.yelpcdn.com/bphoto/ZAyUyy2rMy3CfOmLoZ9dWA/o.jpg", "is_closed": false, "url": "https://www.yelp.com/biz/rodeo-mexican-grill-los-angeles?adjust_creative=a2JdNtFqB-C38ga_06BHvw&utm_campaign=yelp_api_v3&utm_medium=api_v3_business_search&utm_source=a2JdNtFqB-C38ga_06BHvw", "review_count": 407, "categories": [{"alias": "mexican", "title": "Mexican"}, {"alias": "fooddeliveryservices", "title": "Food Delivery Services"}, {"alias": "cocktailbars", "title": "Cocktail Bars"}], "rating": 3.0, "coordinates": {"latitude": 34.0777138, "longitude": -118.2589755}, "transactions": ["delivery", "pickup"], "price": "$$", "location": {"address1": "1721 W Sunset Blvd", "address2": "", "address3": "", "city": "Los Angeles", "zip_code": "90026", "country": "US", "state": "CA", "display_address": ["1721 W Sunset Blvd", "Los Angeles, CA 90026"]}, "phone": "+12134838311", "display_phone": "(213) 483-8311", "distance": 1806.2530064472946}, {"id": "QF_AmlwIa_B3nXrGIWVXbA", "alias": "dublins-irish-whiskey-pub-los-angeles-3", "name": "Dublin's Irish Whiskey Pub", "image_url": "https://s3-media1.fl.yelpcdn.com/bphoto/i_VO6NWV5cF6EXQ850Oy8A/o.jpg", "is_closed": false, "url": "https://www.yelp.com/biz/dublins-irish-whiskey-pub-los-angeles-3?adjust_creative=a2JdNtFqB-C38ga_06BHvw&utm_campaign=yelp_api_v3&utm_medium=api_v3_business_search&utm_source=a2JdNtFqB-C38ga_06BHvw", "review_count": 491, "categories": [{"alias": "pubs", "title": "Pubs"}, {"alias": "sportsbars", "title": "Sports Bars"}, {"alias": "tradamerican", "title": "American (Traditional)"}], "rating": 3.0, "coordinates": {"latitude": 34.04915, "longitude": -118.25894}, "transactions": ["delivery", "pickup"], "price": "$$", "location": {"address1": "815 W 7th St", "address2": "", "address3": "", "city": "Los Angeles", "zip_code": "90017", "country": "US", "state": "CA", "display_address": ["815 W 7th St", "Los Angeles, CA 90017"]}, "phone": "+12134399931", "display_phone": "(213) 439-9931", "distance": 3244.2494017014155}, {"id": "qTfe27-_QOyDVLMVCuFfxg", "alias": "gamez-dtla-downtown", "name": "Gamez DTLA", "image_url": "https://s3-media4.fl.yelpcdn.com/bphoto/G2lzNKH7gDx_pBo9bDOXLg/o.jpg", "is_closed": false, "url": "https://www.yelp.com/biz/gamez-dtla-downtown?adjust_creative=a2JdNtFqB-C38ga_06BHvw&utm_campaign=yelp_api_v3&utm_medium=api_v3_business_search&utm_source=a2JdNtFqB-C38ga_06BHvw", "review_count": 70, "categories": [{"alias": "sportsbars", "title": "Sports Bars"}, {"alias": "tradamerican", "title": "American (Traditional)"}], "rating": 3.5, "coordinates": {"latitude": 34.04699, "longitude": -118.24949}, "transactions": ["delivery"], "price": "$$", "location": {"address1": "500 S Spring St", "address2": "", "address3": "", "city": "Downtown", "zip_code": "90013", "country": "US", "state": "CA", "display_address": ["500 S Spring St", "Downtown, CA 90013"]}, "phone": "+12138911144", "display_phone": "(213) 891-1144", "distance": 3085.564989983827}, {"id": "n--nWwEfxuhWUFeQn9DmSA", "alias": "abernethys-los-angeles-2", "name": "Abernethy's", "image_url": "https://s3-media3.fl.yelpcdn.com/bphoto/ZOzx1CcZqkcgB8w8bT-dDA/o.jpg", "is_closed": false, "url": "https://www.yelp.com/biz/abernethys-los-angeles-2?adjust_creative=a2JdNtFqB-C38ga_06BHvw&utm_campaign=yelp_api_v3&utm_medium=api_v3_business_search&utm_source=a2JdNtFqB-C38ga_06BHvw", "review_count": 56, "categories": [{"alias": "newamerican", "title": "American (New)"}, {"alias": "cocktailbars", "title": "Cocktail Bars"}, {"alias": "soulfood", "title": "Soul Food"}], "rating": 3.5, "coordinates": {"latitude": 34.0577647, "longitude": -118.2483375}, "transactions": ["delivery", "pickup"], "price": "$$$", "location": {"address1": "220 N Hope St", "address2": null, "address3": null, "city": "Los Angeles", "zip_code": "90012", "country": "US", "state": "CA", "display_address": ["220 N Hope St", "Los Angeles, CA 90012"]}, "phone": "+12139728088", "display_phone": "(213) 972-8088", "distance": 1913.0903918935553}, {"id": "fV51sRVU1c5CLRp3Jx9B7Q", "alias": "the-down-and-out-los-angeles", "name": "The Down And Out", "image_url": "https://s3-media1.fl.yelpcdn.com/bphoto/gVC2s0dk84hq1DbjQjkRCg/o.jpg", "is_closed": false, "url": "https://www.yelp.com/biz/the-down-and-out-los-angeles?adjust_creative=a2JdNtFqB-C38ga_06BHvw&utm_campaign=yelp_api_v3&utm_medium=api_v3_business_search&utm_source=a2JdNtFqB-C38ga_06BHvw", "review_count": 741, "categories": [{"alias": "sportsbars", "title": "Sports Bars"}, {"alias": "burgers", "title": "Burgers"}], "rating": 3.0, "coordinates": {"latitude": 34.047396, "longitude": -118.249852}, "transactions": ["delivery", "pickup"], "price": "$$", "location": {"address1": "501 S Spring St", "address2": "", "address3": "", "city": "Los Angeles", "zip_code": "90013", "country": "US", "state": "CA", "display_address": ["501 S Spring St", "Los Angeles, CA 90013"]}, "phone": "+12139358042", "display_phone": "(213) 935-8042", "distance": 3052.985133437867}, {"id": "XFUYezIcURrWPmUbOci7eA", "alias": "il-fiore-dtla-los-angeles", "name": "Il Fiore Dtla", "image_url": "https://s3-media3.fl.yelpcdn.com/bphoto/tyy1rQtlYSsIBj5WrOyMyg/o.jpg", "is_closed": false, "url": "https://www.yelp.com/biz/il-fiore-dtla-los-angeles?adjust_creative=a2JdNtFqB-C38ga_06BHvw&utm_campaign=yelp_api_v3&utm_medium=api_v3_business_search&utm_source=a2JdNtFqB-C38ga_06BHvw", "review_count": 7, "categories": [{"alias": "italian", "title": "Italian"}, {"alias": "breakfast_brunch", "title": "Breakfast & Brunch"}, {"alias": "cocktailbars", "title": "Cocktail Bars"}], "rating": 5.0, "coordinates": {"latitude": 34.04688, "longitude": -118.26067}, "transactions": [], "location": {"address1": "819 S Flower St", "address2": "", "address3": null, "city": "Los Angeles", "zip_code": "90017", "country": "US", "state": "CA", "display_address": ["819 S Flower St", "Los Angeles, CA 90017"]}, "phone": "", "display_phone": "", "distance": 3530.2530596133424}, {"id": "ZQATXFQOrKTUj8cmV0m7Aw", "alias": "vista-patio-by-71above-los-angeles", "name": "Vista Patio by 71Above", "image_url": "https://s3-media2.fl.yelpcdn.com/bphoto/t5pV7I1WglZaHZtvEk0rXA/o.jpg", "is_closed": false, "url": "https://www.yelp.com/biz/vista-patio-by-71above-los-angeles?adjust_creative=a2JdNtFqB-C38ga_06BHvw&utm_campaign=yelp_api_v3&utm_medium=api_v3_business_search&utm_source=a2JdNtFqB-C38ga_06BHvw", "review_count": 29, "categories": [{"alias": "mediterranean", "title": "Mediterranean"}, {"alias": "wine_bars", "title": "Wine Bars"}, {"alias": "cocktailbars", "title": "Cocktail Bars"}], "rating": 3.0, "coordinates": {"latitude": 34.051091, "longitude": -118.254436}, "transactions": [], "location": {"address1": "633 W 5th St", "address2": "Fl 69th", "address3": "", "city": "Los Angeles", "zip_code": "90071", "country": "US", "state": "CA", "display_address": ["633 W 5th St", "Fl 69th", "Los Angeles, CA 90071"]}, "phone": "+12137122683", "display_phone": "(213) 712-2683", "distance": 2833.497176265354}, {"id": "IOQQZuBCeTgfUwD-pa4jvA", "alias": "la-pinata-los-angeles-3", "name": "La Pinata", "image_url": "https://s3-media2.fl.yelpcdn.com/bphoto/kLaDlE-F0g4S_DMyOyc-wQ/o.jpg", "is_closed": false, "url": "https://www.yelp.com/biz/la-pinata-los-angeles-3?adjust_creative=a2JdNtFqB-C38ga_06BHvw&utm_campaign=yelp_api_v3&utm_medium=api_v3_business_search&utm_source=a2JdNtFqB-C38ga_06BHvw", "review_count": 69, "categories": [{"alias": "mexican", "title": "Mexican"}, {"alias": "cocktailbars", "title": "Cocktail Bars"}, {"alias": "breakfast_brunch", "title": "Breakfast & Brunch"}], "rating": 2.5, "coordinates": {"latitude": 34.059561, "longitude": -118.237714}, "transactions": [], "location": {"address1": "686 N Springs St", "address2": null, "address3": "Treehouse Rooftop", "city": "Los Angeles", "zip_code": "90012", "country": "US", "state": "CA", "display_address": ["686 N Springs St", "Treehouse Rooftop", "Los Angeles, CA 90012"]}, "phone": "+12137169400", "display_phone": "(213) 716-9400", "distance": 1576.4050988425913}], "absolute total": 55, "total": 55}