{"league": "NFL", "team": "Los Angeles Chargers", "stadium": "SoFi Stadium", "stadium latitude": 33.95345, "stadium longitude": -118.3392, "radius": "3000 meters", "city": "Inglewood", "state": "California", "businesses": [{"id": "trwM7MkJka-euhd04FL5Jw", "alias": "casa-gamino-inglewood", "name": "Casa Gamino", "image_url": "https://s3-media4.fl.yelpcdn.com/bphoto/Xez4QWaBFfUfBOWVrBmdMQ/o.jpg", "is_closed": false, "url": "https://www.yelp.com/biz/casa-gamino-inglewood?adjust_creative=a2JdNtFqB-C38ga_06BHvw&utm_campaign=yelp_api_v3&utm_medium=api_v3_business_search&utm_source=a2JdNtFqB-C38ga_06BHvw", "review_count": 208, "categories": [{"alias": "mexican", "title": "Mexican"}, {"alias": "seafood", "title": "Seafood"}, {"alias": "sportsbars", "title": "Sports Bars"}], "rating": 3.5, "coordinates": {"latitude": 33.94572, "longitude": -118.36474}, "transactions": ["delivery", "pickup"], "price": "$$", "location": {"address1": "4937 W Century Blvd", "address2": "", "address3": "", "city": "Inglewood", "zip_code": "90304", "country": "US", "state": "CA", "display_address": ["4937 W Century Blvd", "Inglewood, CA 90304"]}, "phone": "+13106717661", "display_phone": "(310) 671-7661", "distance": 2509.8626054803703}, {"id": "ZDlBh91JVme11vtBpSNiAQ", "alias": "the-den-bar-and-grill-hawthorne", "name": "The Den Bar and Grill", "image_url": "https://s3-media3.fl.yelpcdn.com/bphoto/KWXg6V3eMMBqoSV1VgvJtQ/o.jpg", "is_closed": false, "url": "https://www.yelp.com/biz/the-den-bar-and-grill-hawthorne?adjust_creative=a2JdNtFqB-C38ga_06BHvw&utm_campaign=yelp_api_v3&utm_medium=api_v3_business_search&utm_source=a2JdNtFqB-C38ga_06BHvw", "review_count": 60, "categories": [{"alias": "sportsbars", "title": "Sports Bars"}, {"alias": "tradamerican", "title": "American (Traditional)"}], "rating": 3.5, "coordinates": {"latitude": 33.930204, "longitude": -118.353034}, "transactions": [], "price": "$", "location": {"address1": "11437 Hawthorne Blvd", "address2": "", "address3": "", "city": "Hawthorne", "zip_code": "90250", "country": "US", "state": "CA", "display_address": ["11437 Hawthorne Blvd", "Hawthorne, CA 90250"]}, "phone": "+13106441416", "display_phone": "(310) 644-1416", "distance": 2882.6969100423353}, {"id": "HwTv2sTZDYjHxT9AS-MUSA", "alias": "the-wood-urban-kitchen-and-sports-lounge-inglewood", "name": "The Wood Urban Kitchen & Sports Lounge", "image_url": "https://s3-media3.fl.yelpcdn.com/bphoto/jQ9NTRvDlfdarUyyBrZnrw/o.jpg", "is_closed": false, "url": "https://www.yelp.com/biz/the-wood-urban-kitchen-and-sports-lounge-inglewood?adjust_creative=a2JdNtFqB-C38ga_06BHvw&utm_campaign=yelp_api_v3&utm_medium=api_v3_business_search&utm_source=a2JdNtFqB-C38ga_06BHvw", "review_count": 83, "categories": [{"alias": "bbq", "title": "Barbeque"}, {"alias": "sportsbars", "title": "Sports Bars"}, {"alias": "chicken_wings", "title": "Chicken Wings"}], "rating": 3.0, "coordinates": {"latitude": 33.96362, "longitude": -118.352275}, "transactions": ["delivery", "pickup"], "location": {"address1": "129 N Market St", "address2": "", "address3": null, "city": "Inglewood", "zip_code": "90301", "country": "US", "state": "CA", "display_address": ["129 N Market St", "Inglewood, CA 90301"]}, "phone": "+13104669741", "display_phone": "(310) 466-9741", "distance": 1650.3608794581746}, {"id": "5kKALPIp-N927dfON_gCtQ", "alias": "century-bar-and-grill-inglewood", "name": "Century Bar & Grill", "image_url": "https://s3-media2.fl.yelpcdn.com/bphoto/8nMP4Kd_JAXe6fTJgQ4n2w/o.jpg", "is_closed": false, "url": "https://www.yelp.com/biz/century-bar-and-grill-inglewood?adjust_creative=a2JdNtFqB-C38ga_06BHvw&utm_campaign=yelp_api_v3&utm_medium=api_v3_business_search&utm_source=a2JdNtFqB-C38ga_06BHvw", "review_count": 28, "categories": [{"alias": "tradamerican", "title": "American (Traditional)"}, {"alias": "beerbar", "title": "Beer Bar"}, {"alias": "cocktailbars", "title": "Cocktail Bars"}], "rating": 3.5, "coordinates": {"latitude": 33.9455849, "longitude": -118.341672}, "transactions": ["delivery"], "price": "$$", "location": {"address1": "3883 West Century Blvd", "address2": "", "address3": null, "city": "Inglewood", "zip_code": "90303", "country": "US", "state": "CA", "display_address": ["3883 West Century Blvd", "Inglewood, CA 90303"]}, "phone": "+13103302800", "display_phone": "(310) 330-2800", "distance": 778.7418856105226}], "absolute total": 4, "total": 4}