{"league": "NBA", "team": "Memphis Grizzlies", "stadium": "FedExForum", "stadium latitude": 35.138333, "stadium longitude": -90.050556, "radius": "3000 meters", "city": "Memphis", "state": "Tennessee", "businesses": [{"id": "qWdd1hIqh_Q-owsngUckaQ", "alias": "flight-restaurant-and-wine-bar-memphis", "name": "Flight Restaurant & Wine Bar", "image_url": "https://s3-media4.fl.yelpcdn.com/bphoto/EV7l-RIIk5i0QFThx5VtPA/o.jpg", "is_closed": false, "url": "https://www.yelp.com/biz/flight-restaurant-and-wine-bar-memphis?adjust_creative=a2JdNtFqB-C38ga_06BHvw&utm_campaign=yelp_api_v3&utm_medium=api_v3_business_search&utm_source=a2JdNtFqB-C38ga_06BHvw", "review_count": 1121, "categories": [{"alias": "wine_bars", "title": "Wine Bars"}, {"alias": "venues", "title": "Venues & Event Spaces"}, {"alias": "tradamerican", "title": "American (Traditional)"}], "rating": 4.5, "coordinates": {"latitude": 35.1441, "longitude": -90.05355}, "transactions": ["delivery"], "price": "$$$", "location": {"address1": "39 S Main St", "address2": null, "address3": "", "city": "Memphis", "zip_code": "38103", "country": "US", "state": "TN", "display_address": ["39 S Main St", "Memphis, TN 38103"]}, "phone": "+19015218005", "display_phone": "(901) 521-8005", "distance": 696.7182380594578}, {"id": "Xk8rj8Ref5dhqm7CpXLxpw", "alias": "pontotoc-memphis", "name": "Pontotoc", "image_url": "https://s3-media1.fl.yelpcdn.com/bphoto/RQSPhD7g_ZMhc6Tfe1eYbA/o.jpg", "is_closed": false, "url": "https://www.yelp.com/biz/pontotoc-memphis?adjust_creative=a2JdNtFqB-C38ga_06BHvw&utm_campaign=yelp_api_v3&utm_medium=api_v3_business_search&utm_source=a2JdNtFqB-C38ga_06BHvw", "review_count": 139, "categories": [{"alias": "tradamerican", "title": "American (Traditional)"}, {"alias": "cocktailbars", "title": "Cocktail Bars"}], "rating": 4.0, "coordinates": {"latitude": 35.137742656676, "longitude": -90.0564952085183}, "transactions": ["delivery"], "price": "$$", "location": {"address1": "314 S Main St", "address2": "", "address3": "", "city": "Memphis", "zip_code": "38103", "country": "US", "state": "TN", "display_address": ["314 S Main St", "Memphis, TN 38103"]}, "phone": "+19012077576", "display_phone": "(901) 207-7576", "distance": 544.0360669628204}, {"id": "FkbQIv0niIUsyyyDisU6Hw", "alias": "catherine-and-marys-memphis-2", "name": "Catherine and Mary's", "image_url": "https://s3-media4.fl.yelpcdn.com/bphoto/9M6miba4OuFrEf1XxJw3Wg/o.jpg", "is_closed": false, "url": "https://www.yelp.com/biz/catherine-and-marys-memphis-2?adjust_creative=a2JdNtFqB-C38ga_06BHvw&utm_campaign=yelp_api_v3&utm_medium=api_v3_business_search&utm_source=a2JdNtFqB-C38ga_06BHvw", "review_count": 208, "categories": [{"alias": "italian", "title": "Italian"}, {"alias": "modern_european", "title": "Modern European"}, {"alias": "cocktailbars", "title": "Cocktail Bars"}], "rating": 4.0, "coordinates": {"latitude": 35.138245, "longitude": -90.055823}, "transactions": ["delivery"], "price": "$$$", "location": {"address1": "272 S Main St", "address2": "", "address3": null, "city": "Memphis", "zip_code": "38103", "country": "US", "state": "TN", "display_address": ["272 S Main St", "Memphis, TN 38103"]}, "phone": "+19012548600", "display_phone": "(901) 254-8600", "distance": 479.0348388003852}, {"id": "c8VTMclg6togkKwu2PxwNA", "alias": "the-gray-canary-memphis", "name": "The Gray Canary", "image_url": "https://s3-media1.fl.yelpcdn.com/bphoto/Q9ajPqD1QAZsv6zKYNORSw/o.jpg", "is_closed": false, "url": "https://www.yelp.com/biz/the-gray-canary-memphis?adjust_creative=a2JdNtFqB-C38ga_06BHvw&utm_campaign=yelp_api_v3&utm_medium=api_v3_business_search&utm_source=a2JdNtFqB-C38ga_06BHvw", "review_count": 120, "categories": [{"alias": "cocktailbars", "title": "Cocktail Bars"}, {"alias": "seafood", "title": "Seafood"}, {"alias": "wine_bars", "title": "Wine Bars"}], "rating": 4.0, "coordinates": {"latitude": 35.13854, "longitude": -90.05837}, "transactions": ["delivery"], "price": "$$$", "location": {"address1": "301 S Front St", "address2": "", "address3": null, "city": "Memphis", "zip_code": "38103", "country": "US", "state": "TN", "display_address": ["301 S Front St", "Memphis, TN 38103"]}, "phone": "+19012492932", "display_phone": "(901) 249-2932", "distance": 704.831202832204}, {"id": "QjyWdSurcWw7ovxzQxecQA", "alias": "edge-alley-memphis-2", "name": "Edge Alley", "image_url": "https://s3-media3.fl.yelpcdn.com/bphoto/vCSK9aK5nenVSlDiX2qmFQ/o.jpg", "is_closed": false, "url": "https://www.yelp.com/biz/edge-alley-memphis-2?adjust_creative=a2JdNtFqB-C38ga_06BHvw&utm_campaign=yelp_api_v3&utm_medium=api_v3_business_search&utm_source=a2JdNtFqB-C38ga_06BHvw", "review_count": 135, "categories": [{"alias": "breakfast_brunch", "title": "Breakfast & Brunch"}, {"alias": "coffeeroasteries", "title": "Coffee Roasteries"}, {"alias": "cocktailbars", "title": "Cocktail Bars"}], "rating": 4.0, "coordinates": {"latitude": 35.1410718662969, "longitude": -90.0408406555653}, "transactions": ["delivery"], "price": "$$", "location": {"address1": "600 Monroe Ave", "address2": "", "address3": null, "city": "Memphis", "zip_code": "38103", "country": "US", "state": "TN", "display_address": ["600 Monroe Ave", "Memphis, TN 38103"]}, "phone": "+19014252605", "display_phone": "(901) 425-2605", "distance": 934.434559174237}, {"id": "NlMfuqYcthuxoTPn8JtbAw", "alias": "belle-tavern-memphis-5", "name": "Belle Tavern", "image_url": "https://s3-media3.fl.yelpcdn.com/bphoto/3A03-73C4F5-Nhg6BcaWCw/o.jpg", "is_closed": false, "url": "https://www.yelp.com/biz/belle-tavern-memphis-5?adjust_creative=a2JdNtFqB-C38ga_06BHvw&utm_campaign=yelp_api_v3&utm_medium=api_v3_business_search&utm_source=a2JdNtFqB-C38ga_06BHvw", "review_count": 54, "categories": [{"alias": "wine_bars", "title": "Wine Bars"}, {"alias": "cocktailbars", "title": "Cocktail Bars"}, {"alias": "newamerican", "title": "American (New)"}], "rating": 4.5, "coordinates": {"latitude": 35.1424, "longitude": -90.05322}, "transactions": ["delivery"], "price": "$$", "location": {"address1": "117 Barboro Aly", "address2": null, "address3": null, "city": "Memphis", "zip_code": "38103", "country": "US", "state": "TN", "display_address": ["117 Barboro Aly", "Memphis, TN 38103"]}, "phone": "+19012496580", "display_phone": "(901) 249-6580", "distance": 514.026976583196}, {"id": "y5jY357Szi9uscU21Ez8KA", "alias": "the-brass-door-memphis", "name": "The Brass Door", "image_url": "https://s3-media4.fl.yelpcdn.com/bphoto/GM5rLYlTWI2Cj4p2p6RFPw/o.jpg", "is_closed": false, "url": "https://www.yelp.com/biz/the-brass-door-memphis?adjust_creative=a2JdNtFqB-C38ga_06BHvw&utm_campaign=yelp_api_v3&utm_medium=api_v3_business_search&utm_source=a2JdNtFqB-C38ga_06BHvw", "review_count": 142, "categories": [{"alias": "irish", "title": "Irish"}, {"alias": "pubs", "title": "Pubs"}], "rating": 4.0, "coordinates": {"latitude": 35.14493, "longitude": -90.05092}, "transactions": ["delivery"], "price": "$$", "location": {"address1": "152 Madison Ave", "address2": "", "address3": "", "city": "Memphis", "zip_code": "38103", "country": "US", "state": "TN", "display_address": ["152 Madison Ave", "Memphis, TN 38103"]}, "phone": "+19015721813", "display_phone": "(901) 572-1813", "distance": 731.0655497080282}, {"id": "rSKqLvndIFwVm_NI2CJYbA", "alias": "the-green-beetle-memphis", "name": "The Green Beetle", "image_url": "https://s3-media1.fl.yelpcdn.com/bphoto/qFVZunE0Hn2a4c3Vpj7mww/o.jpg", "is_closed": false, "url": "https://www.yelp.com/biz/the-green-beetle-memphis?adjust_creative=a2JdNtFqB-C38ga_06BHvw&utm_campaign=yelp_api_v3&utm_medium=api_v3_business_search&utm_source=a2JdNtFqB-C38ga_06BHvw", "review_count": 149, "categories": [{"alias": "tradamerican", "title": "American (Traditional)"}, {"alias": "southern", "title": "Southern"}, {"alias": "sportsbars", "title": "Sports Bars"}], "rating": 4.0, "coordinates": {"latitude": 35.137413371934, "longitude": -90.057031844409}, "transactions": ["pickup", "delivery"], "price": "$$", "location": {"address1": "325 S Main St", "address2": null, "address3": null, "city": "Memphis", "zip_code": "38103", "country": "US", "state": "TN", "display_address": ["325 S Main St", "Memphis, TN 38103"]}, "phone": "+19015277337", "display_phone": "(901) 527-7337", "distance": 597.6724290995949}, {"id": "SSL6nawZW7f6KBf4UrLlXQ", "alias": "bishop-memphis", "name": "Bishop", "image_url": "https://s3-media3.fl.yelpcdn.com/bphoto/n8W5rhnBAIgrac8d5H7kiA/o.jpg", "is_closed": false, "url": "https://www.yelp.com/biz/bishop-memphis?adjust_creative=a2JdNtFqB-C38ga_06BHvw&utm_campaign=yelp_api_v3&utm_medium=api_v3_business_search&utm_source=a2JdNtFqB-C38ga_06BHvw", "review_count": 42, "categories": [{"alias": "french", "title": "French"}, {"alias": "wine_bars", "title": "Wine Bars"}, {"alias": "cocktailbars", "title": "Cocktail Bars"}], "rating": 4.0, "coordinates": {"latitude": 35.1314, "longitude": -90.059685}, "transactions": [], "location": {"address1": "545 S Main St", "address2": "", "address3": null, "city": "Memphis", "zip_code": "38103", "country": "US", "state": "TN", "display_address": ["545 S Main St", "Memphis, TN 38103"]}, "phone": "+19018960228", "display_phone": "(901) 896-0228", "distance": 1061.0592296832217}, {"id": "ha28gQIa6THcZL8wSu10MA", "alias": "bar-ware-memphis", "name": "Bar Ware", "image_url": "https://s3-media1.fl.yelpcdn.com/bphoto/BxXHwjMQvtlJzzaOAirzTQ/o.jpg", "is_closed": false, "url": "https://www.yelp.com/biz/bar-ware-memphis?adjust_creative=a2JdNtFqB-C38ga_06BHvw&utm_campaign=yelp_api_v3&utm_medium=api_v3_business_search&utm_source=a2JdNtFqB-C38ga_06BHvw", "review_count": 28, "categories": [{"alias": "tapasmallplates", "title": "Tapas/Small Plates"}, {"alias": "cocktailbars", "title": "Cocktail Bars"}], "rating": 4.5, "coordinates": {"latitude": 35.1391919, "longitude": -90.0571751}, "transactions": ["delivery"], "price": "$$", "location": {"address1": "276 S Front St", "address2": "", "address3": null, "city": "Memphis", "zip_code": "38103", "country": "US", "state": "TN", "display_address": ["276 S Front St", "Memphis, TN 38103"]}, "phone": "+19014435807", "display_phone": "(901) 443-5807", "distance": 631.3777792398366}, {"id": "f9RHnDGTflYT9LpucScumA", "alias": "terrace-grill-memphis-2", "name": "Terrace Grill", "image_url": "https://s3-media3.fl.yelpcdn.com/bphoto/rjaswDg3ihgl53Ah0M1sfg/o.jpg", "is_closed": false, "url": "https://www.yelp.com/biz/terrace-grill-memphis-2?adjust_creative=a2JdNtFqB-C38ga_06BHvw&utm_campaign=yelp_api_v3&utm_medium=api_v3_business_search&utm_source=a2JdNtFqB-C38ga_06BHvw", "review_count": 99, "categories": [{"alias": "cocktailbars", "title": "Cocktail Bars"}, {"alias": "tapas", "title": "Tapas Bars"}], "rating": 3.5, "coordinates": {"latitude": 35.16092, "longitude": -90.05427}, "transactions": ["delivery"], "price": "$$", "location": {"address1": "50 Harbor Town Sq", "address2": null, "address3": null, "city": "Memphis", "zip_code": "38103", "country": "US", "state": "TN", "display_address": ["50 Harbor Town Sq", "Memphis, TN 38103"]}, "phone": "+19012603366", "display_phone": "(901) 260-3366", "distance": 2534.1548485087806}, {"id": "6IqZC_vfxtBpFPe4V3vAhQ", "alias": "felicia-suzannes-restaurant-memphis-2", "name": "Felicia Suzanne's Restaurant", "image_url": "https://s3-media3.fl.yelpcdn.com/bphoto/slFxd3Cquy5yOCDB_RTD9A/o.jpg", "is_closed": false, "url": "https://www.yelp.com/biz/felicia-suzannes-restaurant-memphis-2?adjust_creative=a2JdNtFqB-C38ga_06BHvw&utm_campaign=yelp_api_v3&utm_medium=api_v3_business_search&utm_source=a2JdNtFqB-C38ga_06BHvw", "review_count": 184, "categories": [{"alias": "newamerican", "title": "American (New)"}, {"alias": "diners", "title": "Diners"}, {"alias": "wine_bars", "title": "Wine Bars"}], "rating": 3.5, "coordinates": {"latitude": 35.1446304321289, "longitude": -90.0534515380859}, "transactions": ["delivery"], "price": "$$$", "location": {"address1": "80 Monroe Ave", "address2": "Ste l-1", "address3": "", "city": "Memphis", "zip_code": "38103", "country": "US", "state": "TN", "display_address": ["80 Monroe Ave", "Ste l-1", "Memphis, TN 38103"]}, "phone": "+19015230877", "display_phone": "(901) 523-0877", "distance": 747.0608353088697}, {"id": "Tr9TV5m4ddRP5LOcvT08bg", "alias": "silly-goose-memphis", "name": "Silly Goose", "image_url": "https://s3-media3.fl.yelpcdn.com/bphoto/1bmjs3nsbK-1XOydYY9o9Q/o.jpg", "is_closed": false, "url": "https://www.yelp.com/biz/silly-goose-memphis?adjust_creative=a2JdNtFqB-C38ga_06BHvw&utm_campaign=yelp_api_v3&utm_medium=api_v3_business_search&utm_source=a2JdNtFqB-C38ga_06BHvw", "review_count": 109, "categories": [{"alias": "lounges", "title": "Lounges"}, {"alias": "cocktailbars", "title": "Cocktail Bars"}, {"alias": "pizza", "title": "Pizza"}], "rating": 3.5, "coordinates": {"latitude": 35.1413380382931, "longitude": -90.0539590000492}, "transactions": [], "price": "$$", "location": {"address1": "100 Peabody Pl", "address2": "Ste 190", "address3": "", "city": "Memphis", "zip_code": "38103", "country": "US", "state": "TN", "display_address": ["100 Peabody Pl", "Ste 190", "Memphis, TN 38103"]}, "phone": "+19014356915", "display_phone": "(901) 435-6915", "distance": 455.41357713301403}, {"id": "iP1t4aq8mwj9VElaWyQ2zA", "alias": "paulettes-restaurant-memphis", "name": "Paulette's Restaurant", "image_url": "https://s3-media2.fl.yelpcdn.com/bphoto/tPPXAVlF_cVuGIqxLB7dEA/o.jpg", "is_closed": false, "url": "https://www.yelp.com/biz/paulettes-restaurant-memphis?adjust_creative=a2JdNtFqB-C38ga_06BHvw&utm_campaign=yelp_api_v3&utm_medium=api_v3_business_search&utm_source=a2JdNtFqB-C38ga_06BHvw", "review_count": 176, "categories": [{"alias": "newamerican", "title": "American (New)"}, {"alias": "breakfast_brunch", "title": "Breakfast & Brunch"}, {"alias": "wine_bars", "title": "Wine Bars"}], "rating": 3.5, "coordinates": {"latitude": 35.1613, "longitude": -90.05499}, "transactions": ["delivery"], "price": "$$$", "location": {"address1": "50 Harbor Town Sq", "address2": "", "address3": "", "city": "Memphis", "zip_code": "38103", "country": "US", "state": "TN", "display_address": ["50 Harbor Town Sq", "Memphis, TN 38103"]}, "phone": "+19012603300", "display_phone": "(901) 260-3300", "distance": 2583.711749631948}, {"id": "WbZwbU0VhQgiJObIChIg8g", "alias": "ferraros-pizzeria-and-pub-memphis", "name": "Ferraro's Pizzeria and Pub", "image_url": "https://s3-media1.fl.yelpcdn.com/bphoto/RNJZCQ7qpN-0GkpVYf5_qg/o.jpg", "is_closed": false, "url": "https://www.yelp.com/biz/ferraros-pizzeria-and-pub-memphis?adjust_creative=a2JdNtFqB-C38ga_06BHvw&utm_campaign=yelp_api_v3&utm_medium=api_v3_business_search&utm_source=a2JdNtFqB-C38ga_06BHvw", "review_count": 75, "categories": [{"alias": "pizza", "title": "Pizza"}, {"alias": "pubs", "title": "Pubs"}, {"alias": "sandwiches", "title": "Sandwiches"}], "rating": 3.5, "coordinates": {"latitude": 35.15385, "longitude": -90.04889}, "transactions": ["pickup", "delivery"], "price": "$$", "location": {"address1": "111 Jackson Ave", "address2": "", "address3": "", "city": "Memphis", "zip_code": "38103", "country": "US", "state": "TN", "display_address": ["111 Jackson Ave", "Memphis, TN 38103"]}, "phone": "+19015222033", "display_phone": "(901) 522-2033", "distance": 1708.6507572026014}, {"id": "KlhzzGsnhDqD52HaU_abhg", "alias": "moxy-memphis-downtown-memphis", "name": "MOXY Memphis Downtown", "image_url": "https://s3-media2.fl.yelpcdn.com/bphoto/dZZ_SR9xg4_tJFcrAebCEA/o.jpg", "is_closed": false, "url": "https://www.yelp.com/biz/moxy-memphis-downtown-memphis?adjust_creative=a2JdNtFqB-C38ga_06BHvw&utm_campaign=yelp_api_v3&utm_medium=api_v3_business_search&utm_source=a2JdNtFqB-C38ga_06BHvw", "review_count": 9, "categories": [{"alias": "wine_bars", "title": "Wine Bars"}, {"alias": "mexican", "title": "Mexican"}, {"alias": "cocktailbars", "title": "Cocktail Bars"}], "rating": 4.0, "coordinates": {"latitude": 35.146655, "longitude": -90.052507}, "transactions": [], "location": {"address1": "40 N Front St", "address2": null, "address3": null, "city": "Memphis", "zip_code": "38103", "country": "US", "state": "TN", "display_address": ["40 N Front St", "Memphis, TN 38103"]}, "phone": "+19015229700", "display_phone": "(901) 522-9700", "distance": 918.1092686364708}, {"id": "PjqfI5QxTLDRSM_5zJJ1KQ", "alias": "eight-and-sand-memphis", "name": "Eight & Sand", "image_url": "https://s3-media2.fl.yelpcdn.com/bphoto/Y4CBwcOlcNNxg6JjsvwR5w/o.jpg", "is_closed": false, "url": "https://www.yelp.com/biz/eight-and-sand-memphis?adjust_creative=a2JdNtFqB-C38ga_06BHvw&utm_campaign=yelp_api_v3&utm_medium=api_v3_business_search&utm_source=a2JdNtFqB-C38ga_06BHvw", "review_count": 8, "categories": [{"alias": "cocktailbars", "title": "Cocktail Bars"}, {"alias": "tapasmallplates", "title": "Tapas/Small Plates"}], "rating": 4.0, "coordinates": {"latitude": 35.1314, "longitude": -90.059685}, "transactions": [], "location": {"address1": "545 S Main St", "address2": "", "address3": null, "city": "Memphis", "zip_code": "38103", "country": "US", "state": "TN", "display_address": ["545 S Main St", "Memphis, TN 38103"]}, "phone": "+19015245247", "display_phone": "(901) 524-5247", "distance": 1061.0592296832217}, {"id": "psLEIohpv3q4jXxEVc8Tlw", "alias": "swanky-s-taco-shop-memphis", "name": "Swankyâ€™s Taco Shop", "image_url": "https://s3-media1.fl.yelpcdn.com/bphoto/73LnpfrxKHSJ5lweinqV6g/o.jpg", "is_closed": false, "url": "https://www.yelp.com/biz/swanky-s-taco-shop-memphis?adjust_creative=a2JdNtFqB-C38ga_06BHvw&utm_campaign=yelp_api_v3&utm_medium=api_v3_business_search&utm_source=a2JdNtFqB-C38ga_06BHvw", "review_count": 22, "categories": [{"alias": "tacos", "title": "Tacos"}, {"alias": "tex-mex", "title": "Tex-Mex"}, {"alias": "cocktailbars", "title": "Cocktail Bars"}], "rating": 2.5, "coordinates": {"latitude": 35.13828, "longitude": -90.05572}, "transactions": ["pickup", "delivery"], "location": {"address1": "272 S Main St", "address2": "", "address3": null, "city": "Memphis", "zip_code": "38103", "country": "US", "state": "TN", "display_address": ["272 S Main St", "Memphis, TN 38103"]}, "phone": "+19017793499", "display_phone": "(901) 779-3499", "distance": 469.6058498964098}, {"id": "pCBB9ykUlypZHlPjCCRtmg", "alias": "hooters-memphis", "name": "Hooters", "image_url": "https://s3-media1.fl.yelpcdn.com/bphoto/3smiKnOJwkTgmYgp79AlRQ/o.jpg", "is_closed": false, "url": "https://www.yelp.com/biz/hooters-memphis?adjust_creative=a2JdNtFqB-C38ga_06BHvw&utm_campaign=yelp_api_v3&utm_medium=api_v3_business_search&utm_source=a2JdNtFqB-C38ga_06BHvw", "review_count": 101, "categories": [{"alias": "sportsbars", "title": "Sports Bars"}, {"alias": "tradamerican", "title": "American (Traditional)"}, {"alias": "chicken_wings", "title": "Chicken Wings"}], "rating": 2.0, "coordinates": {"latitude": 35.1406080110004, "longitude": -90.0514216890243}, "transactions": ["pickup", "delivery"], "price": "$$", "location": {"address1": "250 Peabody Pl", "address2": "Ste 101", "address3": null, "city": "Memphis", "zip_code": "38103", "country": "US", "state": "TN", "display_address": ["250 Peabody Pl", "Ste 101", "Memphis, TN 38103"]}, "phone": "+19015239464", "display_phone": "(901) 523-9464", "distance": 264.9337471483563}, {"id": "w-xwvVn5ZoGKibzDBpxasQ", "alias": "tailors-union-memphis", "name": "Tailors Union", "image_url": "https://s3-media1.fl.yelpcdn.com/bphoto/YrMMJN5ZNcutdoWYyeEOGA/o.jpg", "is_closed": false, "url": "https://www.yelp.com/biz/tailors-union-memphis?adjust_creative=a2JdNtFqB-C38ga_06BHvw&utm_campaign=yelp_api_v3&utm_medium=api_v3_business_search&utm_source=a2JdNtFqB-C38ga_06BHvw", "review_count": 6, "categories": [{"alias": "cocktailbars", "title": "Cocktail Bars"}, {"alias": "chicken_wings", "title": "Chicken Wings"}], "rating": 3.0, "coordinates": {"latitude": 35.1429834645956, "longitude": -90.0533598331037}, "transactions": [], "location": {"address1": "115 Union Ave", "address2": "", "address3": null, "city": "Memphis", "zip_code": "38103", "country": "US", "state": "TN", "display_address": ["115 Union Ave", "Memphis, TN 38103"]}, "phone": "+19016238567", "display_phone": "(901) 623-8567", "distance": 576.5405140268109}, {"id": "Ue_Fd7M9U9ijCfadxxYzww", "alias": "memphis-pyramid-dining-memphis", "name": "Memphis Pyramid Dining", "image_url": "https://s3-media4.fl.yelpcdn.com/bphoto/5P3qiiapCiHQ-d9Vj8ZF8A/o.jpg", "is_closed": false, "url": "https://www.yelp.com/biz/memphis-pyramid-dining-memphis?adjust_creative=a2JdNtFqB-C38ga_06BHvw&utm_campaign=yelp_api_v3&utm_medium=api_v3_business_search&utm_source=a2JdNtFqB-C38ga_06BHvw", "review_count": 1, "categories": [{"alias": "newamerican", "title": "American (New)"}, {"alias": "cocktailbars", "title": "Cocktail Bars"}], "rating": 5.0, "coordinates": {"latitude": 35.15517, "longitude": -90.05206}, "transactions": [], "location": {"address1": "1 Bass Pro Dr", "address2": null, "address3": "", "city": "Memphis", "zip_code": "38105", "country": "US", "state": "TN", "display_address": ["1 Bass Pro Dr", "Memphis, TN 38105"]}, "phone": "", "display_phone": "", "distance": 1902.1043701369852}, {"id": "ATwmbFMy26ltwPbJI30GhA", "alias": "russwood-park-sports-bar-and-grill-memphis", "name": "Russwood Park Sports Bar & Grill", "image_url": "https://s3-media4.fl.yelpcdn.com/bphoto/70gNxLE7FDbWmm2ZDiW6Uw/o.jpg", "is_closed": false, "url": "https://www.yelp.com/biz/russwood-park-sports-bar-and-grill-memphis?adjust_creative=a2JdNtFqB-C38ga_06BHvw&utm_campaign=yelp_api_v3&utm_medium=api_v3_business_search&utm_source=a2JdNtFqB-C38ga_06BHvw", "review_count": 5, "categories": [{"alias": "sportsbars", "title": "Sports Bars"}, {"alias": "tradamerican", "title": "American (Traditional)"}], "rating": 2.5, "coordinates": {"latitude": 35.143059, "longitude": -90.051888}, "transactions": [], "price": "$$", "location": {"address1": "160 Union Ave", "address2": "", "address3": "", "city": "Memphis", "zip_code": "38103", "country": "US", "state": "TN", "display_address": ["160 Union Ave", "Memphis, TN 38103"]}, "phone": "+19015255491", "display_phone": "(901) 525-5491", "distance": 539.2221390428701}, {"id": "cutfMc4mbrOb6bIqb1b_Tw", "alias": "notes-and-provisions-restaurant-and-bar-memphis", "name": "Notes & Provisions Restaurant and Bar", "image_url": "https://s3-media4.fl.yelpcdn.com/bphoto/R1mzgExtBE868wpdo14shA/o.jpg", "is_closed": false, "url": "https://www.yelp.com/biz/notes-and-provisions-restaurant-and-bar-memphis?adjust_creative=a2JdNtFqB-C38ga_06BHvw&utm_campaign=yelp_api_v3&utm_medium=api_v3_business_search&utm_source=a2JdNtFqB-C38ga_06BHvw", "review_count": 2, "categories": [{"alias": "southern", "title": "Southern"}, {"alias": "cocktailbars", "title": "Cocktail Bars"}, {"alias": "burgers", "title": "Burgers"}], "rating": 3.0, "coordinates": {"latitude": 35.15231, "longitude": -90.04787}, "transactions": ["delivery"], "location": {"address1": "300 N 2nd St", "address2": null, "address3": "", "city": "Memphis", "zip_code": "38105", "country": "US", "state": "TN", "display_address": ["300 N 2nd St", "Memphis, TN 38105"]}, "phone": "+19015251800", "display_phone": "(901) 525-1800", "distance": 1549.438782964781}], "absolute total": 23, "total": 23}