{"league": "NBA", "team": "Milwaukee Bucks", "stadium": "Fiserv Forum", "stadium latitude": 43.045028, "stadium longitude": -87.91816700000001, "radius": "3000 meters", "city": "Milwaukee", "state": "Wisconsin", "businesses": [{"id": "mgVA9tNReJqiUGx33nfqqQ", "alias": "swingin-door-exchange-milwaukee", "name": "Swingin' Door Exchange", "image_url": "https://s3-media3.fl.yelpcdn.com/bphoto/nQglUY8Hik8W41OrJZ-s9Q/o.jpg", "is_closed": false, "url": "https://www.yelp.com/biz/swingin-door-exchange-milwaukee?adjust_creative=a2JdNtFqB-C38ga_06BHvw&utm_campaign=yelp_api_v3&utm_medium=api_v3_business_search&utm_source=a2JdNtFqB-C38ga_06BHvw", "review_count": 768, "categories": [{"alias": "newamerican", "title": "American (New)"}, {"alias": "pubs", "title": "Pubs"}], "rating": 4.5, "coordinates": {"latitude": 43.0372865988308, "longitude": -87.9082108706663}, "transactions": ["pickup", "delivery"], "price": "$$", "location": {"address1": "219 E Michigan St", "address2": "", "address3": "", "city": "Milwaukee", "zip_code": "53202", "country": "US", "state": "WI", "display_address": ["219 E Michigan St", "Milwaukee, WI 53202"]}, "phone": "+14142768150", "display_phone": "(414) 276-8150", "distance": 1181.377680857251}, {"id": "SwFGGG-TRK9kL-mbcd9_Kg", "alias": "the-original-milwaukee", "name": "The Original", "image_url": "https://s3-media3.fl.yelpcdn.com/bphoto/_kMU4ZSfBaZuZp_6Aq5nwQ/o.jpg", "is_closed": false, "url": "https://www.yelp.com/biz/the-original-milwaukee?adjust_creative=a2JdNtFqB-C38ga_06BHvw&utm_campaign=yelp_api_v3&utm_medium=api_v3_business_search&utm_source=a2JdNtFqB-C38ga_06BHvw", "review_count": 122, "categories": [{"alias": "cocktailbars", "title": "Cocktail Bars"}, {"alias": "newamerican", "title": "American (New)"}, {"alias": "breakfast_brunch", "title": "Breakfast & Brunch"}], "rating": 4.5, "coordinates": {"latitude": 43.0636, "longitude": -87.88889}, "transactions": ["delivery"], "price": "$$", "location": {"address1": "2498 N Bartlett Ave", "address2": null, "address3": "", "city": "Milwaukee", "zip_code": "53211", "country": "US", "state": "WI", "display_address": ["2498 N Bartlett Ave", "Milwaukee, WI 53211"]}, "phone": "+14147634811", "display_phone": "(414) 763-4811", "distance": 3149.617542605606}, {"id": "jH4AA0-uIvELs36190ZFfA", "alias": "the-capital-grille-milwaukee-2", "name": "The Capital Grille", "image_url": "https://s3-media2.fl.yelpcdn.com/bphoto/8OpoH3KL49JA-WC-RbAwMw/o.jpg", "is_closed": false, "url": "https://www.yelp.com/biz/the-capital-grille-milwaukee-2?adjust_creative=a2JdNtFqB-C38ga_06BHvw&utm_campaign=yelp_api_v3&utm_medium=api_v3_business_search&utm_source=a2JdNtFqB-C38ga_06BHvw", "review_count": 295, "categories": [{"alias": "steak", "title": "Steakhouses"}, {"alias": "seafood", "title": "Seafood"}, {"alias": "wine_bars", "title": "Wine Bars"}], "rating": 4.5, "coordinates": {"latitude": 43.03935, "longitude": -87.91516}, "transactions": [], "price": "$$$", "location": {"address1": "310 W Wisconsin Ave", "address2": null, "address3": "", "city": "Milwaukee", "zip_code": "53203", "country": "US", "state": "WI", "display_address": ["310 W Wisconsin Ave", "Milwaukee, WI 53203"]}, "phone": "+14142230600", "display_phone": "(414) 223-0600", "distance": 683.3404822181054}, {"id": "tnf6a9ywrnwkV6cv5SrWnA", "alias": "oscars-pub-and-grill-milwaukee", "name": "Oscar's Pub & Grill", "image_url": "https://s3-media1.fl.yelpcdn.com/bphoto/BaLIysGslti7yBiz70gzIQ/o.jpg", "is_closed": false, "url": "https://www.yelp.com/biz/oscars-pub-and-grill-milwaukee?adjust_creative=a2JdNtFqB-C38ga_06BHvw&utm_campaign=yelp_api_v3&utm_medium=api_v3_business_search&utm_source=a2JdNtFqB-C38ga_06BHvw", "review_count": 728, "categories": [{"alias": "newamerican", "title": "American (New)"}, {"alias": "pubs", "title": "Pubs"}, {"alias": "burgers", "title": "Burgers"}], "rating": 4.5, "coordinates": {"latitude": 43.02456, "longitude": -87.9348}, "transactions": ["delivery"], "price": "$$", "location": {"address1": "1712 W Pierce St", "address2": "", "address3": "", "city": "Milwaukee", "zip_code": "53204", "country": "US", "state": "WI", "display_address": ["1712 W Pierce St", "Milwaukee, WI 53204"]}, "phone": "+14148101820", "display_phone": "(414) 810-1820", "distance": 2662.7831161939735}, {"id": "awI7wkuNei0rwj39TG9JCA", "alias": "la-masa-empanada-bar-milwaukee-2", "name": "La Masa Empanada Bar", "image_url": "https://s3-media4.fl.yelpcdn.com/bphoto/DJDoJEPz6iSpFEIinXZ5rg/o.jpg", "is_closed": false, "url": "https://www.yelp.com/biz/la-masa-empanada-bar-milwaukee-2?adjust_creative=a2JdNtFqB-C38ga_06BHvw&utm_campaign=yelp_api_v3&utm_medium=api_v3_business_search&utm_source=a2JdNtFqB-C38ga_06BHvw", "review_count": 385, "categories": [{"alias": "empanadas", "title": "Empanadas"}, {"alias": "cocktailbars", "title": "Cocktail Bars"}, {"alias": "sandwiches", "title": "Sandwiches"}], "rating": 4.5, "coordinates": {"latitude": 43.05318, "longitude": -87.89455}, "transactions": ["delivery"], "price": "$$", "location": {"address1": "1300 E Brady St", "address2": "", "address3": "", "city": "Milwaukee", "zip_code": "53202", "country": "US", "state": "WI", "display_address": ["1300 E Brady St", "Milwaukee, WI 53202"]}, "phone": "+14148851866", "display_phone": "(414) 885-1866", "distance": 2110.4505048814976}, {"id": "hNUavwmUw4ue0LRUMhrnrw", "alias": "von-trier-milwaukee", "name": "Von Trier", "image_url": "https://s3-media2.fl.yelpcdn.com/bphoto/jvIGo0JjJRjsaLXgwxhM-w/o.jpg", "is_closed": false, "url": "https://www.yelp.com/biz/von-trier-milwaukee?adjust_creative=a2JdNtFqB-C38ga_06BHvw&utm_campaign=yelp_api_v3&utm_medium=api_v3_business_search&utm_source=a2JdNtFqB-C38ga_06BHvw", "review_count": 172, "categories": [{"alias": "pubs", "title": "Pubs"}, {"alias": "german", "title": "German"}], "rating": 4.5, "coordinates": {"latitude": 43.059966853163, "longitude": -87.8858562489169}, "transactions": ["delivery"], "price": "$$", "location": {"address1": "2235 N Farwell Ave", "address2": "", "address3": "", "city": "Milwaukee", "zip_code": "53202", "country": "US", "state": "WI", "display_address": ["2235 N Farwell Ave", "Milwaukee, WI 53202"]}, "phone": "+14142721775", "display_phone": "(414) 272-1775", "distance": 3106.7352306046837}, {"id": "hpZm0Oqf5di5f0p6bP1-4Q", "alias": "fixture-pizza-pub-milwaukee", "name": "Fixture Pizza Pub", "image_url": "https://s3-media4.fl.yelpcdn.com/bphoto/0h4PerdMnbM6IGLra4uq-Q/o.jpg", "is_closed": false, "url": "https://www.yelp.com/biz/fixture-pizza-pub-milwaukee?adjust_creative=a2JdNtFqB-C38ga_06BHvw&utm_campaign=yelp_api_v3&utm_medium=api_v3_business_search&utm_source=a2JdNtFqB-C38ga_06BHvw", "review_count": 228, "categories": [{"alias": "pizza", "title": "Pizza"}, {"alias": "tradamerican", "title": "American (Traditional)"}, {"alias": "pubs", "title": "Pubs"}], "rating": 4.5, "coordinates": {"latitude": 43.02463, "longitude": -87.91291}, "transactions": ["delivery"], "price": "$$", "location": {"address1": "623 S 2nd St", "address2": "", "address3": "", "city": "Milwaukee", "zip_code": "53204", "country": "US", "state": "WI", "display_address": ["623 S 2nd St", "Milwaukee, WI 53204"]}, "phone": "+14147368709", "display_phone": "(414) 736-8709", "distance": 2297.3222906310634}, {"id": "J6ktS2Ff_YXWxWUS8s2PIw", "alias": "zarletti-milwaukee", "name": "Zarletti", "image_url": "https://s3-media2.fl.yelpcdn.com/bphoto/6CXcdbbJ-p1ZxyfJ2oCphA/o.jpg", "is_closed": false, "url": "https://www.yelp.com/biz/zarletti-milwaukee?adjust_creative=a2JdNtFqB-C38ga_06BHvw&utm_campaign=yelp_api_v3&utm_medium=api_v3_business_search&utm_source=a2JdNtFqB-C38ga_06BHvw", "review_count": 201, "categories": [{"alias": "italian", "title": "Italian"}, {"alias": "wine_bars", "title": "Wine Bars"}], "rating": 4.5, "coordinates": {"latitude": 43.03976, "longitude": -87.90702}, "transactions": ["delivery"], "price": "$$$", "location": {"address1": "741 N Milwaukee St", "address2": null, "address3": "", "city": "Milwaukee", "zip_code": "53202", "country": "US", "state": "WI", "display_address": ["741 N Milwaukee St", "Milwaukee, WI 53202"]}, "phone": "+14142250000", "display_phone": "(414) 225-0000", "distance": 1079.597279536961}, {"id": "qN_1e4gjZk1Niwd_qdxx1g", "alias": "the-tandem-milwaukee", "name": "The Tandem", "image_url": "https://s3-media2.fl.yelpcdn.com/bphoto/A75Tot8ZmyI4jv_WiFVwWg/o.jpg", "is_closed": false, "url": "https://www.yelp.com/biz/the-tandem-milwaukee?adjust_creative=a2JdNtFqB-C38ga_06BHvw&utm_campaign=yelp_api_v3&utm_medium=api_v3_business_search&utm_source=a2JdNtFqB-C38ga_06BHvw", "review_count": 126, "categories": [{"alias": "southern", "title": "Southern"}, {"alias": "comfortfood", "title": "Comfort Food"}, {"alias": "cocktailbars", "title": "Cocktail Bars"}], "rating": 4.5, "coordinates": {"latitude": 43.0588, "longitude": -87.93596}, "transactions": ["pickup", "delivery"], "price": "$$", "location": {"address1": "1848 W Fond Du Lac Ave", "address2": "", "address3": null, "city": "Milwaukee", "zip_code": "53205", "country": "US", "state": "WI", "display_address": ["1848 W Fond Du Lac Ave", "Milwaukee, WI 53205"]}, "phone": "+14148851919", "display_phone": "(414) 885-1919", "distance": 2109.201596277661}, {"id": "yrANxFELqbbqHlBJqHPO-w", "alias": "onesto-milwaukee", "name": "Onesto", "image_url": "https://s3-media4.fl.yelpcdn.com/bphoto/0HZElJHlDlBfYDa6ZkcoLw/o.jpg", "is_closed": false, "url": "https://www.yelp.com/biz/onesto-milwaukee?adjust_creative=a2JdNtFqB-C38ga_06BHvw&utm_campaign=yelp_api_v3&utm_medium=api_v3_business_search&utm_source=a2JdNtFqB-C38ga_06BHvw", "review_count": 391, "categories": [{"alias": "venues", "title": "Venues & Event Spaces"}, {"alias": "italian", "title": "Italian"}, {"alias": "wine_bars", "title": "Wine Bars"}], "rating": 4.0, "coordinates": {"latitude": 43.0332, "longitude": -87.90759}, "transactions": ["delivery"], "price": "$$", "location": {"address1": "221 N Broadway", "address2": null, "address3": "", "city": "Milwaukee", "zip_code": "53202", "country": "US", "state": "WI", "display_address": ["221 N Broadway", "Milwaukee, WI 53202"]}, "phone": "+14143081600", "display_phone": "(414) 308-1600", "distance": 1572.493208253}, {"id": "h2OKNKXEXeX0He9Nj-G0JA", "alias": "milwaukee-brat-house-milwaukee", "name": "Milwaukee Brat House", "image_url": "https://s3-media3.fl.yelpcdn.com/bphoto/dTc_bZr_E0M_8hZrPhBlXw/o.jpg", "is_closed": false, "url": "https://www.yelp.com/biz/milwaukee-brat-house-milwaukee?adjust_creative=a2JdNtFqB-C38ga_06BHvw&utm_campaign=yelp_api_v3&utm_medium=api_v3_business_search&utm_source=a2JdNtFqB-C38ga_06BHvw", "review_count": 614, "categories": [{"alias": "pubs", "title": "Pubs"}, {"alias": "german", "title": "German"}], "rating": 4.0, "coordinates": {"latitude": 43.0433862028463, "longitude": -87.9147166013718}, "transactions": ["pickup", "delivery"], "price": "$$", "location": {"address1": "1013 N Old World 3rd St", "address2": "", "address3": "", "city": "Milwaukee", "zip_code": "53203", "country": "US", "state": "WI", "display_address": ["1013 N Old World 3rd St", "Milwaukee, WI 53203"]}, "phone": "+14142738709", "display_phone": "(414) 273-8709", "distance": 334.5872449498209}, {"id": "SsVC7vBz5kcOjfMEs8MCuw", "alias": "tied-house-milwaukee-milwaukee", "name": "Tied House Milwaukee", "image_url": "https://s3-media3.fl.yelpcdn.com/bphoto/qeYae5fZ6pgVwkAEecI9kw/o.jpg", "is_closed": false, "url": "https://www.yelp.com/biz/tied-house-milwaukee-milwaukee?adjust_creative=a2JdNtFqB-C38ga_06BHvw&utm_campaign=yelp_api_v3&utm_medium=api_v3_business_search&utm_source=a2JdNtFqB-C38ga_06BHvw", "review_count": 60, "categories": [{"alias": "tapasmallplates", "title": "Tapas/Small Plates"}, {"alias": "cocktailbars", "title": "Cocktail Bars"}], "rating": 4.5, "coordinates": {"latitude": 43.03197, "longitude": -87.90908}, "transactions": ["delivery"], "location": {"address1": "124 N Water St", "address2": null, "address3": "", "city": "Milwaukee", "zip_code": "53202", "country": "US", "state": "WI", "display_address": ["124 N Water St", "Milwaukee, WI 53202"]}, "phone": "", "display_phone": "", "distance": 1624.7197342272714}, {"id": "fETIrFCb1m3Qj52vzprx5A", "alias": "strange-town-milwaukee-2", "name": "Strange Town", "image_url": "https://s3-media3.fl.yelpcdn.com/bphoto/CdAQBE--q02H3KOsxJej9g/o.jpg", "is_closed": false, "url": "https://www.yelp.com/biz/strange-town-milwaukee-2?adjust_creative=a2JdNtFqB-C38ga_06BHvw&utm_campaign=yelp_api_v3&utm_medium=api_v3_business_search&utm_source=a2JdNtFqB-C38ga_06BHvw", "review_count": 111, "categories": [{"alias": "vegan", "title": "Vegan"}, {"alias": "wine_bars", "title": "Wine Bars"}], "rating": 4.5, "coordinates": {"latitude": 43.05731, "longitude": -87.8867}, "transactions": [], "price": "$$", "location": {"address1": "2101 N Prospect Ave", "address2": "", "address3": null, "city": "Milwaukee", "zip_code": "53202", "country": "US", "state": "WI", "display_address": ["2101 N Prospect Ave", "Milwaukee, WI 53202"]}, "phone": "+14148850404", "display_phone": "(414) 885-0404", "distance": 2898.7246585250855}, {"id": "r1IAwq6u0orde8fBDOnlzg", "alias": "balzac-milwaukee", "name": "Balzac", "image_url": "https://s3-media2.fl.yelpcdn.com/bphoto/95cof4JIs3U7owEiQC6wDg/o.jpg", "is_closed": false, "url": "https://www.yelp.com/biz/balzac-milwaukee?adjust_creative=a2JdNtFqB-C38ga_06BHvw&utm_campaign=yelp_api_v3&utm_medium=api_v3_business_search&utm_source=a2JdNtFqB-C38ga_06BHvw", "review_count": 364, "categories": [{"alias": "wine_bars", "title": "Wine Bars"}, {"alias": "tapasmallplates", "title": "Tapas/Small Plates"}], "rating": 4.0, "coordinates": {"latitude": 43.0532941, "longitude": -87.8948151}, "transactions": ["delivery"], "price": "$$", "location": {"address1": "1716 N Arlington Pl", "address2": null, "address3": "", "city": "Milwaukee", "zip_code": "53202", "country": "US", "state": "WI", "display_address": ["1716 N Arlington Pl", "Milwaukee, WI 53202"]}, "phone": "+14147550099", "display_phone": "(414) 755-0099", "distance": 2113.05478217634}, {"id": "tLY0U9G78lgj0NFJ4bXihw", "alias": "points-east-pub-milwaukee", "name": "Points East Pub", "image_url": "https://s3-media2.fl.yelpcdn.com/bphoto/qobzqtTYQFtawb_YHMHxJw/o.jpg", "is_closed": false, "url": "https://www.yelp.com/biz/points-east-pub-milwaukee?adjust_creative=a2JdNtFqB-C38ga_06BHvw&utm_campaign=yelp_api_v3&utm_medium=api_v3_business_search&utm_source=a2JdNtFqB-C38ga_06BHvw", "review_count": 305, "categories": [{"alias": "sportsbars", "title": "Sports Bars"}, {"alias": "chicken_wings", "title": "Chicken Wings"}, {"alias": "sandwiches", "title": "Sandwiches"}], "rating": 4.0, "coordinates": {"latitude": 43.049497, "longitude": -87.904964}, "transactions": ["delivery"], "price": "$$", "location": {"address1": "1501 N Jackson St", "address2": "", "address3": "", "city": "Milwaukee", "zip_code": "53202", "country": "US", "state": "WI", "display_address": ["1501 N Jackson St", "Milwaukee, WI 53202"]}, "phone": "+14142770122", "display_phone": "(414) 277-0122", "distance": 1182.3728860664812}, {"id": "wmStGUk6Lqiqu2-maCGz5Q", "alias": "sobelmans-pub-and-grill-milwaukee", "name": "Sobelman's Pub & Grill", "image_url": "https://s3-media1.fl.yelpcdn.com/bphoto/28yTNK8ZrjIeFBXuTdNUvw/o.jpg", "is_closed": false, "url": "https://www.yelp.com/biz/sobelmans-pub-and-grill-milwaukee?adjust_creative=a2JdNtFqB-C38ga_06BHvw&utm_campaign=yelp_api_v3&utm_medium=api_v3_business_search&utm_source=a2JdNtFqB-C38ga_06BHvw", "review_count": 789, "categories": [{"alias": "pubs", "title": "Pubs"}, {"alias": "tradamerican", "title": "American (Traditional)"}, {"alias": "burgers", "title": "Burgers"}], "rating": 4.0, "coordinates": {"latitude": 43.034992, "longitude": -87.936775}, "transactions": ["delivery"], "price": "$$", "location": {"address1": "1900 W St Paul Ave", "address2": "", "address3": "", "city": "Milwaukee", "zip_code": "53233", "country": "US", "state": "WI", "display_address": ["1900 W St Paul Ave", "Milwaukee, WI 53233"]}, "phone": "+14149311919", "display_phone": "(414) 931-1919", "distance": 1891.916269689446}, {"id": "SCjtn4zpkX2cBEyl4urP5Q", "alias": "whos-on-third-milwaukee", "name": "Who's On Third", "image_url": "https://s3-media2.fl.yelpcdn.com/bphoto/6Z2Bd4-l0qpfCDcd3dkvQw/o.jpg", "is_closed": false, "url": "https://www.yelp.com/biz/whos-on-third-milwaukee?adjust_creative=a2JdNtFqB-C38ga_06BHvw&utm_campaign=yelp_api_v3&utm_medium=api_v3_business_search&utm_source=a2JdNtFqB-C38ga_06BHvw", "review_count": 236, "categories": [{"alias": "sportsbars", "title": "Sports Bars"}, {"alias": "tradamerican", "title": "American (Traditional)"}], "rating": 4.0, "coordinates": {"latitude": 43.043171, "longitude": -87.914823}, "transactions": ["pickup", "delivery"], "price": "$$", "location": {"address1": "1007 N Old World 3rd St", "address2": "", "address3": "", "city": "Milwaukee", "zip_code": "53203", "country": "US", "state": "WI", "display_address": ["1007 N Old World 3rd St", "Milwaukee, WI 53203"]}, "phone": "+14148978373", "display_phone": "(414) 897-8373", "distance": 341.29833100123386}, {"id": "2GXlYHeOOJWs3DX5iQMmEw", "alias": "cavas-milwaukee", "name": "Cavas", "image_url": "https://s3-media2.fl.yelpcdn.com/bphoto/858sV0ewok3DHaTnyszCxg/o.jpg", "is_closed": false, "url": "https://www.yelp.com/biz/cavas-milwaukee?adjust_creative=a2JdNtFqB-C38ga_06BHvw&utm_campaign=yelp_api_v3&utm_medium=api_v3_business_search&utm_source=a2JdNtFqB-C38ga_06BHvw", "review_count": 21, "categories": [{"alias": "spanish", "title": "Spanish"}, {"alias": "wine_bars", "title": "Wine Bars"}], "rating": 5.0, "coordinates": {"latitude": 43.02955, "longitude": -87.90543}, "transactions": [], "price": "$$", "location": {"address1": "401 E Erie St", "address2": null, "address3": null, "city": "Milwaukee", "zip_code": "53202", "country": "US", "state": "WI", "display_address": ["401 E Erie St", "Milwaukee, WI 53202"]}, "phone": "+14149309088", "display_phone": "(414) 930-9088", "distance": 2007.5536673318352}, {"id": "vMqZt1v_uvHhFOIVOFRjVA", "alias": "east-town-kitchen-and-bar-milwaukee-2", "name": "East Town Kitchen & Bar", "image_url": "https://s3-media4.fl.yelpcdn.com/bphoto/xKXRwr_p-CjsSpxQ9H94RQ/o.jpg", "is_closed": false, "url": "https://www.yelp.com/biz/east-town-kitchen-and-bar-milwaukee-2?adjust_creative=a2JdNtFqB-C38ga_06BHvw&utm_campaign=yelp_api_v3&utm_medium=api_v3_business_search&utm_source=a2JdNtFqB-C38ga_06BHvw", "review_count": 74, "categories": [{"alias": "newamerican", "title": "American (New)"}, {"alias": "beerbar", "title": "Beer Bar"}, {"alias": "cocktailbars", "title": "Cocktail Bars"}], "rating": 4.0, "coordinates": {"latitude": 43.03835, "longitude": -87.90687}, "transactions": ["delivery"], "price": "$$", "location": {"address1": "323 E Wisconsin Ave", "address2": "", "address3": null, "city": "Milwaukee", "zip_code": "53202", "country": "US", "state": "WI", "display_address": ["323 E Wisconsin Ave", "Milwaukee, WI 53202"]}, "phone": "+14148473162", "display_phone": "(414) 847-3162", "distance": 1163.4636199868507}, {"id": "mJZGrr3GwcIAy0C2xWIt2A", "alias": "red-lion-pub-milwaukee", "name": "Red Lion Pub", "image_url": "https://s3-media2.fl.yelpcdn.com/bphoto/XpdqNT7sDOvdN1-TZTkeGQ/o.jpg", "is_closed": false, "url": "https://www.yelp.com/biz/red-lion-pub-milwaukee?adjust_creative=a2JdNtFqB-C38ga_06BHvw&utm_campaign=yelp_api_v3&utm_medium=api_v3_business_search&utm_source=a2JdNtFqB-C38ga_06BHvw", "review_count": 126, "categories": [{"alias": "pubs", "title": "Pubs"}, {"alias": "british", "title": "British"}, {"alias": "fishnchips", "title": "Fish & Chips"}], "rating": 4.0, "coordinates": {"latitude": 43.055286, "longitude": -87.900917}, "transactions": ["pickup", "delivery"], "price": "$$", "location": {"address1": "1850 N Water St", "address2": "", "address3": "", "city": "Milwaukee", "zip_code": "53202", "country": "US", "state": "WI", "display_address": ["1850 N Water St", "Milwaukee, WI 53202"]}, "phone": "+14144319009", "display_phone": "(414) 431-9009", "distance": 1804.0349216637671}, {"id": "mGMQSmTzDaL3aqdIDhDTXA", "alias": "zaffiros-pizza-milwaukee", "name": "Zaffiro's Pizza", "image_url": "https://s3-media4.fl.yelpcdn.com/bphoto/zj4fWK76fCdBu17888vkyA/o.jpg", "is_closed": false, "url": "https://www.yelp.com/biz/zaffiros-pizza-milwaukee?adjust_creative=a2JdNtFqB-C38ga_06BHvw&utm_campaign=yelp_api_v3&utm_medium=api_v3_business_search&utm_source=a2JdNtFqB-C38ga_06BHvw", "review_count": 285, "categories": [{"alias": "pizza", "title": "Pizza"}, {"alias": "wine_bars", "title": "Wine Bars"}, {"alias": "italian", "title": "Italian"}], "rating": 4.0, "coordinates": {"latitude": 43.0532272160053, "longitude": -87.8919741511345}, "transactions": ["delivery"], "price": "$$", "location": {"address1": "1724 N Farwell Ave", "address2": "", "address3": "", "city": "Milwaukee", "zip_code": "53202", "country": "US", "state": "WI", "display_address": ["1724 N Farwell Ave", "Milwaukee, WI 53202"]}, "phone": "+14142898776", "display_phone": "(414) 289-8776", "distance": 2336.7877940476837}, {"id": "qTEg0FPxOz2IA2zt4yy9NA", "alias": "old-german-beer-hall-milwaukee", "name": "Old German Beer Hall", "image_url": "https://s3-media4.fl.yelpcdn.com/bphoto/FsQGRa6808UE98bqat9eLg/o.jpg", "is_closed": false, "url": "https://www.yelp.com/biz/old-german-beer-hall-milwaukee?adjust_creative=a2JdNtFqB-C38ga_06BHvw&utm_campaign=yelp_api_v3&utm_medium=api_v3_business_search&utm_source=a2JdNtFqB-C38ga_06BHvw", "review_count": 262, "categories": [{"alias": "pubs", "title": "Pubs"}, {"alias": "german", "title": "German"}], "rating": 4.0, "coordinates": {"latitude": 43.04322, "longitude": -87.91489}, "transactions": ["delivery"], "price": "$$", "location": {"address1": "1009 N Old World 3rd St", "address2": "", "address3": "", "city": "Milwaukee", "zip_code": "53203", "country": "US", "state": "WI", "display_address": ["1009 N Old World 3rd St", "Milwaukee, WI 53203"]}, "phone": "+14142262728", "display_phone": "(414) 226-2728", "distance": 341.82644594816566}, {"id": "haHaZCkatwXA8GwXrUnjcA", "alias": "black-sheep-milwaukee-6", "name": "Black Sheep", "image_url": "https://s3-media2.fl.yelpcdn.com/bphoto/_I06NFglR_13j3oQOY5Oyw/o.jpg", "is_closed": false, "url": "https://www.yelp.com/biz/black-sheep-milwaukee-6?adjust_creative=a2JdNtFqB-C38ga_06BHvw&utm_campaign=yelp_api_v3&utm_medium=api_v3_business_search&utm_source=a2JdNtFqB-C38ga_06BHvw", "review_count": 250, "categories": [{"alias": "wine_bars", "title": "Wine Bars"}, {"alias": "newamerican", "title": "American (New)"}, {"alias": "breakfast_brunch", "title": "Breakfast & Brunch"}], "rating": 3.5, "coordinates": {"latitude": 43.0289497375488, "longitude": -87.9123153686523}, "transactions": ["delivery"], "price": "$$", "location": {"address1": "216 S 2nd St", "address2": "", "address3": "", "city": "Milwaukee", "zip_code": "53204", "country": "US", "state": "WI", "display_address": ["216 S 2nd St", "Milwaukee, WI 53204"]}, "phone": "+14142230903", "display_phone": "(414) 223-0903", "distance": 1850.0152960807964}, {"id": "Se0GYRddvK86SM6qQfEnaA", "alias": "vermuteria-600-milwaukee-3", "name": "Vermuteria 600", "image_url": "https://s3-media4.fl.yelpcdn.com/bphoto/R_4lapsw9zClcHvviU9g7g/o.jpg", "is_closed": false, "url": "https://www.yelp.com/biz/vermuteria-600-milwaukee-3?adjust_creative=a2JdNtFqB-C38ga_06BHvw&utm_campaign=yelp_api_v3&utm_medium=api_v3_business_search&utm_source=a2JdNtFqB-C38ga_06BHvw", "review_count": 26, "categories": [{"alias": "cocktailbars", "title": "Cocktail Bars"}, {"alias": "vermouthbars", "title": "Vermouth Bars"}, {"alias": "spanish", "title": "Spanish"}], "rating": 4.5, "coordinates": {"latitude": 43.02506, "longitude": -87.91783}, "transactions": [], "price": "$$", "location": {"address1": "Hotel Madrid", "address2": "600 S 6th St", "address3": null, "city": "Milwaukee", "zip_code": "53204", "country": "US", "state": "WI", "display_address": ["Hotel Madrid", "600 S 6th St", "Milwaukee, WI 53204"]}, "phone": "+14144889146", "display_phone": "(414) 488-9146", "distance": 2208.533408454414}, {"id": "iLKinbi8CVCBqgGNdvvZ5A", "alias": "hotel-madrid-milwaukee-4", "name": "Hotel Madrid", "image_url": "https://s3-media1.fl.yelpcdn.com/bphoto/oGCOHeNFc4q23rDwgc7dtw/o.jpg", "is_closed": false, "url": "https://www.yelp.com/biz/hotel-madrid-milwaukee-4?adjust_creative=a2JdNtFqB-C38ga_06BHvw&utm_campaign=yelp_api_v3&utm_medium=api_v3_business_search&utm_source=a2JdNtFqB-C38ga_06BHvw", "review_count": 69, "categories": [{"alias": "breakfast_brunch", "title": "Breakfast & Brunch"}, {"alias": "cocktailbars", "title": "Cocktail Bars"}, {"alias": "desserts", "title": "Desserts"}], "rating": 4.0, "coordinates": {"latitude": 43.025152, "longitude": -87.917967}, "transactions": ["delivery"], "price": "$$", "location": {"address1": "600 S 6th St", "address2": "", "address3": null, "city": "Milwaukee", "zip_code": "53204", "country": "US", "state": "WI", "display_address": ["600 S 6th St", "Milwaukee, WI 53204"]}, "phone": "+14144889146", "display_phone": "(414) 488-9146", "distance": 2210.167688312442}, {"id": "AbT7M3EMY4Ecukv1RR1o8A", "alias": "merge-milwaukee", "name": "Merge", "image_url": "https://s3-media3.fl.yelpcdn.com/bphoto/xCuEOzBBtbwfT26ZCoIQrg/o.jpg", "is_closed": false, "url": "https://www.yelp.com/biz/merge-milwaukee?adjust_creative=a2JdNtFqB-C38ga_06BHvw&utm_campaign=yelp_api_v3&utm_medium=api_v3_business_search&utm_source=a2JdNtFqB-C38ga_06BHvw", "review_count": 99, "categories": [{"alias": "korean", "title": "Korean"}, {"alias": "chicken_wings", "title": "Chicken Wings"}, {"alias": "pubs", "title": "Pubs"}], "rating": 4.0, "coordinates": {"latitude": 43.0590669, "longitude": -87.8854979}, "transactions": ["pickup", "delivery"], "location": {"address1": "1932 E Kenilworth Pl", "address2": "", "address3": null, "city": "Milwaukee", "zip_code": "53202", "country": "US", "state": "WI", "display_address": ["1932 E Kenilworth Pl", "Milwaukee, WI 53202"]}, "phone": "+14142265160", "display_phone": "(414) 226-5160", "distance": 3088.898061182056}, {"id": "xsqmbpf23H4xbFHqENDDZQ", "alias": "elsas-on-the-park-milwaukee-2", "name": "Elsa's On the Park", "image_url": "https://s3-media1.fl.yelpcdn.com/bphoto/87kzxJaOQVybcNGt-VJpKA/o.jpg", "is_closed": false, "url": "https://www.yelp.com/biz/elsas-on-the-park-milwaukee-2?adjust_creative=a2JdNtFqB-C38ga_06BHvw&utm_campaign=yelp_api_v3&utm_medium=api_v3_business_search&utm_source=a2JdNtFqB-C38ga_06BHvw", "review_count": 331, "categories": [{"alias": "burgers", "title": "Burgers"}, {"alias": "cocktailbars", "title": "Cocktail Bars"}], "rating": 3.5, "coordinates": {"latitude": 43.042011, "longitude": -87.905906}, "transactions": ["delivery"], "price": "$$", "location": {"address1": "833 N Jefferson St", "address2": null, "address3": null, "city": "Milwaukee", "zip_code": "53202", "country": "US", "state": "WI", "display_address": ["833 N Jefferson St", "Milwaukee, WI 53202"]}, "phone": "+14147650615", "display_phone": "(414) 765-0615", "distance": 1051.3511562249128}, {"id": "JSswLM3vo5pRCYBt94VHzg", "alias": "pete-s-pub-milwaukee", "name": "Peteâ€™s Pub", "image_url": "https://s3-media3.fl.yelpcdn.com/bphoto/ctXnFAGIw4vlGyF1MxnOHA/o.jpg", "is_closed": false, "url": "https://www.yelp.com/biz/pete-s-pub-milwaukee?adjust_creative=a2JdNtFqB-C38ga_06BHvw&utm_campaign=yelp_api_v3&utm_medium=api_v3_business_search&utm_source=a2JdNtFqB-C38ga_06BHvw", "review_count": 22, "categories": [{"alias": "tradamerican", "title": "American (Traditional)"}, {"alias": "sportsbars", "title": "Sports Bars"}, {"alias": "burgers", "title": "Burgers"}], "rating": 4.5, "coordinates": {"latitude": 43.053139, "longitude": -87.895662}, "transactions": [], "location": {"address1": "1234 E Brady St", "address2": null, "address3": null, "city": "Milwaukee", "zip_code": "53202", "country": "US", "state": "WI", "display_address": ["1234 E Brady St", "Milwaukee, WI 53202"]}, "phone": "+14143127457", "display_phone": "(414) 312-7457", "distance": 2038.361613181919}, {"id": "FyUnaxUc0I_Fd2fBETh13Q", "alias": "screaming-tuna-milwaukee-milwaukee-3", "name": "Screaming Tuna - Milwaukee", "image_url": "https://s3-media4.fl.yelpcdn.com/bphoto/TWmjN836sc0r9UDs07dXrg/o.jpg", "is_closed": false, "url": "https://www.yelp.com/biz/screaming-tuna-milwaukee-milwaukee-3?adjust_creative=a2JdNtFqB-C38ga_06BHvw&utm_campaign=yelp_api_v3&utm_medium=api_v3_business_search&utm_source=a2JdNtFqB-C38ga_06BHvw", "review_count": 454, "categories": [{"alias": "sushi", "title": "Sushi Bars"}, {"alias": "wine_bars", "title": "Wine Bars"}, {"alias": "asianfusion", "title": "Asian Fusion"}], "rating": 3.5, "coordinates": {"latitude": 43.0309617112076, "longitude": -87.9113102013969}, "transactions": ["pickup", "delivery"], "price": "$$", "location": {"address1": "106 W Seeboth St", "address2": null, "address3": "", "city": "Milwaukee", "zip_code": "53204", "country": "US", "state": "WI", "display_address": ["106 W Seeboth St", "Milwaukee, WI 53204"]}, "phone": "+14147631637", "display_phone": "(414) 763-1637", "distance": 1660.4070485997356}, {"id": "g3qgsm9BIMz-wY-_l3WEkQ", "alias": "sobelmans-pub-n-grill-milwaukee-2", "name": "Sobelmans Pub N Grill", "image_url": "https://s3-media1.fl.yelpcdn.com/bphoto/C8xgJFHKlRpdagTQxbKPYw/o.jpg", "is_closed": false, "url": "https://www.yelp.com/biz/sobelmans-pub-n-grill-milwaukee-2?adjust_creative=a2JdNtFqB-C38ga_06BHvw&utm_campaign=yelp_api_v3&utm_medium=api_v3_business_search&utm_source=a2JdNtFqB-C38ga_06BHvw", "review_count": 126, "categories": [{"alias": "pubs", "title": "Pubs"}, {"alias": "tradamerican", "title": "American (Traditional)"}, {"alias": "chicken_wings", "title": "Chicken Wings"}], "rating": 4.0, "coordinates": {"latitude": 43.040073, "longitude": -87.933157}, "transactions": ["pickup", "delivery"], "price": "$", "location": {"address1": "1601 W Wells St", "address2": "", "address3": "", "city": "Milwaukee", "zip_code": "53233", "country": "US", "state": "WI", "display_address": ["1601 W Wells St", "Milwaukee, WI 53233"]}, "phone": "+14149331601", "display_phone": "(414) 933-1601", "distance": 1336.9885913648413}, {"id": "aFEequn7VYV3e5wVWIsSug", "alias": "oggies-milwaukee", "name": "Oggie's", "image_url": "https://s3-media2.fl.yelpcdn.com/bphoto/PIzMdIgg79T0fvJs7zPV7w/o.jpg", "is_closed": false, "url": "https://www.yelp.com/biz/oggies-milwaukee?adjust_creative=a2JdNtFqB-C38ga_06BHvw&utm_campaign=yelp_api_v3&utm_medium=api_v3_business_search&utm_source=a2JdNtFqB-C38ga_06BHvw", "review_count": 15, "categories": [{"alias": "cocktailbars", "title": "Cocktail Bars"}, {"alias": "newamerican", "title": "American (New)"}], "rating": 4.5, "coordinates": {"latitude": 43.039762, "longitude": -87.906302}, "transactions": ["pickup", "delivery"], "location": {"address1": "411 E Mason St", "address2": null, "address3": "", "city": "Milwaukee", "zip_code": "53202", "country": "US", "state": "WI", "display_address": ["411 E Mason St", "Milwaukee, WI 53202"]}, "phone": "+14142253260", "display_phone": "(414) 225-3260", "distance": 1127.818186157049}, {"id": "QtOJ333_5ZqvaPUvzC87Lw", "alias": "hooligans-milwaukee", "name": "Hooligan's", "image_url": "https://s3-media1.fl.yelpcdn.com/bphoto/5SIVzdp1B05KFGS9DazYgQ/o.jpg", "is_closed": false, "url": "https://www.yelp.com/biz/hooligans-milwaukee?adjust_creative=a2JdNtFqB-C38ga_06BHvw&utm_campaign=yelp_api_v3&utm_medium=api_v3_business_search&utm_source=a2JdNtFqB-C38ga_06BHvw", "review_count": 113, "categories": [{"alias": "pubs", "title": "Pubs"}, {"alias": "burgers", "title": "Burgers"}], "rating": 3.5, "coordinates": {"latitude": 43.0600117918214, "longitude": -87.8850346613794}, "transactions": ["delivery"], "price": "$$", "location": {"address1": "2017 E North Ave", "address2": "", "address3": "", "city": "Milwaukee", "zip_code": "53202", "country": "US", "state": "WI", "display_address": ["2017 E North Ave", "Milwaukee, WI 53202"]}, "phone": "+14142735230", "display_phone": "(414) 273-5230", "distance": 3165.9754101981225}, {"id": "0yuakO5CzxUMZ5D62H3AXQ", "alias": "uncle-bucks-on-3rd-milwaukee-2", "name": "Uncle Bucks on 3rd", "image_url": "https://s3-media1.fl.yelpcdn.com/bphoto/D-36S8npDlhpYTFJNbC_Ng/o.jpg", "is_closed": false, "url": "https://www.yelp.com/biz/uncle-bucks-on-3rd-milwaukee-2?adjust_creative=a2JdNtFqB-C38ga_06BHvw&utm_campaign=yelp_api_v3&utm_medium=api_v3_business_search&utm_source=a2JdNtFqB-C38ga_06BHvw", "review_count": 23, "categories": [{"alias": "sportsbars", "title": "Sports Bars"}, {"alias": "tradamerican", "title": "American (Traditional)"}], "rating": 4.5, "coordinates": {"latitude": 43.04491, "longitude": -87.91487}, "transactions": [], "location": {"address1": "1125 N Old World 3rd St", "address2": null, "address3": "", "city": "Milwaukee", "zip_code": "53203", "country": "US", "state": "WI", "display_address": ["1125 N Old World 3rd St", "Milwaukee, WI 53203"]}, "phone": "+14149880355", "display_phone": "(414) 988-0355", "distance": 267.15665523589666}, {"id": "fB2dJdGbQ0SJdMZ-_xrvKw", "alias": "the-dark-room-at-saint-kate-milwaukee-2", "name": "The Dark Room at Saint Kate", "image_url": "https://s3-media3.fl.yelpcdn.com/bphoto/sVeuNduI6t-csZ8q-w5Tqg/o.jpg", "is_closed": false, "url": "https://www.yelp.com/biz/the-dark-room-at-saint-kate-milwaukee-2?adjust_creative=a2JdNtFqB-C38ga_06BHvw&utm_campaign=yelp_api_v3&utm_medium=api_v3_business_search&utm_source=a2JdNtFqB-C38ga_06BHvw", "review_count": 11, "categories": [{"alias": "wine_bars", "title": "Wine Bars"}, {"alias": "seafood", "title": "Seafood"}, {"alias": "steak", "title": "Steakhouses"}], "rating": 5.0, "coordinates": {"latitude": 43.041772, "longitude": -87.91079}, "transactions": [], "location": {"address1": "139 E Kilbourne Ave", "address2": null, "address3": "", "city": "Milwaukee", "zip_code": "53202", "country": "US", "state": "WI", "display_address": ["139 E Kilbourne Ave", "Milwaukee, WI 53202"]}, "phone": "+14144311211", "display_phone": "(414) 431-1211", "distance": 690.1035404287489}, {"id": "e48U45d4Qm37W0KAM7QX2Q", "alias": "stenys-tavern-and-grill-milwaukee", "name": "Steny's Tavern & Grill", "image_url": "https://s3-media4.fl.yelpcdn.com/bphoto/866_tDGzRUAKJkfdJTHjZA/o.jpg", "is_closed": false, "url": "https://www.yelp.com/biz/stenys-tavern-and-grill-milwaukee?adjust_creative=a2JdNtFqB-C38ga_06BHvw&utm_campaign=yelp_api_v3&utm_medium=api_v3_business_search&utm_source=a2JdNtFqB-C38ga_06BHvw", "review_count": 165, "categories": [{"alias": "pizza", "title": "Pizza"}, {"alias": "sportsbars", "title": "Sports Bars"}, {"alias": "chicken_wings", "title": "Chicken Wings"}], "rating": 3.5, "coordinates": {"latitude": 43.02304, "longitude": -87.91223}, "transactions": ["pickup", "delivery"], "price": "$$", "location": {"address1": "800 S 2nd St", "address2": "", "address3": "", "city": "Milwaukee", "zip_code": "53204", "country": "US", "state": "WI", "display_address": ["800 S 2nd St", "Milwaukee, WI 53204"]}, "phone": "+14146727139", "display_phone": "(414) 672-7139", "distance": 2493.788516928502}, {"id": "v0PkJFIEp_Jzn8-IBt1v1w", "alias": "kompali-taqueria-milwaukee", "name": "Kompali Taqueria", "image_url": "https://s3-media1.fl.yelpcdn.com/bphoto/5_tNwwkxriCpmpywq55-Xw/o.jpg", "is_closed": false, "url": "https://www.yelp.com/biz/kompali-taqueria-milwaukee?adjust_creative=a2JdNtFqB-C38ga_06BHvw&utm_campaign=yelp_api_v3&utm_medium=api_v3_business_search&utm_source=a2JdNtFqB-C38ga_06BHvw", "review_count": 99, "categories": [{"alias": "mexican", "title": "Mexican"}, {"alias": "cocktailbars", "title": "Cocktail Bars"}], "rating": 3.5, "coordinates": {"latitude": 43.05272, "longitude": -87.89648}, "transactions": ["delivery"], "price": "$$", "location": {"address1": "1205 E Brady St", "address2": "", "address3": null, "city": "Milwaukee", "zip_code": "53202", "country": "US", "state": "WI", "display_address": ["1205 E Brady St", "Milwaukee, WI 53202"]}, "phone": "+14142103010", "display_phone": "(414) 210-3010", "distance": 1953.3179883816695}, {"id": "Ahe23opyXKnGWqKh7MWeMg", "alias": "aperitivo-milwaukee", "name": "Aperitivo", "image_url": "https://s3-media3.fl.yelpcdn.com/bphoto/RO5th0jjQlNiPBWtlHgz4Q/o.jpg", "is_closed": false, "url": "https://www.yelp.com/biz/aperitivo-milwaukee?adjust_creative=a2JdNtFqB-C38ga_06BHvw&utm_campaign=yelp_api_v3&utm_medium=api_v3_business_search&utm_source=a2JdNtFqB-C38ga_06BHvw", "review_count": 12, "categories": [{"alias": "wine_bars", "title": "Wine Bars"}, {"alias": "tapasmallplates", "title": "Tapas/Small Plates"}, {"alias": "cocktailbars", "title": "Cocktail Bars"}], "rating": 5.0, "coordinates": {"latitude": 43.034045, "longitude": -87.91201883}, "transactions": ["delivery"], "location": {"address1": "311 N Plankinton Ave", "address2": null, "address3": null, "city": "Milwaukee", "zip_code": "53203", "country": "US", "state": "WI", "display_address": ["311 N Plankinton Ave", "Milwaukee, WI 53203"]}, "phone": "+14142764400", "display_phone": "(414) 276-4400", "distance": 1334.0776122338723}, {"id": "wy3zuzXNUirBMzn-qn4vfg", "alias": "miller-time-pub-and-grill-milwaukee-2", "name": "Miller Time Pub & Grill", "image_url": "https://s3-media3.fl.yelpcdn.com/bphoto/JSdn-oJqYgSUbO3jH0yHIQ/o.jpg", "is_closed": false, "url": "https://www.yelp.com/biz/miller-time-pub-and-grill-milwaukee-2?adjust_creative=a2JdNtFqB-C38ga_06BHvw&utm_campaign=yelp_api_v3&utm_medium=api_v3_business_search&utm_source=a2JdNtFqB-C38ga_06BHvw", "review_count": 273, "categories": [{"alias": "sportsbars", "title": "Sports Bars"}, {"alias": "burgers", "title": "Burgers"}, {"alias": "gastropubs", "title": "Gastropubs"}], "rating": 3.5, "coordinates": {"latitude": 43.038676, "longitude": -87.9177501}, "transactions": ["pickup", "delivery"], "price": "$$", "location": {"address1": "509 W Wisconsin Ave", "address2": null, "address3": "", "city": "Milwaukee", "zip_code": "53203", "country": "US", "state": "WI", "display_address": ["509 W Wisconsin Ave", "Milwaukee, WI 53203"]}, "phone": "+14142712337", "display_phone": "(414) 271-2337", "distance": 707.121512226177}, {"id": "Rr7rxzQ34pvE0DRoK4LOww", "alias": "the-tracks-milwaukee", "name": "The Tracks", "image_url": "https://s3-media2.fl.yelpcdn.com/bphoto/TVbkHJ8y_6xCL_09NuA2XA/o.jpg", "is_closed": false, "url": "https://www.yelp.com/biz/the-tracks-milwaukee?adjust_creative=a2JdNtFqB-C38ga_06BHvw&utm_campaign=yelp_api_v3&utm_medium=api_v3_business_search&utm_source=a2JdNtFqB-C38ga_06BHvw", "review_count": 57, "categories": [{"alias": "sportsbars", "title": "Sports Bars"}, {"alias": "tradamerican", "title": "American (Traditional)"}], "rating": 3.5, "coordinates": {"latitude": 43.0712814, "longitude": -87.8983536}, "transactions": ["delivery"], "price": "$", "location": {"address1": "1020 E Locust St", "address2": "", "address3": "", "city": "Milwaukee", "zip_code": "53212", "country": "US", "state": "WI", "display_address": ["1020 E Locust St", "Milwaukee, WI 53212"]}, "phone": "+14145622020", "display_phone": "(414) 562-2020", "distance": 3328.6992554417902}, {"id": "h1cNrgGNlMwz5pcNuCz1_A", "alias": "hi-hat-garage-milwaukee-3", "name": "Hi Hat Garage", "image_url": "https://s3-media1.fl.yelpcdn.com/bphoto/7X8IXDyVlaZueoC6vnGuhg/o.jpg", "is_closed": false, "url": "https://www.yelp.com/biz/hi-hat-garage-milwaukee-3?adjust_creative=a2JdNtFqB-C38ga_06BHvw&utm_campaign=yelp_api_v3&utm_medium=api_v3_business_search&utm_source=a2JdNtFqB-C38ga_06BHvw", "review_count": 231, "categories": [{"alias": "pubs", "title": "Pubs"}, {"alias": "breakfast_brunch", "title": "Breakfast & Brunch"}, {"alias": "burgers", "title": "Burgers"}], "rating": 3.0, "coordinates": {"latitude": 43.0532030761242, "longitude": -87.8950117528439}, "transactions": ["delivery"], "price": "$$", "location": {"address1": "1709 N Arlington Pl", "address2": "", "address3": "", "city": "Milwaukee", "zip_code": "53202", "country": "US", "state": "WI", "display_address": ["1709 N Arlington Pl", "Milwaukee, WI 53202"]}, "phone": "+14142259330", "display_phone": "(414) 225-9330", "distance": 2083.3510981667823}, {"id": "kiXKv3ErQOJFW6NGn85fVQ", "alias": "sportclub-milwaukee", "name": "SportClub", "image_url": "https://s3-media2.fl.yelpcdn.com/bphoto/calXIW69qSMecw1boXUyzw/o.jpg", "is_closed": false, "url": "https://www.yelp.com/biz/sportclub-milwaukee?adjust_creative=a2JdNtFqB-C38ga_06BHvw&utm_campaign=yelp_api_v3&utm_medium=api_v3_business_search&utm_source=a2JdNtFqB-C38ga_06BHvw", "review_count": 52, "categories": [{"alias": "sportsbars", "title": "Sports Bars"}, {"alias": "newamerican", "title": "American (New)"}], "rating": 3.5, "coordinates": {"latitude": 43.04051, "longitude": -87.90508}, "transactions": ["delivery", "pickup"], "price": "$$", "location": {"address1": "750 N Jefferson St", "address2": "", "address3": null, "city": "Milwaukee", "zip_code": "53202", "country": "US", "state": "WI", "display_address": ["750 N Jefferson St", "Milwaukee, WI 53202"]}, "phone": "+14148081588", "display_phone": "(414) 808-1588", "distance": 1168.3665202338107}, {"id": "vVEKgKwaqlasyI9JSIvp8w", "alias": "oak-and-oyster-milwaukee", "name": "Oak & Oyster", "image_url": "https://s3-media2.fl.yelpcdn.com/bphoto/NO9yKH0YacitV3wmVKw3IQ/o.jpg", "is_closed": false, "url": "https://www.yelp.com/biz/oak-and-oyster-milwaukee?adjust_creative=a2JdNtFqB-C38ga_06BHvw&utm_campaign=yelp_api_v3&utm_medium=api_v3_business_search&utm_source=a2JdNtFqB-C38ga_06BHvw", "review_count": 26, "categories": [{"alias": "seafood", "title": "Seafood"}, {"alias": "desserts", "title": "Desserts"}, {"alias": "wine_bars", "title": "Wine Bars"}], "rating": 4.0, "coordinates": {"latitude": 43.0393707452548, "longitude": -87.9062990918426}, "transactions": ["delivery"], "price": "$$", "location": {"address1": "724 N Milwaukee St", "address2": "", "address3": "Third Coast Provisions", "city": "Milwaukee", "zip_code": "53202", "country": "US", "state": "WI", "display_address": ["724 N Milwaukee St", "Third Coast Provisions", "Milwaukee, WI 53202"]}, "phone": "+14143237434", "display_phone": "(414) 323-7434", "distance": 1151.4820115307914}, {"id": "UGfDKuaj-km1PpcrAgO-aA", "alias": "victors-cocktail-lounge-and-restaurant-milwaukee", "name": "Victor's Cocktail Lounge & Restaurant", "image_url": "https://s3-media3.fl.yelpcdn.com/bphoto/78zY0xpn1q1Qw9mQADX9Uw/o.jpg", "is_closed": false, "url": "https://www.yelp.com/biz/victors-cocktail-lounge-and-restaurant-milwaukee?adjust_creative=a2JdNtFqB-C38ga_06BHvw&utm_campaign=yelp_api_v3&utm_medium=api_v3_business_search&utm_source=a2JdNtFqB-C38ga_06BHvw", "review_count": 100, "categories": [{"alias": "newamerican", "title": "American (New)"}, {"alias": "danceclubs", "title": "Dance Clubs"}, {"alias": "sportsbars", "title": "Sports Bars"}], "rating": 3.5, "coordinates": {"latitude": 43.046428064938, "longitude": -87.903244377651}, "transactions": [], "price": "$$", "location": {"address1": "1230 N Van Buren St", "address2": "", "address3": "", "city": "Milwaukee", "zip_code": "53202", "country": "US", "state": "WI", "display_address": ["1230 N Van Buren St", "Milwaukee, WI 53202"]}, "phone": "+14142722522", "display_phone": "(414) 272-2522", "distance": 1222.5971326999268}, {"id": "yYG5YkggzQKlHXQqxZ_PCA", "alias": "major-goolsbys-milwaukee-2", "name": "Major Goolsby's", "image_url": "https://s3-media2.fl.yelpcdn.com/bphoto/JEnDbqGZt2a9r-2uWsqE6Q/o.jpg", "is_closed": false, "url": "https://www.yelp.com/biz/major-goolsbys-milwaukee-2?adjust_creative=a2JdNtFqB-C38ga_06BHvw&utm_campaign=yelp_api_v3&utm_medium=api_v3_business_search&utm_source=a2JdNtFqB-C38ga_06BHvw", "review_count": 122, "categories": [{"alias": "sportsbars", "title": "Sports Bars"}, {"alias": "newamerican", "title": "American (New)"}, {"alias": "sandwiches", "title": "Sandwiches"}], "rating": 3.0, "coordinates": {"latitude": 43.041728352219, "longitude": -87.915797282319}, "transactions": ["delivery", "pickup"], "price": "$$", "location": {"address1": "340 W Kilbourn Ave", "address2": "", "address3": "", "city": "Milwaukee", "zip_code": "53203", "country": "US", "state": "WI", "display_address": ["340 W Kilbourn Ave", "Milwaukee, WI 53203"]}, "phone": "+14142713414", "display_phone": "(414) 271-3414", "distance": 414.37151805792126}, {"id": "wJ5TxcoqgX4r4-odrjkBjg", "alias": "jacks-american-pub-milwaukee", "name": "Jack's American Pub", "image_url": "https://s3-media1.fl.yelpcdn.com/bphoto/dthE2hPFq8aucvvn7dCj6g/o.jpg", "is_closed": false, "url": "https://www.yelp.com/biz/jacks-american-pub-milwaukee?adjust_creative=a2JdNtFqB-C38ga_06BHvw&utm_campaign=yelp_api_v3&utm_medium=api_v3_business_search&utm_source=a2JdNtFqB-C38ga_06BHvw", "review_count": 109, "categories": [{"alias": "newamerican", "title": "American (New)"}, {"alias": "pubs", "title": "Pubs"}], "rating": 3.0, "coordinates": {"latitude": 43.05274, "longitude": -87.8946734592319}, "transactions": ["delivery", "pickup"], "price": "$$", "location": {"address1": "1323 E Brady St", "address2": "", "address3": "", "city": "Milwaukee", "zip_code": "53202", "country": "US", "state": "WI", "display_address": ["1323 E Brady St", "Milwaukee, WI 53202"]}, "phone": "+14147632830", "display_phone": "(414) 763-2830", "distance": 2092.795188355164}, {"id": "drHXKa6t5NXoXZ-SS__0eQ", "alias": "hi-hat-lounge-milwaukee-2", "name": "Hi Hat Lounge", "image_url": "https://s3-media2.fl.yelpcdn.com/bphoto/ibRNx8msRVWsnxf1HDtheQ/o.jpg", "is_closed": false, "url": "https://www.yelp.com/biz/hi-hat-lounge-milwaukee-2?adjust_creative=a2JdNtFqB-C38ga_06BHvw&utm_campaign=yelp_api_v3&utm_medium=api_v3_business_search&utm_source=a2JdNtFqB-C38ga_06BHvw", "review_count": 76, "categories": [{"alias": "lounges", "title": "Lounges"}, {"alias": "newamerican", "title": "American (New)"}, {"alias": "cocktailbars", "title": "Cocktail Bars"}], "rating": 3.5, "coordinates": {"latitude": 43.053036, "longitude": -87.895131}, "transactions": ["delivery"], "price": "$$", "location": {"address1": "1701 N Arlington Pl", "address2": "", "address3": "", "city": "Milwaukee", "zip_code": "53202", "country": "US", "state": "WI", "display_address": ["1701 N Arlington Pl", "Milwaukee, WI 53202"]}, "phone": "+14142259330", "display_phone": "(414) 225-9330", "distance": 2072.8574192467154}, {"id": "5SB3qKH51F6i2BRpZRJwKg", "alias": "red-rock-saloon-milwaukee", "name": "Red Rock Saloon", "image_url": "https://s3-media2.fl.yelpcdn.com/bphoto/iqS6rIxw8gTx6vDFrg-Tew/o.jpg", "is_closed": false, "url": "https://www.yelp.com/biz/red-rock-saloon-milwaukee?adjust_creative=a2JdNtFqB-C38ga_06BHvw&utm_campaign=yelp_api_v3&utm_medium=api_v3_business_search&utm_source=a2JdNtFqB-C38ga_06BHvw", "review_count": 132, "categories": [{"alias": "pubs", "title": "Pubs"}, {"alias": "bbq", "title": "Barbeque"}, {"alias": "musicvenues", "title": "Music Venues"}], "rating": 3.0, "coordinates": {"latitude": 43.0463244, "longitude": -87.9112925}, "transactions": ["delivery", "pickup"], "price": "$$", "location": {"address1": "1227 N Water St", "address2": "", "address3": "", "city": "Milwaukee", "zip_code": "53202", "country": "US", "state": "WI", "display_address": ["1227 N Water St", "Milwaukee, WI 53202"]}, "phone": "+14144310467", "display_phone": "(414) 431-0467", "distance": 576.9365163911754}, {"id": "dt3l2kP228QBfgFPvlE7gA", "alias": "the-loaded-slate-milwaukee", "name": "The Loaded Slate", "image_url": "https://s3-media4.fl.yelpcdn.com/bphoto/5wYsCZ7dnBYJ86o6jeOojw/o.jpg", "is_closed": false, "url": "https://www.yelp.com/biz/the-loaded-slate-milwaukee?adjust_creative=a2JdNtFqB-C38ga_06BHvw&utm_campaign=yelp_api_v3&utm_medium=api_v3_business_search&utm_source=a2JdNtFqB-C38ga_06BHvw", "review_count": 98, "categories": [{"alias": "pubs", "title": "Pubs"}, {"alias": "breakfast_brunch", "title": "Breakfast & Brunch"}, {"alias": "tradamerican", "title": "American (Traditional)"}], "rating": 3.0, "coordinates": {"latitude": 43.0451841, "longitude": -87.9146170208457}, "transactions": ["delivery", "pickup"], "price": "$$", "location": {"address1": "1137 N Old World 3rd St", "address2": "", "address3": null, "city": "Milwaukee", "zip_code": "53203", "country": "US", "state": "WI", "display_address": ["1137 N Old World 3rd St", "Milwaukee, WI 53203"]}, "phone": "+14142735700", "display_phone": "(414) 273-5700", "distance": 289.0036891855039}, {"id": "fV-92feSt08D_Wke8VBcAQ", "alias": "jewels-caribbean-bar-and-restaurant-milwaukee", "name": "Jewels Caribbean Bar & Restaurant", "image_url": "https://s3-media4.fl.yelpcdn.com/bphoto/pVJ4BwGPXby2Vo0yS4ZKAA/o.jpg", "is_closed": false, "url": "https://www.yelp.com/biz/jewels-caribbean-bar-and-restaurant-milwaukee?adjust_creative=a2JdNtFqB-C38ga_06BHvw&utm_campaign=yelp_api_v3&utm_medium=api_v3_business_search&utm_source=a2JdNtFqB-C38ga_06BHvw", "review_count": 7, "categories": [{"alias": "caribbean", "title": "Caribbean"}, {"alias": "cocktailbars", "title": "Cocktail Bars"}], "rating": 4.5, "coordinates": {"latitude": 43.0600267, "longitude": -87.9139651}, "transactions": ["delivery", "pickup"], "location": {"address1": "2230 N Dr Martin Luther King Jr Dr", "address2": null, "address3": "", "city": "Milwaukee", "zip_code": "53212", "country": "US", "state": "WI", "display_address": ["2230 N Dr Martin Luther King Jr Dr", "Milwaukee, WI 53212"]}, "phone": "+14145850678", "display_phone": "(414) 585-0678", "distance": 1684.2500119370256}, {"id": "Y8EDrfSSAxuDb6weYfRzAg", "alias": "skybox-sports-bar-milwaukee", "name": "Skybox Sports Bar", "image_url": "https://s3-media3.fl.yelpcdn.com/bphoto/6qyEQkOWfTzOngL78jEP9A/o.jpg", "is_closed": false, "url": "https://www.yelp.com/biz/skybox-sports-bar-milwaukee?adjust_creative=a2JdNtFqB-C38ga_06BHvw&utm_campaign=yelp_api_v3&utm_medium=api_v3_business_search&utm_source=a2JdNtFqB-C38ga_06BHvw", "review_count": 19, "categories": [{"alias": "chicken_wings", "title": "Chicken Wings"}, {"alias": "sportsbars", "title": "Sports Bars"}, {"alias": "sandwiches", "title": "Sandwiches"}], "rating": 3.5, "coordinates": {"latitude": 43.059448, "longitude": -87.914604}, "transactions": ["delivery", "pickup"], "price": "$$", "location": {"address1": "2213 N Mlk Dr", "address2": "", "address3": "", "city": "Milwaukee", "zip_code": "53212", "country": "US", "state": "WI", "display_address": ["2213 N Mlk Dr", "Milwaukee, WI 53212"]}, "phone": "+14148100763", "display_phone": "(414) 810-0763", "distance": 1631.0076568426507}, {"id": "QhtvleGw1hD16yo5z2Jhew", "alias": "fluid-milwaukee", "name": "Fluid", "image_url": "https://s3-media3.fl.yelpcdn.com/bphoto/IQGBWkNnl80HEengT4KCMg/o.jpg", "is_closed": false, "url": "https://www.yelp.com/biz/fluid-milwaukee?adjust_creative=a2JdNtFqB-C38ga_06BHvw&utm_campaign=yelp_api_v3&utm_medium=api_v3_business_search&utm_source=a2JdNtFqB-C38ga_06BHvw", "review_count": 19, "categories": [{"alias": "pubs", "title": "Pubs"}, {"alias": "tradamerican", "title": "American (Traditional)"}], "rating": 3.5, "coordinates": {"latitude": 43.0226707, "longitude": -87.9128494}, "transactions": [], "price": "$", "location": {"address1": "819 S 2nd St", "address2": "", "address3": "", "city": "Milwaukee", "zip_code": "53204", "country": "US", "state": "WI", "display_address": ["819 S 2nd St", "Milwaukee, WI 53204"]}, "phone": "+14146435843", "display_phone": "(414) 643-5843", "distance": 2514.986612890707}, {"id": "FubuKyH6bYzGlJOEwQaQtA", "alias": "trinity-three-irish-pubs-milwaukee", "name": "Trinity Three Irish Pubs", "image_url": "https://s3-media2.fl.yelpcdn.com/bphoto/zsdp_YhoLasONKvjZ_i-5w/o.jpg", "is_closed": false, "url": "https://www.yelp.com/biz/trinity-three-irish-pubs-milwaukee?adjust_creative=a2JdNtFqB-C38ga_06BHvw&utm_campaign=yelp_api_v3&utm_medium=api_v3_business_search&utm_source=a2JdNtFqB-C38ga_06BHvw", "review_count": 101, "categories": [{"alias": "irish", "title": "Irish"}, {"alias": "pubs", "title": "Pubs"}], "rating": 2.5, "coordinates": {"latitude": 43.0455117, "longitude": -87.912016}, "transactions": ["delivery"], "price": "$$", "location": {"address1": "125 E Juneau Ave", "address2": "", "address3": "", "city": "Milwaukee", "zip_code": "53202", "country": "US", "state": "WI", "display_address": ["125 E Juneau Ave", "Milwaukee, WI 53202"]}, "phone": "+14142787033", "display_phone": "(414) 278-7033", "distance": 502.9905012485007}, {"id": "4cTxIPWzkdCRpgLv0yjEVQ", "alias": "knights-bar-at-maders-milwaukee", "name": "Knight's Bar At Maders", "image_url": "https://s3-media2.fl.yelpcdn.com/bphoto/woa-8mbAH1hHUk_IxMpPkw/o.jpg", "is_closed": false, "url": "https://www.yelp.com/biz/knights-bar-at-maders-milwaukee?adjust_creative=a2JdNtFqB-C38ga_06BHvw&utm_campaign=yelp_api_v3&utm_medium=api_v3_business_search&utm_source=a2JdNtFqB-C38ga_06BHvw", "review_count": 20, "categories": [{"alias": "german", "title": "German"}, {"alias": "pubs", "title": "Pubs"}], "rating": 3.5, "coordinates": {"latitude": 43.0434946, "longitude": -87.9146286}, "transactions": [], "price": "$$", "location": {"address1": "1041 N Old World 3rd St", "address2": "", "address3": "", "city": "Milwaukee", "zip_code": "53203", "country": "US", "state": "WI", "display_address": ["1041 N Old World 3rd St", "Milwaukee, WI 53203"]}, "phone": "+14142713377", "display_phone": "(414) 271-3377", "distance": 296.0531573177481}, {"id": "mrzA3k5Ep34KWuJu92IO_g", "alias": "snifters-tapas-and-spirits-milwaukee", "name": "Snifters Tapas & Spirits", "image_url": "https://s3-media2.fl.yelpcdn.com/bphoto/L9_b7sLy-00fGUeFcZjbxg/o.jpg", "is_closed": false, "url": "https://www.yelp.com/biz/snifters-tapas-and-spirits-milwaukee?adjust_creative=a2JdNtFqB-C38ga_06BHvw&utm_campaign=yelp_api_v3&utm_medium=api_v3_business_search&utm_source=a2JdNtFqB-C38ga_06BHvw", "review_count": 13, "categories": [{"alias": "tapasmallplates", "title": "Tapas/Small Plates"}, {"alias": "cocktailbars", "title": "Cocktail Bars"}, {"alias": "whiskeybars", "title": "Whiskey Bars"}], "rating": 3.5, "coordinates": {"latitude": 43.02501, "longitude": -87.91651}, "transactions": ["delivery"], "price": "$$", "location": {"address1": "606 S 5th St", "address2": null, "address3": "", "city": "Milwaukee", "zip_code": "53204", "country": "US", "state": "WI", "display_address": ["606 S 5th St", "Milwaukee, WI 53204"]}, "phone": "+14146350882", "display_phone": "(414) 635-0882", "distance": 2229.586257868332}, {"id": "6Ba64PMo_wBq5Ryoh0n_Pg", "alias": "the-fire-pit-sports-bar-and-grill-milwaukee", "name": "The Fire Pit Sports Bar & Grill", "image_url": "https://s3-media3.fl.yelpcdn.com/bphoto/SHzsYp6WcaaJ68GupX49Qw/o.jpg", "is_closed": false, "url": "https://www.yelp.com/biz/the-fire-pit-sports-bar-and-grill-milwaukee?adjust_creative=a2JdNtFqB-C38ga_06BHvw&utm_campaign=yelp_api_v3&utm_medium=api_v3_business_search&utm_source=a2JdNtFqB-C38ga_06BHvw", "review_count": 43, "categories": [{"alias": "tradamerican", "title": "American (Traditional)"}, {"alias": "burgers", "title": "Burgers"}, {"alias": "sportsbars", "title": "Sports Bars"}], "rating": 3.0, "coordinates": {"latitude": 43.0302076007274, "longitude": -87.9357125462979}, "transactions": ["delivery"], "price": "$$", "location": {"address1": "1721 W Canal St", "address2": null, "address3": "", "city": "Milwaukee", "zip_code": "53223", "country": "US", "state": "WI", "display_address": ["1721 W Canal St", "Milwaukee, WI 53223"]}, "phone": "+14148477993", "display_phone": "(414) 847-7993", "distance": 2179.2559590825626}, {"id": "j_-2CbyL7dkFcK1C5NIKLg", "alias": "buffalo-wild-wings-milwaukee-3", "name": "Buffalo Wild Wings", "image_url": "https://s3-media3.fl.yelpcdn.com/bphoto/iS2VmqkVs682Pm24UCzpzg/o.jpg", "is_closed": false, "url": "https://www.yelp.com/biz/buffalo-wild-wings-milwaukee-3?adjust_creative=a2JdNtFqB-C38ga_06BHvw&utm_campaign=yelp_api_v3&utm_medium=api_v3_business_search&utm_source=a2JdNtFqB-C38ga_06BHvw", "review_count": 109, "categories": [{"alias": "chicken_wings", "title": "Chicken Wings"}, {"alias": "tradamerican", "title": "American (Traditional)"}, {"alias": "sportsbars", "title": "Sports Bars"}], "rating": 2.0, "coordinates": {"latitude": 43.0451807925708, "longitude": -87.9113249480724}, "transactions": ["delivery"], "price": "$$", "location": {"address1": "1123 N Water St", "address2": "", "address3": "", "city": "Milwaukee", "zip_code": "53202", "country": "US", "state": "WI", "display_address": ["1123 N Water St", "Milwaukee, WI 53202"]}, "phone": "+14142770293", "display_phone": "(414) 277-0293", "distance": 556.265230325978}, {"id": "lgn_7pPeoBvlzEDmqI75WQ", "alias": "w-xyz-bar-milwaukee", "name": "W XYZ Bar", "image_url": "https://s3-media1.fl.yelpcdn.com/bphoto/3Np5PavEQ5feL20GxsL20w/o.jpg", "is_closed": false, "url": "https://www.yelp.com/biz/w-xyz-bar-milwaukee?adjust_creative=a2JdNtFqB-C38ga_06BHvw&utm_campaign=yelp_api_v3&utm_medium=api_v3_business_search&utm_source=a2JdNtFqB-C38ga_06BHvw", "review_count": 4, "categories": [{"alias": "venues", "title": "Venues & Event Spaces"}, {"alias": "tapasmallplates", "title": "Tapas/Small Plates"}, {"alias": "cocktailbars", "title": "Cocktail Bars"}], "rating": 3.5, "coordinates": {"latitude": 43.0460331, "longitude": -87.9142951}, "transactions": [], "location": {"address1": "1230 Old World Third St", "address2": "Aloft Milwaukee Downtown", "address3": "", "city": "Milwaukee", "zip_code": "53212", "country": "US", "state": "WI", "display_address": ["1230 Old World Third St", "Aloft Milwaukee Downtown", "Milwaukee, WI 53212"]}, "phone": "+14142260122", "display_phone": "(414) 226-0122", "distance": 346.17149622009475}, {"id": "GEl2HIAj9iDq9JI1CrsD0g", "alias": "deer-camp-mke-milwaukee", "name": "Deer Camp MKE", "image_url": "https://s3-media1.fl.yelpcdn.com/bphoto/gkiu70oFbrZ3rBDjlAkZng/o.jpg", "is_closed": false, "url": "https://www.yelp.com/biz/deer-camp-mke-milwaukee?adjust_creative=a2JdNtFqB-C38ga_06BHvw&utm_campaign=yelp_api_v3&utm_medium=api_v3_business_search&utm_source=a2JdNtFqB-C38ga_06BHvw", "review_count": 5, "categories": [{"alias": "sportsbars", "title": "Sports Bars"}, {"alias": "chicken_wings", "title": "Chicken Wings"}, {"alias": "pizza", "title": "Pizza"}], "rating": 3.0, "coordinates": {"latitude": 43.04352, "longitude": -87.91488}, "transactions": [], "location": {"address1": "1023 N Old World 3rd St", "address2": "", "address3": null, "city": "Milwaukee", "zip_code": "53203", "country": "US", "state": "WI", "display_address": ["1023 N Old World 3rd St", "Milwaukee, WI 53203"]}, "phone": "+14143169900", "display_phone": "(414) 316-9900", "distance": 312.4773547495585}, {"id": "yK7VtVV_E0QjydFJ0xx-Wg", "alias": "east-end-wine-bar-milwaukee", "name": "East End Wine Bar", "image_url": "https://s3-media2.fl.yelpcdn.com/bphoto/BFuSOmMAl4iaTTFhNJiC4A/o.jpg", "is_closed": false, "url": "https://www.yelp.com/biz/east-end-wine-bar-milwaukee?adjust_creative=a2JdNtFqB-C38ga_06BHvw&utm_campaign=yelp_api_v3&utm_medium=api_v3_business_search&utm_source=a2JdNtFqB-C38ga_06BHvw", "review_count": 3, "categories": [{"alias": "wine_bars", "title": "Wine Bars"}, {"alias": "cafes", "title": "Cafes"}, {"alias": "coffee", "title": "Coffee & Tea"}], "rating": 3.5, "coordinates": {"latitude": 43.0374928, "longitude": -87.8972081}, "transactions": [], "location": {"address1": "700 N Art Museum Dr", "address2": "", "address3": "Milwaukee Art Museum", "city": "Milwaukee", "zip_code": "53202", "country": "US", "state": "WI", "display_address": ["700 N Art Museum Dr", "Milwaukee Art Museum", "Milwaukee, WI 53202"]}, "phone": "+14142243200", "display_phone": "(414) 224-3200", "distance": 1800.594247288488}, {"id": "pki9635N7vqFFrRwRNGd6A", "alias": "bar-333-milwaukee", "name": "Bar 333", "image_url": "https://s3-media3.fl.yelpcdn.com/bphoto/SGplM7JHTggaAKc3_0mwOw/o.jpg", "is_closed": false, "url": "https://www.yelp.com/biz/bar-333-milwaukee?adjust_creative=a2JdNtFqB-C38ga_06BHvw&utm_campaign=yelp_api_v3&utm_medium=api_v3_business_search&utm_source=a2JdNtFqB-C38ga_06BHvw", "review_count": 1, "categories": [{"alias": "tradamerican", "title": "American (Traditional)"}, {"alias": "beerbar", "title": "Beer Bar"}, {"alias": "cocktailbars", "title": "Cocktail Bars"}], "rating": 2.0, "coordinates": {"latitude": 43.040943145752, "longitude": -87.9151382446289}, "transactions": [], "location": {"address1": "333 W Kilbourn Ave", "address2": "", "address3": "", "city": "Milwaukee", "zip_code": "53203", "country": "US", "state": "WI", "display_address": ["333 W Kilbourn Ave", "Milwaukee, WI 53203"]}, "phone": "+14142763331", "display_phone": "(414) 276-3331", "distance": 481.82423542360834}], "absolute total": 60, "total": 60}