{"league": "MLS", "team": "Minnesota United FC", "stadium": "Allianz Field", "stadium latitude": 44.952778, "stadium longitude": -93.165, "radius": "3000 meters", "city": "Saint Paul", "state": "Minnesota", "businesses": [{"id": "AMuLZgZCWHZmjtILfWqaww", "alias": "skinners-pub-and-eatery-saint-paul", "name": "Skinners Pub & Eatery", "image_url": "https://s3-media1.fl.yelpcdn.com/bphoto/NIWmvQCFoJqAvcarUlBKYw/o.jpg", "is_closed": false, "url": "https://www.yelp.com/biz/skinners-pub-and-eatery-saint-paul?adjust_creative=a2JdNtFqB-C38ga_06BHvw&utm_campaign=yelp_api_v3&utm_medium=api_v3_business_search&utm_source=a2JdNtFqB-C38ga_06BHvw", "review_count": 102, "categories": [{"alias": "pubs", "title": "Pubs"}, {"alias": "pizza", "title": "Pizza"}, {"alias": "tradamerican", "title": "American (Traditional)"}], "rating": 4.5, "coordinates": {"latitude": 44.92714, "longitude": -93.1387}, "transactions": ["delivery"], "price": "$", "location": {"address1": "919 Randolph Ave", "address2": "", "address3": "", "city": "Saint Paul", "zip_code": "55102", "country": "US", "state": "MN", "display_address": ["919 Randolph Ave", "Saint Paul, MN 55102"]}, "phone": "+16512280146", "display_phone": "(651) 228-0146", "distance": 3524.5621131561006}, {"id": "G0EVYeOpY0ePjhCfaZl9kg", "alias": "bap-and-chicken-saint-paul", "name": "Bap And Chicken", "image_url": "https://s3-media3.fl.yelpcdn.com/bphoto/UIWFWvy6zyxIJ40wiyiLpA/o.jpg", "is_closed": false, "url": "https://www.yelp.com/biz/bap-and-chicken-saint-paul?adjust_creative=a2JdNtFqB-C38ga_06BHvw&utm_campaign=yelp_api_v3&utm_medium=api_v3_business_search&utm_source=a2JdNtFqB-C38ga_06BHvw", "review_count": 118, "categories": [{"alias": "korean", "title": "Korean"}, {"alias": "chickenshop", "title": "Chicken Shop"}, {"alias": "wine_bars", "title": "Wine Bars"}], "rating": 4.0, "coordinates": {"latitude": 44.93992, "longitude": -93.15632667}, "transactions": ["delivery", "pickup"], "price": "$$", "location": {"address1": "1328 Grand Ave", "address2": null, "address3": "", "city": "Saint Paul", "zip_code": "55105", "country": "US", "state": "MN", "display_address": ["1328 Grand Ave", "Saint Paul, MN 55105"]}, "phone": "+16513330929", "display_phone": "(651) 333-0929", "distance": 1595.6052430262498}, {"id": "0-pMhLXkQYypjj8d-iv_Zw", "alias": "due-focacceria-saint-paul", "name": "Due Focacceria", "image_url": "https://s3-media1.fl.yelpcdn.com/bphoto/kNvd8ePAY20UeoLMIADZmA/o.jpg", "is_closed": false, "url": "https://www.yelp.com/biz/due-focacceria-saint-paul?adjust_creative=a2JdNtFqB-C38ga_06BHvw&utm_campaign=yelp_api_v3&utm_medium=api_v3_business_search&utm_source=a2JdNtFqB-C38ga_06BHvw", "review_count": 54, "categories": [{"alias": "cocktailbars", "title": "Cocktail Bars"}, {"alias": "cafes", "title": "Cafes"}, {"alias": "italian", "title": "Italian"}], "rating": 4.0, "coordinates": {"latitude": 44.9273, "longitude": -93.17748}, "transactions": ["delivery"], "price": "$$", "location": {"address1": "475 Fairview Ave S", "address2": null, "address3": "", "city": "Saint Paul", "zip_code": "55105", "country": "US", "state": "MN", "display_address": ["475 Fairview Ave S", "Saint Paul, MN 55105"]}, "phone": "+16514938858", "display_phone": "(651) 493-8858", "distance": 2998.042044213803}, {"id": "n8DS5Aif6HQMN85KxYtT-A", "alias": "tavern-on-grand-saint-paul", "name": "Tavern On Grand", "image_url": "https://s3-media2.fl.yelpcdn.com/bphoto/aa1bypg6OYdl2qGVquuRGQ/o.jpg", "is_closed": false, "url": "https://www.yelp.com/biz/tavern-on-grand-saint-paul?adjust_creative=a2JdNtFqB-C38ga_06BHvw&utm_campaign=yelp_api_v3&utm_medium=api_v3_business_search&utm_source=a2JdNtFqB-C38ga_06BHvw", "review_count": 160, "categories": [{"alias": "pubs", "title": "Pubs"}, {"alias": "tradamerican", "title": "American (Traditional)"}], "rating": 4.0, "coordinates": {"latitude": 44.9397807, "longitude": -93.1276223}, "transactions": ["delivery", "pickup"], "price": "$$", "location": {"address1": "656 Grand Ave", "address2": "", "address3": "", "city": "Saint Paul", "zip_code": "55105", "country": "US", "state": "MN", "display_address": ["656 Grand Ave", "Saint Paul, MN 55105"]}, "phone": "+16512289030", "display_phone": "(651) 228-9030", "distance": 3271.4923098427553}, {"id": "JCvFDlpPOGvYI_HQVsgcaw", "alias": "saji-ya-saint-paul", "name": "Saji-Ya", "image_url": "https://s3-media4.fl.yelpcdn.com/bphoto/k8pxfNa-zMFp60ucl063Mw/o.jpg", "is_closed": false, "url": "https://www.yelp.com/biz/saji-ya-saint-paul?adjust_creative=a2JdNtFqB-C38ga_06BHvw&utm_campaign=yelp_api_v3&utm_medium=api_v3_business_search&utm_source=a2JdNtFqB-C38ga_06BHvw", "review_count": 163, "categories": [{"alias": "japanese", "title": "Japanese"}, {"alias": "sushi", "title": "Sushi Bars"}, {"alias": "cocktailbars", "title": "Cocktail Bars"}], "rating": 3.5, "coordinates": {"latitude": 44.94024, "longitude": -93.12933}, "transactions": ["delivery", "pickup"], "price": "$$", "location": {"address1": "695 Grand Ave", "address2": "", "address3": "", "city": "Saint Paul", "zip_code": "55105", "country": "US", "state": "MN", "display_address": ["695 Grand Ave", "Saint Paul, MN 55105"]}, "phone": "+16512920444", "display_phone": "(651) 292-0444", "distance": 3114.9712288528585}, {"id": "dQLZ1yutkYdVT80w9T99nw", "alias": "ngon-vietnamese-bistro-saint-paul-2", "name": "Ngon Vietnamese Bistro", "image_url": "https://s3-media4.fl.yelpcdn.com/bphoto/5dVwkVn5sLwopXvJvNyZsQ/o.jpg", "is_closed": false, "url": "https://www.yelp.com/biz/ngon-vietnamese-bistro-saint-paul-2?adjust_creative=a2JdNtFqB-C38ga_06BHvw&utm_campaign=yelp_api_v3&utm_medium=api_v3_business_search&utm_source=a2JdNtFqB-C38ga_06BHvw", "review_count": 289, "categories": [{"alias": "vietnamese", "title": "Vietnamese"}, {"alias": "cocktailbars", "title": "Cocktail Bars"}], "rating": 3.5, "coordinates": {"latitude": 44.95594098333, "longitude": -93.133800941085}, "transactions": ["delivery"], "price": "$$", "location": {"address1": "799 University Ave", "address2": "", "address3": "", "city": "Saint Paul", "zip_code": "55104", "country": "US", "state": "MN", "display_address": ["799 University Ave", "Saint Paul, MN 55104"]}, "phone": "+16512223301", "display_phone": "(651) 222-3301", "distance": 2480.0940096887052}, {"id": "PiTZvSh4qQVPiN8HAo6NkQ", "alias": "chips-clubhouse-saint-paul", "name": "Chips Clubhouse", "image_url": "https://s3-media2.fl.yelpcdn.com/bphoto/oshSA26Er_r4Obxa1jW07w/o.jpg", "is_closed": false, "url": "https://www.yelp.com/biz/chips-clubhouse-saint-paul?adjust_creative=a2JdNtFqB-C38ga_06BHvw&utm_campaign=yelp_api_v3&utm_medium=api_v3_business_search&utm_source=a2JdNtFqB-C38ga_06BHvw", "review_count": 10, "categories": [{"alias": "cocktailbars", "title": "Cocktail Bars"}, {"alias": "burgers", "title": "Burgers"}], "rating": 4.5, "coordinates": {"latitude": 44.933166, "longitude": -93.166736}, "transactions": ["delivery", "pickup"], "location": {"address1": "272 Snelling Ave S", "address2": "Unit 200", "address3": null, "city": "Saint Paul", "zip_code": "55105", "country": "US", "state": "MN", "display_address": ["272 Snelling Ave S", "Unit 200", "Saint Paul, MN 55105"]}, "phone": "+16513301617", "display_phone": "(651) 330-1617", "distance": 2183.377630299329}, {"id": "I7RgCAuaJAk1fRkAokhF9Q", "alias": "st-paul-tap-saint-paul-3", "name": "St. Paul Tap", "image_url": "https://s3-media1.fl.yelpcdn.com/bphoto/QKD4-7Bm1ZNBA-1Cj0qeTw/o.jpg", "is_closed": false, "url": "https://www.yelp.com/biz/st-paul-tap-saint-paul-3?adjust_creative=a2JdNtFqB-C38ga_06BHvw&utm_campaign=yelp_api_v3&utm_medium=api_v3_business_search&utm_source=a2JdNtFqB-C38ga_06BHvw", "review_count": 49, "categories": [{"alias": "tradamerican", "title": "American (Traditional)"}, {"alias": "arcades", "title": "Arcades"}, {"alias": "sportsbars", "title": "Sports Bars"}], "rating": 3.5, "coordinates": {"latitude": 44.93092, "longitude": -93.13479}, "transactions": ["delivery", "pickup"], "price": "$$", "location": {"address1": "825 W Jefferson Ave", "address2": null, "address3": "", "city": "Saint Paul", "zip_code": "55102", "country": "US", "state": "MN", "display_address": ["825 W Jefferson Ave", "Saint Paul, MN 55102"]}, "phone": "+16512276315", "display_phone": "(651) 227-6315", "distance": 3401.9813894794684}, {"id": "IyBB_NWViDeP8N0dIv7uMA", "alias": "taste-of-rondo-bar-and-grill-saint-paul", "name": "Taste of Rondo Bar & Grill", "image_url": "https://s3-media4.fl.yelpcdn.com/bphoto/cb5YmcwPij0U-AAs4lMiKA/o.jpg", "is_closed": false, "url": "https://www.yelp.com/biz/taste-of-rondo-bar-and-grill-saint-paul?adjust_creative=a2JdNtFqB-C38ga_06BHvw&utm_campaign=yelp_api_v3&utm_medium=api_v3_business_search&utm_source=a2JdNtFqB-C38ga_06BHvw", "review_count": 20, "categories": [{"alias": "soulfood", "title": "Soul Food"}, {"alias": "sportsbars", "title": "Sports Bars"}], "rating": 3.5, "coordinates": {"latitude": 44.950996, "longitude": -93.141281}, "transactions": ["delivery", "pickup"], "location": {"address1": "976 Concordia Ave", "address2": "", "address3": null, "city": "Saint Paul", "zip_code": "55104", "country": "US", "state": "MN", "display_address": ["976 Concordia Ave", "Saint Paul, MN 55104"]}, "phone": "+16513482615", "display_phone": "(651) 348-2615", "distance": 1881.3792742736719}, {"id": "THE3IXeLW2l2Md8LbMliJw", "alias": "the-original-gabes-by-the-park-saint-paul-2", "name": "The Original Gabe's by the Park", "image_url": "https://s3-media4.fl.yelpcdn.com/bphoto/nhmwIH3KWPbh-t7qYklV_Q/o.jpg", "is_closed": false, "url": "https://www.yelp.com/biz/the-original-gabes-by-the-park-saint-paul-2?adjust_creative=a2JdNtFqB-C38ga_06BHvw&utm_campaign=yelp_api_v3&utm_medium=api_v3_business_search&utm_source=a2JdNtFqB-C38ga_06BHvw", "review_count": 109, "categories": [{"alias": "tradamerican", "title": "American (Traditional)"}, {"alias": "sportsbars", "title": "Sports Bars"}], "rating": 3.0, "coordinates": {"latitude": 44.9707287, "longitude": -93.1469547}, "transactions": ["delivery", "pickup"], "price": "$$", "location": {"address1": "991 N Lexington Pkwy", "address2": "", "address3": "", "city": "Saint Paul", "zip_code": "55103", "country": "US", "state": "MN", "display_address": ["991 N Lexington Pkwy", "Saint Paul, MN 55103"]}, "phone": "+16516463066", "display_phone": "(651) 646-3066", "distance": 2449.471402450081}, {"id": "WAmgPlpjg10GkZuQwZPp7g", "alias": "billys-on-grand-saint-paul-2", "name": "Billy's On Grand", "image_url": "https://s3-media3.fl.yelpcdn.com/bphoto/UDuguIYVzjFYkJH3jO6B-A/o.jpg", "is_closed": false, "url": "https://www.yelp.com/biz/billys-on-grand-saint-paul-2?adjust_creative=a2JdNtFqB-C38ga_06BHvw&utm_campaign=yelp_api_v3&utm_medium=api_v3_business_search&utm_source=a2JdNtFqB-C38ga_06BHvw", "review_count": 107, "categories": [{"alias": "sportsbars", "title": "Sports Bars"}, {"alias": "tradamerican", "title": "American (Traditional)"}], "rating": 2.5, "coordinates": {"latitude": 44.94027, "longitude": -93.1359499}, "transactions": ["delivery", "pickup"], "price": "$$", "location": {"address1": "857 Grand Ave", "address2": "", "address3": "", "city": "Saint Paul", "zip_code": "55105", "country": "US", "state": "MN", "display_address": ["857 Grand Ave", "Saint Paul, MN 55105"]}, "phone": "+16512929140", "display_phone": "(651) 292-9140", "distance": 2664.41079111788}, {"id": "CYPyH902s-2tRXprtkcTmg", "alias": "green-mill-restaurant-and-bar-saint-paul-7", "name": "Green Mill Restaurant & Bar", "image_url": "https://s3-media3.fl.yelpcdn.com/bphoto/SmPG33utLc5KqTC8icqYjw/o.jpg", "is_closed": false, "url": "https://www.yelp.com/biz/green-mill-restaurant-and-bar-saint-paul-7?adjust_creative=a2JdNtFqB-C38ga_06BHvw&utm_campaign=yelp_api_v3&utm_medium=api_v3_business_search&utm_source=a2JdNtFqB-C38ga_06BHvw", "review_count": 98, "categories": [{"alias": "pizza", "title": "Pizza"}, {"alias": "tradamerican", "title": "American (Traditional)"}, {"alias": "wine_bars", "title": "Wine Bars"}], "rating": 2.5, "coordinates": {"latitude": 44.93966326, "longitude": -93.15705223}, "transactions": ["delivery"], "price": "$$", "location": {"address1": "57 Hamline Ave S", "address2": "", "address3": "", "city": "Saint Paul", "zip_code": "55105", "country": "US", "state": "MN", "display_address": ["57 Hamline Ave S", "Saint Paul, MN 55105"]}, "phone": "+16516980353", "display_phone": "(651) 698-0353", "distance": 1586.7744624236398}, {"id": "2KQANrIsoL5WBPynpW3CVw", "alias": "buffalo-wild-wings-saint-paul-6", "name": "Buffalo Wild Wings", "image_url": "https://s3-media2.fl.yelpcdn.com/bphoto/eLthWrIJkoIOYLO8J1-1ag/o.jpg", "is_closed": false, "url": "https://www.yelp.com/biz/buffalo-wild-wings-saint-paul-6?adjust_creative=a2JdNtFqB-C38ga_06BHvw&utm_campaign=yelp_api_v3&utm_medium=api_v3_business_search&utm_source=a2JdNtFqB-C38ga_06BHvw", "review_count": 69, "categories": [{"alias": "chicken_wings", "title": "Chicken Wings"}, {"alias": "tradamerican", "title": "American (Traditional)"}, {"alias": "sportsbars", "title": "Sports Bars"}], "rating": 2.0, "coordinates": {"latitude": 44.943715, "longitude": -93.1659192629559}, "transactions": ["delivery"], "price": "$$", "location": {"address1": "80 N Snelling Ave", "address2": "", "address3": "", "city": "Saint Paul", "zip_code": "55104", "country": "US", "state": "MN", "display_address": ["80 N Snelling Ave", "Saint Paul, MN 55104"]}, "phone": "+16516442638", "display_phone": "(651) 644-2638", "distance": 1010.3518305188081}], "absolute total": 13, "total": 13}