{"league": "NHL", "team": "Montreal Canadiens", "stadium": "Bell Centre", "stadium latitude": 45.496111, "stadium longitude": -73.56944399999999, "radius": "3000 meters", "city": "Montreal", "state": "Quebec", "businesses": [{"id": "XI3iNUgChOfJk5ppjKVEQQ", "alias": "barroco-montréal", "name": "Barroco", "image_url": "https://s3-media1.fl.yelpcdn.com/bphoto/JD69i9M4PsbkHo-vKw7xlQ/o.jpg", "is_closed": false, "url": "https://www.yelp.com/biz/barroco-montr%C3%A9al?adjust_creative=a2JdNtFqB-C38ga_06BHvw&utm_campaign=yelp_api_v3&utm_medium=api_v3_business_search&utm_source=a2JdNtFqB-C38ga_06BHvw", "review_count": 257, "categories": [{"alias": "spanish", "title": "Spanish"}, {"alias": "french", "title": "French"}, {"alias": "cocktailbars", "title": "Cocktail Bars"}], "rating": 4.5, "coordinates": {"latitude": 45.50138, "longitude": -73.55592}, "transactions": [], "price": "$$$", "location": {"address1": "312 Rue Saint-Paul O", "address2": "", "address3": "", "city": "Montreal", "zip_code": "H2Y 2A3", "country": "CA", "state": "QC", "display_address": ["312 Rue Saint-Paul O", "Montreal, QC H2Y 2A3", "Canada"]}, "phone": "+15145445800", "display_phone": "+1 514-544-5800", "distance": 1208.0135103915807}, {"id": "3jKUbhGSjFTv5jZ0wnW0xA", "alias": "les-deux-gamins-montréal-3", "name": "Les Deux Gamins", "image_url": "https://s3-media3.fl.yelpcdn.com/bphoto/3ud5Q1t1k1M0O0s7R60GCw/o.jpg", "is_closed": false, "url": "https://www.yelp.com/biz/les-deux-gamins-montr%C3%A9al-3?adjust_creative=a2JdNtFqB-C38ga_06BHvw&utm_campaign=yelp_api_v3&utm_medium=api_v3_business_search&utm_source=a2JdNtFqB-C38ga_06BHvw", "review_count": 542, "categories": [{"alias": "french", "title": "French"}, {"alias": "wine_bars", "title": "Wine Bars"}], "rating": 4.0, "coordinates": {"latitude": 45.51545, "longitude": -73.57095}, "transactions": ["restaurant_reservation"], "price": "$$", "location": {"address1": "170 Rue Prince Arthur E", "address2": "", "address3": "", "city": "Montreal", "zip_code": "H2X 1B7", "country": "CA", "state": "QC", "display_address": ["170 Rue Prince Arthur E", "Montreal, QC H2X 1B7", "Canada"]}, "phone": "+15142883389", "display_phone": "+1 514-288-3389", "distance": 2156.090295431408}, {"id": "UZFDNlpMBnw21rhEZP9RIg", "alias": "le-lab-montréal-4", "name": "Le Lab", "image_url": "https://s3-media2.fl.yelpcdn.com/bphoto/mKAxLkWXDd0_vGXrznzvsw/o.jpg", "is_closed": false, "url": "https://www.yelp.com/biz/le-lab-montr%C3%A9al-4?adjust_creative=a2JdNtFqB-C38ga_06BHvw&utm_campaign=yelp_api_v3&utm_medium=api_v3_business_search&utm_source=a2JdNtFqB-C38ga_06BHvw", "review_count": 255, "categories": [{"alias": "cocktailbars", "title": "Cocktail Bars"}, {"alias": "tapasmallplates", "title": "Tapas/Small Plates"}], "rating": 4.5, "coordinates": {"latitude": 45.51273, "longitude": -73.56166}, "transactions": [], "price": "$$", "location": {"address1": "279 Rue Sainte-Catherine E", "address2": "", "address3": null, "city": "Montreal", "zip_code": "H2X 1L5", "country": "CA", "state": "QC", "display_address": ["279 Rue Sainte-Catherine E", "Montreal, QC H2X 1L5", "Canada"]}, "phone": "+15149036522", "display_phone": "+1 514-903-6522", "distance": 1945.0259993779146}, {"id": "IkilcGqiN3_sQk-VvnoAeg", "alias": "le-vin-papillon-montréal", "name": "Le Vin Papillon", "image_url": "https://s3-media3.fl.yelpcdn.com/bphoto/GWruS0nuBzpJer5PobXo1A/o.jpg", "is_closed": false, "url": "https://www.yelp.com/biz/le-vin-papillon-montr%C3%A9al?adjust_creative=a2JdNtFqB-C38ga_06BHvw&utm_campaign=yelp_api_v3&utm_medium=api_v3_business_search&utm_source=a2JdNtFqB-C38ga_06BHvw", "review_count": 128, "categories": [{"alias": "newcanadian", "title": "Canadian (New)"}, {"alias": "wine_bars", "title": "Wine Bars"}], "rating": 4.5, "coordinates": {"latitude": 45.48277, "longitude": -73.5754852}, "transactions": [], "price": "$$$", "location": {"address1": "2519 Rue Notre-Dame Ouest", "address2": "", "address3": "", "city": "Montreal", "zip_code": "H3J 1N4", "country": "CA", "state": "QC", "display_address": ["2519 Rue Notre-Dame Ouest", "Montreal, QC H3J 1N4", "Canada"]}, "phone": "+15144396494", "display_phone": "+1 514-439-6494", "distance": 1556.4038828948671}, {"id": "ml_Fo07EBZQ8uSSnvkZb3A", "alias": "buvette-chez-simone-montréal-3", "name": "Buvette Chez Simone", "image_url": "https://s3-media4.fl.yelpcdn.com/bphoto/yWiL8H7vQZpshc095ogdww/o.jpg", "is_closed": false, "url": "https://www.yelp.com/biz/buvette-chez-simone-montr%C3%A9al-3?adjust_creative=a2JdNtFqB-C38ga_06BHvw&utm_campaign=yelp_api_v3&utm_medium=api_v3_business_search&utm_source=a2JdNtFqB-C38ga_06BHvw", "review_count": 111, "categories": [{"alias": "wine_bars", "title": "Wine Bars"}, {"alias": "tapasmallplates", "title": "Tapas/Small Plates"}], "rating": 4.5, "coordinates": {"latitude": 45.51888, "longitude": -73.59341}, "transactions": [], "price": "$$", "location": {"address1": "4869 Avenue du Parc", "address2": "", "address3": "", "city": "Montreal", "zip_code": "H2V 4E7", "country": "CA", "state": "QC", "display_address": ["4869 Avenue du Parc", "Montreal, QC H2V 4E7", "Canada"]}, "phone": "+15147506577", "display_phone": "+1 514-750-6577", "distance": 3145.1917153436443}, {"id": "CEsh0ScOKlL3mpvjypqszA", "alias": "ichigo-ichie-montréal", "name": "Ichigo Ichie", "image_url": "https://s3-media4.fl.yelpcdn.com/bphoto/QGl2ZCpP1gjMLIMfIfyurw/o.jpg", "is_closed": false, "url": "https://www.yelp.com/biz/ichigo-ichie-montr%C3%A9al?adjust_creative=a2JdNtFqB-C38ga_06BHvw&utm_campaign=yelp_api_v3&utm_medium=api_v3_business_search&utm_source=a2JdNtFqB-C38ga_06BHvw", "review_count": 98, "categories": [{"alias": "japanese", "title": "Japanese"}, {"alias": "pubs", "title": "Pubs"}], "rating": 4.5, "coordinates": {"latitude": 45.52128, "longitude": -73.57842}, "transactions": [], "price": "$$", "location": {"address1": "360 Rue Rachel E", "address2": "", "address3": "", "city": "Montreal", "zip_code": "H2W 1E9", "country": "CA", "state": "QC", "display_address": ["360 Rue Rachel E", "Montreal, QC H2W 1E9", "Canada"]}, "phone": "+15142820009", "display_phone": "+1 514-282-0009", "distance": 2888.0001593753736}, {"id": "eLajoeeUpG6gZuICUQNMVw", "alias": "gokudo-montréal", "name": "Gokudo", "image_url": "https://s3-media3.fl.yelpcdn.com/bphoto/Y6I8cqvJL6xOUQTNh57uEg/o.jpg", "is_closed": false, "url": "https://www.yelp.com/biz/gokudo-montr%C3%A9al?adjust_creative=a2JdNtFqB-C38ga_06BHvw&utm_campaign=yelp_api_v3&utm_medium=api_v3_business_search&utm_source=a2JdNtFqB-C38ga_06BHvw", "review_count": 54, "categories": [{"alias": "cocktailbars", "title": "Cocktail Bars"}, {"alias": "japanese", "title": "Japanese"}, {"alias": "speakeasies", "title": "Speakeasies"}], "rating": 4.5, "coordinates": {"latitude": 45.50303, "longitude": -73.56838}, "transactions": [], "price": "$$", "location": {"address1": "630 Rue Cathcart", "address2": "", "address3": null, "city": "Montreal", "zip_code": "H3B 0C3", "country": "CA", "state": "QC", "display_address": ["630 Rue Cathcart", "Montreal, QC H3B 0C3", "Canada"]}, "phone": "+15143753715", "display_phone": "+1 514-375-3715", "distance": 791.2740584071361}, {"id": "1rURUVztowOl0lMoVHyNpw", "alias": "restaurant-épik-montréal-8", "name": "Restaurant Épik", "image_url": "https://s3-media2.fl.yelpcdn.com/bphoto/SAnxy5wLLsJsAV6AUDBkyg/o.jpg", "is_closed": false, "url": "https://www.yelp.com/biz/restaurant-%C3%A9pik-montr%C3%A9al-8?adjust_creative=a2JdNtFqB-C38ga_06BHvw&utm_campaign=yelp_api_v3&utm_medium=api_v3_business_search&utm_source=a2JdNtFqB-C38ga_06BHvw", "review_count": 55, "categories": [{"alias": "wine_bars", "title": "Wine Bars"}, {"alias": "italian", "title": "Italian"}, {"alias": "cocktailbars", "title": "Cocktail Bars"}], "rating": 4.5, "coordinates": {"latitude": 45.50311, "longitude": -73.55523}, "transactions": [], "price": "$$$", "location": {"address1": "171 Rue Saint-Paul O", "address2": null, "address3": "", "city": "Montreal", "zip_code": "H2Y 1Z5", "country": "CA", "state": "QC", "display_address": ["171 Rue Saint-Paul O", "Montreal, QC H2Y 1Z5", "Canada"]}, "phone": "+15148422912", "display_phone": "+1 514-842-2912", "distance": 1357.1935398801595}, {"id": "bXoRrDhojAQ1B3nGNEs7wg", "alias": "pullman-montréal-3", "name": "Pullman", "image_url": "https://s3-media2.fl.yelpcdn.com/bphoto/voX4Q-tQKvGVl1ERl_dsFQ/o.jpg", "is_closed": false, "url": "https://www.yelp.com/biz/pullman-montr%C3%A9al-3?adjust_creative=a2JdNtFqB-C38ga_06BHvw&utm_campaign=yelp_api_v3&utm_medium=api_v3_business_search&utm_source=a2JdNtFqB-C38ga_06BHvw", "review_count": 201, "categories": [{"alias": "tapasmallplates", "title": "Tapas/Small Plates"}, {"alias": "wine_bars", "title": "Wine Bars"}], "rating": 4.0, "coordinates": {"latitude": 45.50845, "longitude": -73.5721}, "transactions": [], "price": "$$", "location": {"address1": "3424 Avenue du Parc", "address2": "", "address3": "", "city": "Montreal", "zip_code": "H2X 2H5", "country": "CA", "state": "QC", "display_address": ["3424 Avenue du Parc", "Montreal, QC H2X 2H5", "Canada"]}, "phone": "+15142887779", "display_phone": "+1 514-288-7779", "distance": 1394.0983061100776}, {"id": "y32M2Hkr7GsUqGG6KwOhZw", "alias": "kinka-izakaya-montreal-montréal-15", "name": "KINKA IZAKAYA MONTREAL", "image_url": "https://s3-media4.fl.yelpcdn.com/bphoto/8JwCaciOuUpDHllshUQphg/o.jpg", "is_closed": false, "url": "https://www.yelp.com/biz/kinka-izakaya-montreal-montr%C3%A9al-15?adjust_creative=a2JdNtFqB-C38ga_06BHvw&utm_campaign=yelp_api_v3&utm_medium=api_v3_business_search&utm_source=a2JdNtFqB-C38ga_06BHvw", "review_count": 333, "categories": [{"alias": "japanese", "title": "Japanese"}, {"alias": "pubs", "title": "Pubs"}, {"alias": "tapas", "title": "Tapas Bars"}], "rating": 4.0, "coordinates": {"latitude": 45.4939720355803, "longitude": -73.5788095157423}, "transactions": [], "price": "$$", "location": {"address1": "1624 Rue Sainte-Catherine Ouest", "address2": "", "address3": "", "city": "Montreal", "zip_code": "H3H 2S7", "country": "CA", "state": "QC", "display_address": ["1624 Rue Sainte-Catherine Ouest", "Montreal, QC H3H 2S7", "Canada"]}, "phone": "+15147501624", "display_phone": "+1 514-750-1624", "distance": 767.7580494094216}, {"id": "Yx-ZtYKpmdvscPSY0UhP3w", "alias": "tiradito-montréal", "name": "Tiradito", "image_url": "https://s3-media4.fl.yelpcdn.com/bphoto/ATcji8aC-IUuBtd8C6qSSA/o.jpg", "is_closed": false, "url": "https://www.yelp.com/biz/tiradito-montr%C3%A9al?adjust_creative=a2JdNtFqB-C38ga_06BHvw&utm_campaign=yelp_api_v3&utm_medium=api_v3_business_search&utm_source=a2JdNtFqB-C38ga_06BHvw", "review_count": 120, "categories": [{"alias": "peruvian", "title": "Peruvian"}, {"alias": "cocktailbars", "title": "Cocktail Bars"}, {"alias": "asianfusion", "title": "Asian Fusion"}], "rating": 4.0, "coordinates": {"latitude": 45.50434, "longitude": -73.56348}, "transactions": [], "price": "$$$", "location": {"address1": "1076 Rue de Bleury", "address2": "", "address3": null, "city": "Montreal", "zip_code": "H2Z 1N1", "country": "CA", "state": "QC", "display_address": ["1076 Rue de Bleury", "Montreal, QC H2Z 1N1", "Canada"]}, "phone": "+15148666776", "display_phone": "+1 514-866-6776", "distance": 1045.3402281618387}, {"id": "W1LDidGfDyJIqNOxu95z0w", "alias": "jacopo-montréal-2", "name": "Jacopo", "image_url": "https://s3-media4.fl.yelpcdn.com/bphoto/W4H2QRKA6vGk_RuSuWNqmw/o.jpg", "is_closed": false, "url": "https://www.yelp.com/biz/jacopo-montr%C3%A9al-2?adjust_creative=a2JdNtFqB-C38ga_06BHvw&utm_campaign=yelp_api_v3&utm_medium=api_v3_business_search&utm_source=a2JdNtFqB-C38ga_06BHvw", "review_count": 42, "categories": [{"alias": "cocktailbars", "title": "Cocktail Bars"}, {"alias": "italian", "title": "Italian"}], "rating": 4.5, "coordinates": {"latitude": 45.50772, "longitude": -73.553255}, "transactions": [], "location": {"address1": "436 Place Jacques-Cartier", "address2": "", "address3": null, "city": "Montreal", "zip_code": "H2Y 3B3", "country": "CA", "state": "QC", "display_address": ["436 Place Jacques-Cartier", "Montreal, QC H2Y 3B3", "Canada"]}, "phone": "+15148768844", "display_phone": "+1 514-876-8844", "distance": 1805.0413184801737}, {"id": "E-HDevNTu_UIKIx8MA_RMA", "alias": "nyks-montréal-3", "name": "NYK'S", "image_url": "https://s3-media1.fl.yelpcdn.com/bphoto/6pNMHbeSlezGErrezR6nDw/o.jpg", "is_closed": false, "url": "https://www.yelp.com/biz/nyks-montr%C3%A9al-3?adjust_creative=a2JdNtFqB-C38ga_06BHvw&utm_campaign=yelp_api_v3&utm_medium=api_v3_business_search&utm_source=a2JdNtFqB-C38ga_06BHvw", "review_count": 151, "categories": [{"alias": "pubs", "title": "Pubs"}, {"alias": "burgers", "title": "Burgers"}, {"alias": "tapas", "title": "Tapas Bars"}], "rating": 4.0, "coordinates": {"latitude": 45.5060324, "longitude": -73.566685}, "transactions": [], "price": "$$", "location": {"address1": "1250 Rue de Bleury", "address2": "", "address3": "", "city": "Montreal", "zip_code": "H3B 2W4", "country": "CA", "state": "QC", "display_address": ["1250 Rue de Bleury", "Montreal, QC H3B 2W4", "Canada"]}, "phone": "+15148661787", "display_phone": "+1 514-866-1787", "distance": 1123.9680037820356}, {"id": "o05HPzyrpcguxH9AL1Knvw", "alias": "pub-burgundy-lion-montréal-3", "name": "Pub Burgundy Lion", "image_url": "https://s3-media3.fl.yelpcdn.com/bphoto/XtdeHXyUK8z4T8-EBOpbfg/o.jpg", "is_closed": false, "url": "https://www.yelp.com/biz/pub-burgundy-lion-montr%C3%A9al-3?adjust_creative=a2JdNtFqB-C38ga_06BHvw&utm_campaign=yelp_api_v3&utm_medium=api_v3_business_search&utm_source=a2JdNtFqB-C38ga_06BHvw", "review_count": 222, "categories": [{"alias": "british", "title": "British"}, {"alias": "pubs", "title": "Pubs"}, {"alias": "sportsbars", "title": "Sports Bars"}], "rating": 4.0, "coordinates": {"latitude": 45.482768, "longitude": -73.575219}, "transactions": [], "price": "$$", "location": {"address1": "2496 Rue Notre-Dame O", "address2": "", "address3": null, "city": "Montreal", "zip_code": "H3J 1N5", "country": "CA", "state": "QC", "display_address": ["2496 Rue Notre-Dame O", "Montreal, QC H3J 1N5", "Canada"]}, "phone": "+15149340888", "display_phone": "+1 514-934-0888", "distance": 1550.46424091533}, {"id": "wPF-aYk0RRA3oOOxVnbMTg", "alias": "chez-sophie-montréal", "name": "Chez Sophie", "image_url": "https://s3-media1.fl.yelpcdn.com/bphoto/IavNgRRlF6oyAOniab895g/o.jpg", "is_closed": false, "url": "https://www.yelp.com/biz/chez-sophie-montr%C3%A9al?adjust_creative=a2JdNtFqB-C38ga_06BHvw&utm_campaign=yelp_api_v3&utm_medium=api_v3_business_search&utm_source=a2JdNtFqB-C38ga_06BHvw", "review_count": 20, "categories": [{"alias": "wine_bars", "title": "Wine Bars"}, {"alias": "french", "title": "French"}], "rating": 5.0, "coordinates": {"latitude": 45.48648, "longitude": -73.56948}, "transactions": [], "price": "$$$$", "location": {"address1": "1974 Rue Notre-Dame O", "address2": "", "address3": "", "city": "Montreal", "zip_code": "H3J 1M8", "country": "CA", "state": "QC", "display_address": ["1974 Rue Notre-Dame O", "Montreal, QC H3J 1M8", "Canada"]}, "phone": "+14383802365", "display_phone": "+1 438-380-2365", "distance": 1064.7911073092564}, {"id": "m0FxJP2atkE8mn-xO23fpQ", "alias": "le-red-tiger-montréal", "name": "Le Red Tiger", "image_url": "https://s3-media2.fl.yelpcdn.com/bphoto/ynNays7iwPhKEH5YG4LMSQ/o.jpg", "is_closed": false, "url": "https://www.yelp.com/biz/le-red-tiger-montr%C3%A9al?adjust_creative=a2JdNtFqB-C38ga_06BHvw&utm_campaign=yelp_api_v3&utm_medium=api_v3_business_search&utm_source=a2JdNtFqB-C38ga_06BHvw", "review_count": 125, "categories": [{"alias": "vietnamese", "title": "Vietnamese"}, {"alias": "pubs", "title": "Pubs"}, {"alias": "cocktailbars", "title": "Cocktail Bars"}], "rating": 4.0, "coordinates": {"latitude": 45.519202, "longitude": -73.557836}, "transactions": [], "price": "$$", "location": {"address1": "1201 Boulevard de Maisonneuve E", "address2": "", "address3": "", "city": "Montreal", "zip_code": "H2L 2A1", "country": "CA", "state": "QC", "display_address": ["1201 Boulevard de Maisonneuve E", "Montreal, QC H2L 2A1", "Canada"]}, "phone": "+15144397006", "display_phone": "+1 514-439-7006", "distance": 2722.2824471890667}, {"id": "ZLkwMk90F-UYrvUBnHqQvg", "alias": "el-pequeño-bar-montréal", "name": "El Pequeño Bar", "image_url": "https://s3-media2.fl.yelpcdn.com/bphoto/si-DcjDRieJ3N0_QK_v0xg/o.jpg", "is_closed": false, "url": "https://www.yelp.com/biz/el-peque%C3%B1o-bar-montr%C3%A9al?adjust_creative=a2JdNtFqB-C38ga_06BHvw&utm_campaign=yelp_api_v3&utm_medium=api_v3_business_search&utm_source=a2JdNtFqB-C38ga_06BHvw", "review_count": 19, "categories": [{"alias": "cocktailbars", "title": "Cocktail Bars"}, {"alias": "cuban", "title": "Cuban"}], "rating": 4.5, "coordinates": {"latitude": 45.507123, "longitude": -73.553146}, "transactions": [], "location": {"address1": "401A Rue Saint-Vincent", "address2": null, "address3": "", "city": "Montreal", "zip_code": "H2Y 3A4", "country": "CA", "state": "QC", "display_address": ["401A Rue Saint-Vincent", "Montreal, QC H2Y 3A4", "Canada"]}, "phone": "+15144516911", "display_phone": "+1 514-451-6911", "distance": 1764.2910245959265}, {"id": "ghwcjmCP3SEGzVPpZE_4Dg", "alias": "monopole-montréal-2", "name": "Monopole", "image_url": "https://s3-media2.fl.yelpcdn.com/bphoto/EyYCZzpmQ-XxX0_72kQ74A/o.jpg", "is_closed": false, "url": "https://www.yelp.com/biz/monopole-montr%C3%A9al-2?adjust_creative=a2JdNtFqB-C38ga_06BHvw&utm_campaign=yelp_api_v3&utm_medium=api_v3_business_search&utm_source=a2JdNtFqB-C38ga_06BHvw", "review_count": 16, "categories": [{"alias": "cafes", "title": "Cafes"}, {"alias": "wine_bars", "title": "Wine Bars"}], "rating": 5.0, "coordinates": {"latitude": 45.49668, "longitude": -73.55524}, "transactions": [], "price": "$$", "location": {"address1": "782 Rue Wellington", "address2": "", "address3": null, "city": "Montreal", "zip_code": "H3C 2M8", "country": "CA", "state": "QC", "display_address": ["782 Rue Wellington", "Montreal, QC H3C 2M8", "Canada"]}, "phone": "+15145049996", "display_phone": "+1 514-504-9996", "distance": 1088.8453993061166}, {"id": "WSVLZy-A3sznGSWyjnDbmg", "alias": "nextdoor-pub-and-grill-montréal", "name": "Nextdoor Pub & Grill", "image_url": "https://s3-media4.fl.yelpcdn.com/bphoto/5TEz_U5bu4puNXi_CiC68w/o.jpg", "is_closed": false, "url": "https://www.yelp.com/biz/nextdoor-pub-and-grill-montr%C3%A9al?adjust_creative=a2JdNtFqB-C38ga_06BHvw&utm_campaign=yelp_api_v3&utm_medium=api_v3_business_search&utm_source=a2JdNtFqB-C38ga_06BHvw", "review_count": 54, "categories": [{"alias": "pubs", "title": "Pubs"}, {"alias": "newcanadian", "title": "Canadian (New)"}], "rating": 4.0, "coordinates": {"latitude": 45.4755899, "longitude": -73.60787}, "transactions": [], "price": "$$", "location": {"address1": "5175 Rue Sherbrooke O", "address2": "", "address3": "", "city": "Montreal", "zip_code": "H4A 1T5", "country": "CA", "state": "QC", "display_address": ["5175 Rue Sherbrooke O", "Montreal, QC H4A 1T5", "Canada"]}, "phone": "+15144811596", "display_phone": "+1 514-481-1596", "distance": 3759.61467362529}, {"id": "rH39kXAevsXeD-2HsmLj2g", "alias": "la-belle-et-la-boeuf-montréal-4", "name": "La Belle et la Boeuf", "image_url": "https://s3-media1.fl.yelpcdn.com/bphoto/gXC83xwwUujI-yLheJ2xtg/o.jpg", "is_closed": false, "url": "https://www.yelp.com/biz/la-belle-et-la-boeuf-montr%C3%A9al-4?adjust_creative=a2JdNtFqB-C38ga_06BHvw&utm_campaign=yelp_api_v3&utm_medium=api_v3_business_search&utm_source=a2JdNtFqB-C38ga_06BHvw", "review_count": 197, "categories": [{"alias": "burgers", "title": "Burgers"}, {"alias": "tradamerican", "title": "American (Traditional)"}, {"alias": "cocktailbars", "title": "Cocktail Bars"}], "rating": 3.5, "coordinates": {"latitude": 45.494151, "longitude": -73.5784}, "transactions": [], "price": "$$", "location": {"address1": "1620 Rue Sainte-Catherine O", "address2": "", "address3": "", "city": "Montreal", "zip_code": "H3H", "country": "CA", "state": "QC", "display_address": ["1620 Rue Sainte-Catherine O", "Montreal, QC H3H", "Canada"]}, "phone": "+15145078558", "display_phone": "+1 514-507-8558", "distance": 731.2988537125121}, {"id": "_BnBjRMt5Ba-TAv07r3fyw", "alias": "wienstein-and-gavinos-montréal-2", "name": "Wienstein & Gavino's", "image_url": "https://s3-media2.fl.yelpcdn.com/bphoto/AQn9lplqZ7AgVVRZEniU0w/o.jpg", "is_closed": false, "url": "https://www.yelp.com/biz/wienstein-and-gavinos-montr%C3%A9al-2?adjust_creative=a2JdNtFqB-C38ga_06BHvw&utm_campaign=yelp_api_v3&utm_medium=api_v3_business_search&utm_source=a2JdNtFqB-C38ga_06BHvw", "review_count": 219, "categories": [{"alias": "italian", "title": "Italian"}, {"alias": "wine_bars", "title": "Wine Bars"}], "rating": 3.5, "coordinates": {"latitude": 45.49751251005118, "longitude": -73.576754}, "transactions": [], "price": "$$", "location": {"address1": "1434 Rue Crescent", "address2": "", "address3": "", "city": "Montreal", "zip_code": "H3G 2B6", "country": "CA", "state": "QC", "display_address": ["1434 Rue Crescent", "Montreal, QC H3G 2B6", "Canada"]}, "phone": "+15142882231", "display_phone": "+1 514-288-2231", "distance": 590.6836997976023}, {"id": "jdgOBjF-txwzIkXNIEvUWw", "alias": "elena-montréal", "name": "Elena", "image_url": "https://s3-media2.fl.yelpcdn.com/bphoto/6VkNWuJ9ZDSxRuKEMWyZ-g/o.jpg", "is_closed": false, "url": "https://www.yelp.com/biz/elena-montr%C3%A9al?adjust_creative=a2JdNtFqB-C38ga_06BHvw&utm_campaign=yelp_api_v3&utm_medium=api_v3_business_search&utm_source=a2JdNtFqB-C38ga_06BHvw", "review_count": 46, "categories": [{"alias": "italian", "title": "Italian"}, {"alias": "wine_bars", "title": "Wine Bars"}], "rating": 4.0, "coordinates": {"latitude": 45.46971, "longitude": -73.59172}, "transactions": [], "price": "$$$", "location": {"address1": "5090 Rue Notre-Dame O", "address2": "", "address3": null, "city": "Montreal", "zip_code": "H4C 1T1", "country": "CA", "state": "QC", "display_address": ["5090 Rue Notre-Dame O", "Montreal, QC H4C 1T1", "Canada"]}, "phone": "+15143794883", "display_phone": "+1 514-379-4883", "distance": 3415.6805691011355}, {"id": "NKTmsq4mfLn0uE6CMyINBA", "alias": "marcus-restaurant-terrace-montréal-2", "name": "Marcus Restaurant + Terrace", "image_url": "https://s3-media4.fl.yelpcdn.com/bphoto/FcX7tNMT1e2tjNXN7cAodg/o.jpg", "is_closed": false, "url": "https://www.yelp.com/biz/marcus-restaurant-terrace-montr%C3%A9al-2?adjust_creative=a2JdNtFqB-C38ga_06BHvw&utm_campaign=yelp_api_v3&utm_medium=api_v3_business_search&utm_source=a2JdNtFqB-C38ga_06BHvw", "review_count": 47, "categories": [{"alias": "breakfast_brunch", "title": "Breakfast & Brunch"}, {"alias": "cocktailbars", "title": "Cocktail Bars"}, {"alias": "tapasmallplates", "title": "Tapas/Small Plates"}], "rating": 4.0, "coordinates": {"latitude": 45.498525, "longitude": -73.5764919}, "transactions": [], "location": {"address1": "1440 Rue de la Montagne", "address2": "", "address3": null, "city": "Montreal", "zip_code": "H3G 1Z5", "country": "CA", "state": "QC", "display_address": ["1440 Rue de la Montagne", "Montreal, QC H3G 1Z5", "Canada"]}, "phone": "+15148432525", "display_phone": "+1 514-843-2525", "distance": 611.3966377640371}, {"id": "ZG7QfG8o6ylQYfxXM95luA", "alias": "la-catrina-montréal", "name": "La Catrina", "image_url": "https://s3-media3.fl.yelpcdn.com/bphoto/B_S_GjMutpeRyxlfwXFYaw/o.jpg", "is_closed": false, "url": "https://www.yelp.com/biz/la-catrina-montr%C3%A9al?adjust_creative=a2JdNtFqB-C38ga_06BHvw&utm_campaign=yelp_api_v3&utm_medium=api_v3_business_search&utm_source=a2JdNtFqB-C38ga_06BHvw", "review_count": 28, "categories": [{"alias": "cocktailbars", "title": "Cocktail Bars"}, {"alias": "mexican", "title": "Mexican"}], "rating": 4.5, "coordinates": {"latitude": 45.50384, "longitude": -73.55395}, "transactions": [], "price": "$$", "location": {"address1": "117 Rue de la Commune O", "address2": "", "address3": null, "city": "Montreal", "zip_code": "H2Y 2C7", "country": "CA", "state": "QC", "display_address": ["117 Rue de la Commune O", "Montreal, QC H2Y 2C7", "Canada"]}, "phone": "+15145437172", "display_phone": "+1 514-543-7172", "distance": 1484.1588753292583}, {"id": "agYLB665pM7rYjHveAlK8Q", "alias": "wolf-and-workman-montréal-2", "name": "Wolf & Workman", "image_url": "https://s3-media2.fl.yelpcdn.com/bphoto/6diNE-Rad91Fu01c93v7kA/o.jpg", "is_closed": false, "url": "https://www.yelp.com/biz/wolf-and-workman-montr%C3%A9al-2?adjust_creative=a2JdNtFqB-C38ga_06BHvw&utm_campaign=yelp_api_v3&utm_medium=api_v3_business_search&utm_source=a2JdNtFqB-C38ga_06BHvw", "review_count": 33, "categories": [{"alias": "british", "title": "British"}, {"alias": "pubs", "title": "Pubs"}], "rating": 4.0, "coordinates": {"latitude": 45.50373, "longitude": -73.55491}, "transactions": [], "price": "$$", "location": {"address1": "139 Rue Saint-Paul O", "address2": "", "address3": null, "city": "Montreal", "zip_code": "H2Y 1Z5", "country": "CA", "state": "QC", "display_address": ["139 Rue Saint-Paul O", "Montreal, QC H2Y 1Z5", "Canada"]}, "phone": "+15147371787", "display_phone": "+1 514-737-1787", "distance": 1416.041362694104}, {"id": "Y1Yprra4ZSyAIMW9Zm75dA", "alias": "méchant-bœuf-bar-and-brasserie-montréal-3", "name": "Méchant Bœuf Bar & Brasserie", "image_url": "https://s3-media3.fl.yelpcdn.com/bphoto/iz75iu5AUiByP3oXcwRxWA/o.jpg", "is_closed": false, "url": "https://www.yelp.com/biz/m%C3%A9chant-b%C5%93uf-bar-and-brasserie-montr%C3%A9al-3?adjust_creative=a2JdNtFqB-C38ga_06BHvw&utm_campaign=yelp_api_v3&utm_medium=api_v3_business_search&utm_source=a2JdNtFqB-C38ga_06BHvw", "review_count": 162, "categories": [{"alias": "cocktailbars", "title": "Cocktail Bars"}, {"alias": "seafood", "title": "Seafood"}, {"alias": "steak", "title": "Steakhouses"}], "rating": 3.5, "coordinates": {"latitude": 45.5037475, "longitude": -73.5545582}, "transactions": [], "price": "$$$", "location": {"address1": "124 Rue Saint-Paul O", "address2": "", "address3": "", "city": "Montreal", "zip_code": "H2Y 1Z3", "country": "CA", "state": "QC", "display_address": ["124 Rue Saint-Paul O", "Montreal, QC H2Y 1Z3", "Canada"]}, "phone": "+15147884020", "display_phone": "+1 514-788-4020", "distance": 1450.2255001639003}, {"id": "RhIjAPdxZYnzqWLs7P-YTA", "alias": "accords-le-bistro-montréal", "name": "Accords le Bistro", "image_url": "https://s3-media3.fl.yelpcdn.com/bphoto/PYOmGGdY0Pfp4pKXlYDRjw/o.jpg", "is_closed": false, "url": "https://www.yelp.com/biz/accords-le-bistro-montr%C3%A9al?adjust_creative=a2JdNtFqB-C38ga_06BHvw&utm_campaign=yelp_api_v3&utm_medium=api_v3_business_search&utm_source=a2JdNtFqB-C38ga_06BHvw", "review_count": 27, "categories": [{"alias": "wine_bars", "title": "Wine Bars"}, {"alias": "newcanadian", "title": "Canadian (New)"}], "rating": 4.5, "coordinates": {"latitude": 45.51006, "longitude": -73.56346}, "transactions": [], "price": "$$$", "location": {"address1": "22 Rue Sainte-Catherine Est", "address2": "", "address3": "", "city": "Montreal", "zip_code": "H2X 1K4", "country": "CA", "state": "QC", "display_address": ["22 Rue Sainte-Catherine Est", "Montreal, QC H2X 1K4", "Canada"]}, "phone": "+15145082122", "display_phone": "+1 514-508-2122", "distance": 1623.4713781111004}, {"id": "tQdX2txQNiCgC2pbjLzFGA", "alias": "notre-bœuf-de-grâce-montréal-5", "name": "Notre-Bœuf-de-Grâce", "image_url": "https://s3-media1.fl.yelpcdn.com/bphoto/RXHATwH-ptyBBFxs-RJgwQ/o.jpg", "is_closed": false, "url": "https://www.yelp.com/biz/notre-b%C5%93uf-de-gr%C3%A2ce-montr%C3%A9al-5?adjust_creative=a2JdNtFqB-C38ga_06BHvw&utm_campaign=yelp_api_v3&utm_medium=api_v3_business_search&utm_source=a2JdNtFqB-C38ga_06BHvw", "review_count": 48, "categories": [{"alias": "burgers", "title": "Burgers"}, {"alias": "breakfast_brunch", "title": "Breakfast & Brunch"}, {"alias": "cocktailbars", "title": "Cocktail Bars"}], "rating": 4.0, "coordinates": {"latitude": 45.497596, "longitude": -73.577621}, "transactions": [], "price": "$$", "location": {"address1": "1388 Boulevard  Maisonneuve O", "address2": "", "address3": null, "city": "Montreal", "zip_code": "H3G 1M6", "country": "CA", "state": "QC", "display_address": ["1388 Boulevard  Maisonneuve O", "Montreal, QC H3G 1M6", "Canada"]}, "phone": "+15142860110", "display_phone": "+1 514-286-0110", "distance": 658.3736961534266}, {"id": "zySx88a8wu-mpPIkg5ijcQ", "alias": "club-pelicano-montréal", "name": "Club Pelicano", "image_url": "https://s3-media1.fl.yelpcdn.com/bphoto/f8AOKzFftWmd2x-DABmu9w/o.jpg", "is_closed": false, "url": "https://www.yelp.com/biz/club-pelicano-montr%C3%A9al?adjust_creative=a2JdNtFqB-C38ga_06BHvw&utm_campaign=yelp_api_v3&utm_medium=api_v3_business_search&utm_source=a2JdNtFqB-C38ga_06BHvw", "review_count": 19, "categories": [{"alias": "tapasmallplates", "title": "Tapas/Small Plates"}, {"alias": "cocktailbars", "title": "Cocktail Bars"}], "rating": 4.5, "coordinates": {"latitude": 45.504623, "longitude": -73.563434}, "transactions": [], "location": {"address1": "1076 Rue de Bleury", "address2": "Suite 001", "address3": null, "city": "Montreal", "zip_code": "H2Z 1N2", "country": "CA", "state": "QC", "display_address": ["1076 Rue de Bleury", "Suite 001", "Montreal, QC H2Z 1N2", "Canada"]}, "phone": "+15148611515", "display_phone": "+1 514-861-1515", "distance": 1056.0507796719842}, {"id": "Ipcdle852xIuI1L5kCYAvA", "alias": "les-torchés-montréal", "name": "Les Torchés", "image_url": "https://s3-media1.fl.yelpcdn.com/bphoto/Hnh44-35zY5jk9TpLqkWyA/o.jpg", "is_closed": false, "url": "https://www.yelp.com/biz/les-torch%C3%A9s-montr%C3%A9al?adjust_creative=a2JdNtFqB-C38ga_06BHvw&utm_campaign=yelp_api_v3&utm_medium=api_v3_business_search&utm_source=a2JdNtFqB-C38ga_06BHvw", "review_count": 33, "categories": [{"alias": "pubs", "title": "Pubs"}, {"alias": "tapasmallplates", "title": "Tapas/Small Plates"}, {"alias": "cocktailbars", "title": "Cocktail Bars"}], "rating": 4.0, "coordinates": {"latitude": 45.521767, "longitude": -73.585594}, "transactions": [], "price": "$$", "location": {"address1": "74 Avenue Mont-royal E", "address2": "", "address3": "", "city": "Montreal", "zip_code": "H2T 1N6", "country": "CA", "state": "QC", "display_address": ["74 Avenue Mont-royal E", "Montreal, QC H2T 1N6", "Canada"]}, "phone": "+15145646011", "display_phone": "+1 514-564-6011", "distance": 3118.0674484286938}, {"id": "m-dBv0j_MHKnFC_PJGJDyg", "alias": "perles-et-paddock-montréal", "name": "Perles et Paddock", "image_url": "https://s3-media4.fl.yelpcdn.com/bphoto/1wV3hN00hB04BjNfp5Q6LQ/o.jpg", "is_closed": false, "url": "https://www.yelp.com/biz/perles-et-paddock-montr%C3%A9al?adjust_creative=a2JdNtFqB-C38ga_06BHvw&utm_campaign=yelp_api_v3&utm_medium=api_v3_business_search&utm_source=a2JdNtFqB-C38ga_06BHvw", "review_count": 41, "categories": [{"alias": "cocktailbars", "title": "Cocktail Bars"}, {"alias": "french", "title": "French"}, {"alias": "newcanadian", "title": "Canadian (New)"}], "rating": 4.0, "coordinates": {"latitude": 45.4875982355093, "longitude": -73.5684137102688}, "transactions": [], "price": "$$$$", "location": {"address1": "403 Rue des Seigneurs", "address2": "", "address3": null, "city": "Montreal", "zip_code": "H1T 3M7", "country": "CA", "state": "QC", "display_address": ["403 Rue des Seigneurs", "Montreal, QC H1T 3M7", "Canada"]}, "phone": "+15149310004", "display_phone": "+1 514-931-0004", "distance": 949.9759053018735}, {"id": "xgcVMrwfGjugeR1Nmj6Nww", "alias": "bar-henrietta-montréal", "name": "Bar Henrietta", "image_url": "https://s3-media1.fl.yelpcdn.com/bphoto/SGQrI8b4ZNjKWkc8u2YGsg/o.jpg", "is_closed": false, "url": "https://www.yelp.com/biz/bar-henrietta-montr%C3%A9al?adjust_creative=a2JdNtFqB-C38ga_06BHvw&utm_campaign=yelp_api_v3&utm_medium=api_v3_business_search&utm_source=a2JdNtFqB-C38ga_06BHvw", "review_count": 34, "categories": [{"alias": "wine_bars", "title": "Wine Bars"}, {"alias": "portuguese", "title": "Portuguese"}, {"alias": "cocktailbars", "title": "Cocktail Bars"}], "rating": 4.0, "coordinates": {"latitude": 45.52165, "longitude": -73.59439}, "transactions": [], "price": "$$", "location": {"address1": "115 Avenue Laurier O", "address2": null, "address3": "", "city": "Montreal", "zip_code": "H2T 1E7", "country": "CA", "state": "QC", "display_address": ["115 Avenue Laurier O", "Montreal, QC H2T 1E7", "Canada"]}, "phone": "+15142764282", "display_phone": "+1 514-276-4282", "distance": 3441.8102912065824}, {"id": "cVJ5GS0QG9hqHDAawn_Gtg", "alias": "hambar-montréal", "name": "Hambar", "image_url": "https://s3-media4.fl.yelpcdn.com/bphoto/9jzADC97AYsMdAnz0iwbwg/o.jpg", "is_closed": false, "url": "https://www.yelp.com/biz/hambar-montr%C3%A9al?adjust_creative=a2JdNtFqB-C38ga_06BHvw&utm_campaign=yelp_api_v3&utm_medium=api_v3_business_search&utm_source=a2JdNtFqB-C38ga_06BHvw", "review_count": 76, "categories": [{"alias": "newcanadian", "title": "Canadian (New)"}, {"alias": "wine_bars", "title": "Wine Bars"}, {"alias": "cocktailbars", "title": "Cocktail Bars"}], "rating": 3.5, "coordinates": {"latitude": 45.50021184085565, "longitude": -73.5566417061206}, "transactions": [], "price": "$$$", "location": {"address1": "355 Rue McGill", "address2": "", "address3": "", "city": "Montreal", "zip_code": "H2Y 2E8", "country": "CA", "state": "QC", "display_address": ["355 Rue McGill", "Montreal, QC H2Y 2E8", "Canada"]}, "phone": "+15148791234", "display_phone": "+1 514-879-1234", "distance": 1097.066800021461}, {"id": "0kj2vPfD91pzvD9vFqgjlg", "alias": "rosewood-montréal", "name": "Rosewood", "image_url": "https://s3-media3.fl.yelpcdn.com/bphoto/q17gFzb2e6OWgVJvT7ew0g/o.jpg", "is_closed": false, "url": "https://www.yelp.com/biz/rosewood-montr%C3%A9al?adjust_creative=a2JdNtFqB-C38ga_06BHvw&utm_campaign=yelp_api_v3&utm_medium=api_v3_business_search&utm_source=a2JdNtFqB-C38ga_06BHvw", "review_count": 108, "categories": [{"alias": "cocktailbars", "title": "Cocktail Bars"}, {"alias": "breakfast_brunch", "title": "Breakfast & Brunch"}, {"alias": "newcanadian", "title": "Canadian (New)"}], "rating": 3.5, "coordinates": {"latitude": 45.5055011209274, "longitude": -73.5571696800126}, "transactions": [], "price": "$$", "location": {"address1": "60 Rue Saint-Jacques", "address2": "", "address3": "", "city": "Montreal", "zip_code": "H2Y 1L5", "country": "CA", "state": "QC", "display_address": ["60 Rue Saint-Jacques", "Montreal, QC H2Y 1L5", "Canada"]}, "phone": "+15148438585", "display_phone": "+1 514-843-8585", "distance": 1416.0955553874198}, {"id": "YiRhyhrKQNwgV43Sy0LlOQ", "alias": "salumi-vino-montréal-2", "name": "Salumi Vino", "image_url": "https://s3-media4.fl.yelpcdn.com/bphoto/4gTOHrup8zhhoO_yKrbxXQ/o.jpg", "is_closed": false, "url": "https://www.yelp.com/biz/salumi-vino-montr%C3%A9al-2?adjust_creative=a2JdNtFqB-C38ga_06BHvw&utm_campaign=yelp_api_v3&utm_medium=api_v3_business_search&utm_source=a2JdNtFqB-C38ga_06BHvw", "review_count": 33, "categories": [{"alias": "italian", "title": "Italian"}, {"alias": "wine_bars", "title": "Wine Bars"}], "rating": 4.0, "coordinates": {"latitude": 45.50994, "longitude": -73.55246}, "transactions": [], "price": "$$$", "location": {"address1": "358 Rue Notre-Dame E", "address2": "", "address3": "", "city": "Montreal", "zip_code": "H2Y 1C7", "country": "CA", "state": "QC", "display_address": ["358 Rue Notre-Dame E", "Montreal, QC H2Y 1C7", "Canada"]}, "phone": "+15147590505", "display_phone": "+1 514-759-0505", "distance": 2034.3374831386632}, {"id": "4fRMyuZzat8rVzQGm7eTwg", "alias": "cordova-montréal", "name": "Cordova", "image_url": "https://s3-media2.fl.yelpcdn.com/bphoto/ERA7L8Nj3wyEL_Vg1Bh0DA/o.jpg", "is_closed": false, "url": "https://www.yelp.com/biz/cordova-montr%C3%A9al?adjust_creative=a2JdNtFqB-C38ga_06BHvw&utm_campaign=yelp_api_v3&utm_medium=api_v3_business_search&utm_source=a2JdNtFqB-C38ga_06BHvw", "review_count": 16, "categories": [{"alias": "coffee", "title": "Coffee & Tea"}, {"alias": "cocktailbars", "title": "Cocktail Bars"}, {"alias": "tapas", "title": "Tapas Bars"}], "rating": 4.5, "coordinates": {"latitude": 45.4733401, "longitude": -73.5880069}, "transactions": [], "price": "$$", "location": {"address1": "4606 Rue Notre-Dame O", "address2": "", "address3": null, "city": "Montreal", "zip_code": "H4C 1S4", "country": "CA", "state": "QC", "display_address": ["4606 Rue Notre-Dame O", "Montreal, QC H4C 1S4", "Canada"]}, "phone": "+15146474338", "display_phone": "+1 514-647-4338", "distance": 2900.396575838974}, {"id": "JLUhgZsua28LResDAd4OXQ", "alias": "l-assommoir-montréal", "name": "L'Assommoir", "image_url": "https://s3-media3.fl.yelpcdn.com/bphoto/pzzSpS7TSmvP1zeyro9DiQ/o.jpg", "is_closed": false, "url": "https://www.yelp.com/biz/l-assommoir-montr%C3%A9al?adjust_creative=a2JdNtFqB-C38ga_06BHvw&utm_campaign=yelp_api_v3&utm_medium=api_v3_business_search&utm_source=a2JdNtFqB-C38ga_06BHvw", "review_count": 101, "categories": [{"alias": "newcanadian", "title": "Canadian (New)"}, {"alias": "cocktailbars", "title": "Cocktail Bars"}], "rating": 3.5, "coordinates": {"latitude": 45.50372573993037, "longitude": -73.55766009999999}, "transactions": [], "price": "$$", "location": {"address1": "211 Rue Notre-Dame O", "address2": null, "address3": "", "city": "Montreal", "zip_code": "H2Y 1T4", "country": "CA", "state": "QC", "display_address": ["211 Rue Notre-Dame O", "Montreal, QC H2Y 1T4", "Canada"]}, "phone": "+15142720777", "display_phone": "+1 514-272-0777", "distance": 1249.1630732207625}, {"id": "uFZ7Q8JCgGJAaObiYs3ksg", "alias": "bordelle-boutique-bar-and-eatery-montréal", "name": "Bord'Elle Boutique Bar and Eatery", "image_url": "https://s3-media2.fl.yelpcdn.com/bphoto/vhVxZ9DCti2WJYqmMLb8cQ/o.jpg", "is_closed": false, "url": "https://www.yelp.com/biz/bordelle-boutique-bar-and-eatery-montr%C3%A9al?adjust_creative=a2JdNtFqB-C38ga_06BHvw&utm_campaign=yelp_api_v3&utm_medium=api_v3_business_search&utm_source=a2JdNtFqB-C38ga_06BHvw", "review_count": 50, "categories": [{"alias": "cocktailbars", "title": "Cocktail Bars"}, {"alias": "tapas", "title": "Tapas Bars"}], "rating": 3.5, "coordinates": {"latitude": 45.5018699, "longitude": -73.55954}, "transactions": [], "price": "$$$$", "location": {"address1": "390 Rue Saint-jacques", "address2": "", "address3": null, "city": "Montreal", "zip_code": "H2Y 1S1", "country": "CA", "state": "QC", "display_address": ["390 Rue Saint-jacques", "Montreal, QC H2Y 1S1", "Canada"]}, "phone": "+15143793553", "display_phone": "+1 514-379-3553", "distance": 1004.9639173311981}, {"id": "4GpaWAMVj-myWqq8-yYCIw", "alias": "jiao-montréal", "name": "JIAO", "image_url": "https://s3-media4.fl.yelpcdn.com/bphoto/l_ZOAHk8kYXu62b5bboeoA/o.jpg", "is_closed": false, "url": "https://www.yelp.com/biz/jiao-montr%C3%A9al?adjust_creative=a2JdNtFqB-C38ga_06BHvw&utm_campaign=yelp_api_v3&utm_medium=api_v3_business_search&utm_source=a2JdNtFqB-C38ga_06BHvw", "review_count": 28, "categories": [{"alias": "dimsum", "title": "Dim Sum"}, {"alias": "cocktailbars", "title": "Cocktail Bars"}], "rating": 4.0, "coordinates": {"latitude": 45.50174, "longitude": -73.55926}, "transactions": [], "location": {"address1": "399 Rue Notre-Dame O", "address2": "", "address3": null, "city": "Montreal", "zip_code": "H2Y 1V2", "country": "CA", "state": "QC", "display_address": ["399 Rue Notre-Dame O", "Montreal, QC H2Y 1V2", "Canada"]}, "phone": "+15145433148", "display_phone": "+1 514-543-3148", "distance": 998.6645874334416}, {"id": "YMJ7E1AcjDF5kN7hVkWd_w", "alias": "vargas-montréal", "name": "Vargas", "image_url": "https://s3-media2.fl.yelpcdn.com/bphoto/0CsmqhVoeXWQVn8RnCZh3A/o.jpg", "is_closed": false, "url": "https://www.yelp.com/biz/vargas-montr%C3%A9al?adjust_creative=a2JdNtFqB-C38ga_06BHvw&utm_campaign=yelp_api_v3&utm_medium=api_v3_business_search&utm_source=a2JdNtFqB-C38ga_06BHvw", "review_count": 76, "categories": [{"alias": "steak", "title": "Steakhouses"}, {"alias": "sushi", "title": "Sushi Bars"}, {"alias": "wine_bars", "title": "Wine Bars"}], "rating": 3.5, "coordinates": {"latitude": 45.50155, "longitude": -73.56733}, "transactions": [], "price": "$$$", "location": {"address1": "690 Boulevard René Levesque O", "address2": "", "address3": "", "city": "Montreal", "zip_code": "H3B 1X8", "country": "CA", "state": "QC", "display_address": ["690 Boulevard René Levesque O", "Montreal, QC H3B 1X8", "Canada"]}, "phone": "+15148754545", "display_phone": "+1 514-875-4545", "distance": 618.9892117685739}, {"id": "hhoF0oNZaSY-G4a6jkNpDg", "alias": "la-voûte-montréal-2", "name": "La Voûte", "image_url": "https://s3-media2.fl.yelpcdn.com/bphoto/L1TFhGhyn2D-plRwmFvlaw/o.jpg", "is_closed": false, "url": "https://www.yelp.com/biz/la-vo%C3%BBte-montr%C3%A9al-2?adjust_creative=a2JdNtFqB-C38ga_06BHvw&utm_campaign=yelp_api_v3&utm_medium=api_v3_business_search&utm_source=a2JdNtFqB-C38ga_06BHvw", "review_count": 27, "categories": [{"alias": "japanese", "title": "Japanese"}, {"alias": "wine_bars", "title": "Wine Bars"}, {"alias": "cocktailbars", "title": "Cocktail Bars"}], "rating": 4.0, "coordinates": {"latitude": 45.5022612967492, "longitude": -73.5591738639147}, "transactions": [], "price": "$$$$", "location": {"address1": "360 Rue Saint-Jacques", "address2": null, "address3": null, "city": "Montreal", "zip_code": "H2Y 2N1", "country": "CA", "state": "QC", "display_address": ["360 Rue Saint-Jacques", "Montreal, QC H2Y 2N1", "Canada"]}, "phone": "+15146799360", "display_phone": "+1 514-679-9360", "distance": 1052.804547626096}, {"id": "7rjsddY6fB_SJXIVOLywTQ", "alias": "knox-montréal", "name": "Knox", "image_url": "https://s3-media2.fl.yelpcdn.com/bphoto/UTYmHrPjH7o2ELLDkkHj6w/o.jpg", "is_closed": false, "url": "https://www.yelp.com/biz/knox-montr%C3%A9al?adjust_creative=a2JdNtFqB-C38ga_06BHvw&utm_campaign=yelp_api_v3&utm_medium=api_v3_business_search&utm_source=a2JdNtFqB-C38ga_06BHvw", "review_count": 17, "categories": [{"alias": "pubs", "title": "Pubs"}, {"alias": "seafood", "title": "Seafood"}, {"alias": "burgers", "title": "Burgers"}], "rating": 4.0, "coordinates": {"latitude": 45.4829149648052, "longitude": -73.562322}, "transactions": [], "price": "$$", "location": {"address1": "1871 Rue du Centre", "address2": "", "address3": null, "city": "Montreal", "zip_code": "H3K 1J1", "country": "CA", "state": "QC", "display_address": ["1871 Rue du Centre", "Montreal, QC H3K 1J1", "Canada"]}, "phone": "+15149333523", "display_phone": "+1 514-933-3523", "distance": 1568.8457846928081}, {"id": "YQEY1QcVfmaes-C1jQuQFQ", "alias": "parliament-montréal-3", "name": "Parliament", "image_url": "https://s3-media4.fl.yelpcdn.com/bphoto/S1wYMP4AplDNT6wzahWT2A/o.jpg", "is_closed": false, "url": "https://www.yelp.com/biz/parliament-montr%C3%A9al-3?adjust_creative=a2JdNtFqB-C38ga_06BHvw&utm_campaign=yelp_api_v3&utm_medium=api_v3_business_search&utm_source=a2JdNtFqB-C38ga_06BHvw", "review_count": 13, "categories": [{"alias": "cocktailbars", "title": "Cocktail Bars"}, {"alias": "tapasmallplates", "title": "Tapas/Small Plates"}], "rating": 4.5, "coordinates": {"latitude": 45.50098, "longitude": -73.55598}, "transactions": [], "location": {"address1": "351 Place d'Youville", "address2": "", "address3": null, "city": "Montreal", "zip_code": "H2Y 2B7", "country": "CA", "state": "QC", "display_address": ["351 Place d'Youville", "Montreal, QC H2Y 2B7", "Canada"]}, "phone": "+15148429945", "display_phone": "+1 514-842-9945", "distance": 1184.6108778935675}, {"id": "1Ok2EXqdH-R0sy-_tyOrMg", "alias": "enoteca-monza-montréal-3", "name": "Enoteca Monza", "image_url": "https://s3-media3.fl.yelpcdn.com/bphoto/ciLEtj4gcnDz7yquLtbMcg/o.jpg", "is_closed": false, "url": "https://www.yelp.com/biz/enoteca-monza-montr%C3%A9al-3?adjust_creative=a2JdNtFqB-C38ga_06BHvw&utm_campaign=yelp_api_v3&utm_medium=api_v3_business_search&utm_source=a2JdNtFqB-C38ga_06BHvw", "review_count": 76, "categories": [{"alias": "pizza", "title": "Pizza"}, {"alias": "italian", "title": "Italian"}, {"alias": "wine_bars", "title": "Wine Bars"}], "rating": 3.5, "coordinates": {"latitude": 45.501895, "longitude": -73.570401}, "transactions": [], "price": "$$", "location": {"address1": "1251 Avenue McGill College", "address2": null, "address3": "", "city": "Montreal", "zip_code": "H3B 2Y4", "country": "CA", "state": "QC", "display_address": ["1251 Avenue McGill College", "Montreal, QC H3B 2Y4", "Canada"]}, "phone": "+15148783400", "display_phone": "+1 514-878-3400", "distance": 647.4613264152517}, {"id": "mT8Ej8sKFJoIa5G0Vl4AKA", "alias": "bâton-rouge-steakhouse-and-bar-montréal-24", "name": "Bâton Rouge Steakhouse & Bar", "image_url": "https://s3-media2.fl.yelpcdn.com/bphoto/8ALqN8rySBh6Uc7_e8ASJg/o.jpg", "is_closed": false, "url": "https://www.yelp.com/biz/b%C3%A2ton-rouge-steakhouse-and-bar-montr%C3%A9al-24?adjust_creative=a2JdNtFqB-C38ga_06BHvw&utm_campaign=yelp_api_v3&utm_medium=api_v3_business_search&utm_source=a2JdNtFqB-C38ga_06BHvw", "review_count": 134, "categories": [{"alias": "seafood", "title": "Seafood"}, {"alias": "steak", "title": "Steakhouses"}, {"alias": "cocktailbars", "title": "Cocktail Bars"}], "rating": 3.0, "coordinates": {"latitude": 45.507499, "longitude": -73.565436}, "transactions": [], "price": "$$", "location": {"address1": "180 rue Ste-Catherine Ouest", "address2": "Box 452", "address3": "", "city": "Montreal", "zip_code": "H5B 1B5", "country": "CA", "state": "QC", "display_address": ["180 rue Ste-Catherine Ouest", "Box 452", "Montreal, QC H5B 1B5", "Canada"]}, "phone": "+15142827444", "display_phone": "+1 514-282-7444", "distance": 1304.2439048074782}, {"id": "8cV0JQ4iNx8WdkwznhMc2g", "alias": "perché-montréal-2", "name": "Perché", "image_url": "https://s3-media1.fl.yelpcdn.com/bphoto/sQB2Pnu388dEzH99iZtTjg/o.jpg", "is_closed": false, "url": "https://www.yelp.com/biz/perch%C3%A9-montr%C3%A9al-2?adjust_creative=a2JdNtFqB-C38ga_06BHvw&utm_campaign=yelp_api_v3&utm_medium=api_v3_business_search&utm_source=a2JdNtFqB-C38ga_06BHvw", "review_count": 29, "categories": [{"alias": "seafood", "title": "Seafood"}, {"alias": "cocktailbars", "title": "Cocktail Bars"}], "rating": 3.5, "coordinates": {"latitude": 45.507285, "longitude": -73.553193}, "transactions": [], "price": "$$$", "location": {"address1": "153 Rue Saint-Amable", "address2": "4e étage", "address3": null, "city": "Montreal", "zip_code": "H2Y 1E7", "country": "CA", "state": "QC", "display_address": ["153 Rue Saint-Amable", "4e étage", "Montreal, QC H2Y 1E7", "Canada"]}, "phone": "+15143792010", "display_phone": "+1 514-379-2010", "distance": 1774.2224220371133}, {"id": "ayCo510gQ9zDt-HijqYhQA", "alias": "bowhead-pub-montréal", "name": "Bowhead Pub", "image_url": "https://s3-media3.fl.yelpcdn.com/bphoto/WiE9QgacZgytI-FHrw-olg/o.jpg", "is_closed": false, "url": "https://www.yelp.com/biz/bowhead-pub-montr%C3%A9al?adjust_creative=a2JdNtFqB-C38ga_06BHvw&utm_campaign=yelp_api_v3&utm_medium=api_v3_business_search&utm_source=a2JdNtFqB-C38ga_06BHvw", "review_count": 18, "categories": [{"alias": "pubs", "title": "Pubs"}, {"alias": "vegan", "title": "Vegan"}], "rating": 4.0, "coordinates": {"latitude": 45.51511, "longitude": -73.57477}, "transactions": [], "location": {"address1": "3723 Boulevard Saint-Laurent", "address2": "", "address3": null, "city": "Montreal", "zip_code": "H2X 2V7", "country": "CA", "state": "QC", "display_address": ["3723 Boulevard Saint-Laurent", "Montreal, QC H2X 2V7", "Canada"]}, "phone": "+15145453990", "display_phone": "+1 514-545-3990", "distance": 2152.43978968896}, {"id": "6BCZIPrrNuPdZ3pCNf_fCA", "alias": "shaker-cuisine-and-mixologie-montréal", "name": "Shaker Cuisine and Mixologie", "image_url": "https://s3-media2.fl.yelpcdn.com/bphoto/EF_zccJK4HLKzmLFsuV2JQ/o.jpg", "is_closed": false, "url": "https://www.yelp.com/biz/shaker-cuisine-and-mixologie-montr%C3%A9al?adjust_creative=a2JdNtFqB-C38ga_06BHvw&utm_campaign=yelp_api_v3&utm_medium=api_v3_business_search&utm_source=a2JdNtFqB-C38ga_06BHvw", "review_count": 20, "categories": [{"alias": "cocktailbars", "title": "Cocktail Bars"}, {"alias": "burgers", "title": "Burgers"}], "rating": 4.0, "coordinates": {"latitude": 45.51314, "longitude": -73.57123}, "transactions": [], "location": {"address1": "3518 Boulevard St-Laurent", "address2": "", "address3": null, "city": "Montreal", "zip_code": "H2X 2T6", "country": "CA", "state": "QC", "display_address": ["3518 Boulevard St-Laurent", "Montreal, QC H2X 2T6", "Canada"]}, "phone": "+15144753085", "display_phone": "+1 514-475-3085", "distance": 1893.8909572104994}, {"id": "QouAo7lqUhPtW7qZpkNS8g", "alias": "la-cage-montréal", "name": "La Cage ", "image_url": "https://s3-media1.fl.yelpcdn.com/bphoto/7SxvU567tvWxZI0cIYYOxQ/o.jpg", "is_closed": false, "url": "https://www.yelp.com/biz/la-cage-montr%C3%A9al?adjust_creative=a2JdNtFqB-C38ga_06BHvw&utm_campaign=yelp_api_v3&utm_medium=api_v3_business_search&utm_source=a2JdNtFqB-C38ga_06BHvw", "review_count": 29, "categories": [{"alias": "sportsbars", "title": "Sports Bars"}, {"alias": "brasseries", "title": "Brasseries"}], "rating": 3.5, "coordinates": {"latitude": 45.49667, "longitude": -73.569773}, "transactions": [], "price": "$$", "location": {"address1": "1212  Avenue des Canadiens-de-Montréal", "address2": "", "address3": "", "city": "Montreal", "zip_code": "H3B 2S2", "country": "CA", "state": "QC", "display_address": ["1212  Avenue des Canadiens-de-Montréal", "Montreal, QC H3B 2S2", "Canada"]}, "phone": "+15149252255", "display_phone": "+1 514-925-2255", "distance": 67.23965340297326}, {"id": "EyCO8HurmdWYbVCdxPg-Ig", "alias": "l-gros-luxe-plateau-montréal-7", "name": "L'Gros Luxe Plateau", "image_url": "https://s3-media1.fl.yelpcdn.com/bphoto/ImgZRkQ2oYi6Ji_2pxQtKg/o.jpg", "is_closed": false, "url": "https://www.yelp.com/biz/l-gros-luxe-plateau-montr%C3%A9al-7?adjust_creative=a2JdNtFqB-C38ga_06BHvw&utm_campaign=yelp_api_v3&utm_medium=api_v3_business_search&utm_source=a2JdNtFqB-C38ga_06BHvw", "review_count": 42, "categories": [{"alias": "breakfast_brunch", "title": "Breakfast & Brunch"}, {"alias": "newcanadian", "title": "Canadian (New)"}, {"alias": "cocktailbars", "title": "Cocktail Bars"}], "rating": 3.0, "coordinates": {"latitude": 45.5215356836039, "longitude": -73.5754337450703}, "transactions": [], "price": "$$", "location": {"address1": "451 Avenue Duluth E", "address2": "", "address3": null, "city": "Montreal", "zip_code": "H2L 1A5", "country": "CA", "state": "QC", "display_address": ["451 Avenue Duluth E", "Montreal, QC H2L 1A5", "Canada"]}, "phone": "+14383876127", "display_phone": "+1 438-387-6127", "distance": 2865.36400552019}, {"id": "BqOiF0Md73bdG_yKnIGHWg", "alias": "gypsy-kitchen-bar-montréal", "name": "Gypsy Kitchen+Bar", "image_url": "https://s3-media2.fl.yelpcdn.com/bphoto/arZsJ_IIAQnUi1JJLqPfAA/o.jpg", "is_closed": false, "url": "https://www.yelp.com/biz/gypsy-kitchen-bar-montr%C3%A9al?adjust_creative=a2JdNtFqB-C38ga_06BHvw&utm_campaign=yelp_api_v3&utm_medium=api_v3_business_search&utm_source=a2JdNtFqB-C38ga_06BHvw", "review_count": 13, "categories": [{"alias": "breakfast_brunch", "title": "Breakfast & Brunch"}, {"alias": "cocktailbars", "title": "Cocktail Bars"}, {"alias": "cafes", "title": "Cafes"}], "rating": 4.0, "coordinates": {"latitude": 45.522867, "longitude": -73.577078}, "transactions": [], "location": {"address1": "500 Rue Rachel E", "address2": "", "address3": null, "city": "Montreal", "zip_code": "H2J 2H2", "country": "CA", "state": "QC", "display_address": ["500 Rue Rachel E", "Montreal, QC H2J 2H2", "Canada"]}, "phone": "+15145244446", "display_phone": "+1 514-524-4446", "distance": 3034.017636606708}, {"id": "EFOVNo26MCPe5dQC0HBifQ", "alias": "le-vieux-dublin-pub-and-restaurant-montreal-2", "name": "Le Vieux Dublin Pub & Restaurant", "image_url": "https://s3-media4.fl.yelpcdn.com/bphoto/NbZaBO1J7RbyqEHk23GlpQ/o.jpg", "is_closed": false, "url": "https://www.yelp.com/biz/le-vieux-dublin-pub-and-restaurant-montreal-2?adjust_creative=a2JdNtFqB-C38ga_06BHvw&utm_campaign=yelp_api_v3&utm_medium=api_v3_business_search&utm_source=a2JdNtFqB-C38ga_06BHvw", "review_count": 47, "categories": [{"alias": "pubs", "title": "Pubs"}, {"alias": "irish", "title": "Irish"}], "rating": 3.0, "coordinates": {"latitude": 45.50303, "longitude": -73.56838}, "transactions": [], "price": "$$", "location": {"address1": "636 Rue Cathcart", "address2": "", "address3": "", "city": "Montreal", "zip_code": "H3B 1L9", "country": "CA", "state": "QC", "display_address": ["636 Rue Cathcart", "Montreal, QC H3B 1L9", "Canada"]}, "phone": "+15148614448", "display_phone": "+1 514-861-4448", "distance": 776.9707006607114}, {"id": "SNMkOEOmJndZTXuyGVc8hw", "alias": "the-farsides-montréal", "name": "The Farsides", "image_url": "https://s3-media1.fl.yelpcdn.com/bphoto/pEjjL4JudfovWMys7XJD8g/o.jpg", "is_closed": false, "url": "https://www.yelp.com/biz/the-farsides-montr%C3%A9al?adjust_creative=a2JdNtFqB-C38ga_06BHvw&utm_campaign=yelp_api_v3&utm_medium=api_v3_business_search&utm_source=a2JdNtFqB-C38ga_06BHvw", "review_count": 16, "categories": [{"alias": "thai", "title": "Thai"}, {"alias": "hawaiian", "title": "Hawaiian"}, {"alias": "cocktailbars", "title": "Cocktail Bars"}], "rating": 3.5, "coordinates": {"latitude": 45.5000683, "longitude": -73.5600197}, "transactions": [], "price": "$$", "location": {"address1": "690 Rue Notre-Dame O", "address2": "", "address3": null, "city": "Montreal", "zip_code": "H3C 0S5", "country": "CA", "state": "QC", "display_address": ["690 Rue Notre-Dame O", "Montreal, QC H3C 0S5", "Canada"]}, "phone": "+15149518454", "display_phone": "+1 514-951-8454", "distance": 863.5342051785874}, {"id": "kPus4tQ0VACjxyf6EyH42w", "alias": "winnie-bar-restaurant-montréal-2", "name": "Winnie Bar Restaurant", "image_url": "https://s3-media2.fl.yelpcdn.com/bphoto/Qlo8FfkDLmEi9mFQ7w41yg/o.jpg", "is_closed": false, "url": "https://www.yelp.com/biz/winnie-bar-restaurant-montr%C3%A9al-2?adjust_creative=a2JdNtFqB-C38ga_06BHvw&utm_campaign=yelp_api_v3&utm_medium=api_v3_business_search&utm_source=a2JdNtFqB-C38ga_06BHvw", "review_count": 22, "categories": [{"alias": "pubs", "title": "Pubs"}, {"alias": "fishnchips", "title": "Fish & Chips"}, {"alias": "tradamerican", "title": "American (Traditional)"}], "rating": 3.5, "coordinates": {"latitude": 45.498, "longitude": -73.57682}, "transactions": [], "price": "$$", "location": {"address1": "1455-59 Rue Crescent", "address2": "", "address3": "", "city": "Montreal", "zip_code": "H3G 2B2", "country": "CA", "state": "QC", "display_address": ["1455-59 Rue Crescent", "Montreal, QC H3G 2B2", "Canada"]}, "phone": "+15142883814", "display_phone": "+1 514-288-3814", "distance": 613.9710374469382}, {"id": "ZntrjpC6xAPHPVIYc_TUmA", "alias": "john-michaels-pub-montréal", "name": "John Michael's Pub", "image_url": "https://s3-media4.fl.yelpcdn.com/bphoto/r38jsMZLkbvZwwXicmmi3Q/o.jpg", "is_closed": false, "url": "https://www.yelp.com/biz/john-michaels-pub-montr%C3%A9al?adjust_creative=a2JdNtFqB-C38ga_06BHvw&utm_campaign=yelp_api_v3&utm_medium=api_v3_business_search&utm_source=a2JdNtFqB-C38ga_06BHvw", "review_count": 35, "categories": [{"alias": "pubs", "title": "Pubs"}, {"alias": "burgers", "title": "Burgers"}, {"alias": "sandwiches", "title": "Sandwiches"}], "rating": 3.0, "coordinates": {"latitude": 45.5078921, "longitude": -73.5539921}, "transactions": [], "price": "$$", "location": {"address1": "458 Place Jacques-Cartier", "address2": "", "address3": null, "city": "Montreal", "zip_code": "H2Y 3B3", "country": "CA", "state": "QC", "display_address": ["458 Place Jacques-Cartier", "Montreal, QC H2Y 3B3", "Canada"]}, "phone": "+15149036998", "display_phone": "+1 514-903-6998", "distance": 1779.4056010455647}, {"id": "PkJX4MKJwiDsWcSgsXCBKg", "alias": "the-lockhart-montréal", "name": "The Lockhart", "image_url": "https://s3-media2.fl.yelpcdn.com/bphoto/o9ihXwyE0uCiijv9oKDBvw/o.jpg", "is_closed": false, "url": "https://www.yelp.com/biz/the-lockhart-montr%C3%A9al?adjust_creative=a2JdNtFqB-C38ga_06BHvw&utm_campaign=yelp_api_v3&utm_medium=api_v3_business_search&utm_source=a2JdNtFqB-C38ga_06BHvw", "review_count": 37, "categories": [{"alias": "cocktailbars", "title": "Cocktail Bars"}, {"alias": "poutineries", "title": "Poutineries"}], "rating": 3.0, "coordinates": {"latitude": 45.5206090624707, "longitude": -73.5751708563678}, "transactions": [], "price": "$$", "location": {"address1": "3979 Rue Saint-Denis", "address2": "", "address3": null, "city": "Montreal", "zip_code": "H2W 2M4", "country": "CA", "state": "QC", "display_address": ["3979 Rue Saint-Denis", "Montreal, QC H2W 2M4", "Canada"]}, "phone": "+15143791208", "display_phone": "+1 514-379-1208", "distance": 2760.3704643240426}, {"id": "MhINNBBwzGn4-n_YI67wog", "alias": "mvp-bar-sportif-montréal-2", "name": "MVP Bar Sportif", "image_url": "https://s3-media4.fl.yelpcdn.com/bphoto/XjRvZWuXDnwQEVWWnTisKw/o.jpg", "is_closed": false, "url": "https://www.yelp.com/biz/mvp-bar-sportif-montr%C3%A9al-2?adjust_creative=a2JdNtFqB-C38ga_06BHvw&utm_campaign=yelp_api_v3&utm_medium=api_v3_business_search&utm_source=a2JdNtFqB-C38ga_06BHvw", "review_count": 36, "categories": [{"alias": "sportsbars", "title": "Sports Bars"}, {"alias": "tex-mex", "title": "Tex-Mex"}, {"alias": "pizza", "title": "Pizza"}], "rating": 3.0, "coordinates": {"latitude": 45.511787, "longitude": -73.561947}, "transactions": [], "price": "$$", "location": {"address1": "200 Rue Sainte-Catherine E", "address2": "", "address3": "", "city": "Montreal", "zip_code": "H2X 1L4", "country": "CA", "state": "QC", "display_address": ["200 Rue Sainte-Catherine E", "Montreal, QC H2X 1L4", "Canada"]}, "phone": "+15148757171", "display_phone": "+1 514-875-7171", "distance": 1838.4007031082729}, {"id": "hXtNcyeJ4an8F-L7cuLreA", "alias": "bar-bara-montréal", "name": "Bar Bara", "image_url": "https://s3-media3.fl.yelpcdn.com/bphoto/lM-TaQVDO2_vsJQ-pxe_Dg/o.jpg", "is_closed": false, "url": "https://www.yelp.com/biz/bar-bara-montr%C3%A9al?adjust_creative=a2JdNtFqB-C38ga_06BHvw&utm_campaign=yelp_api_v3&utm_medium=api_v3_business_search&utm_source=a2JdNtFqB-C38ga_06BHvw", "review_count": 4, "categories": [{"alias": "italian", "title": "Italian"}, {"alias": "wine_bars", "title": "Wine Bars"}], "rating": 5.0, "coordinates": {"latitude": 45.474367701926106, "longitude": -73.58724463519708}, "transactions": [], "location": {"address1": "4450 Rue Notre-Dame O", "address2": "", "address3": null, "city": "Montreal", "zip_code": "H4C 1S1", "country": "CA", "state": "QC", "display_address": ["4450 Rue Notre-Dame O", "Montreal, QC H4C 1S1", "Canada"]}, "phone": "+14383757209", "display_phone": "+1 438-375-7209", "distance": 2788.473879051353}, {"id": "yQUXMWSA8H7wvkLa4iCD8g", "alias": "la-station-des-sports-montréal-4", "name": "La Station des Sports", "image_url": "https://s3-media2.fl.yelpcdn.com/bphoto/EmpiIO1Soy5kJpmdkO5fSA/o.jpg", "is_closed": false, "url": "https://www.yelp.com/biz/la-station-des-sports-montr%C3%A9al-4?adjust_creative=a2JdNtFqB-C38ga_06BHvw&utm_campaign=yelp_api_v3&utm_medium=api_v3_business_search&utm_source=a2JdNtFqB-C38ga_06BHvw", "review_count": 48, "categories": [{"alias": "sportsbars", "title": "Sports Bars"}, {"alias": "bbq", "title": "Barbeque"}, {"alias": "burgers", "title": "Burgers"}], "rating": 3.0, "coordinates": {"latitude": 45.51611723673613, "longitude": -73.55806659591298}, "transactions": [], "price": "$$", "location": {"address1": "862 Rue Sainte-Catherine E", "address2": "", "address3": "", "city": "Montreal", "zip_code": "H2L 2E3", "country": "CA", "state": "QC", "display_address": ["862 Rue Sainte-Catherine E", "Montreal, QC H2L 2E3", "Canada"]}, "phone": "+15149038571", "display_phone": "+1 514-903-8571", "distance": 2394.767425071646}, {"id": "dkrWH6vG9SqzLRzC3rB10A", "alias": "taverne-1909-signé-st-hubert-montréal-3", "name": "Taverne 1909 signé St-Hubert", "image_url": "https://s3-media1.fl.yelpcdn.com/bphoto/KkwSgL3E-9hW2Lrqt3zM2w/o.jpg", "is_closed": false, "url": "https://www.yelp.com/biz/taverne-1909-sign%C3%A9-st-hubert-montr%C3%A9al-3?adjust_creative=a2JdNtFqB-C38ga_06BHvw&utm_campaign=yelp_api_v3&utm_medium=api_v3_business_search&utm_source=a2JdNtFqB-C38ga_06BHvw", "review_count": 36, "categories": [{"alias": "sportsbars", "title": "Sports Bars"}, {"alias": "steak", "title": "Steakhouses"}, {"alias": "burgers", "title": "Burgers"}], "rating": 3.0, "coordinates": {"latitude": 45.496298, "longitude": -73.569782}, "transactions": [], "price": "$$", "location": {"address1": "1280 Avenue des Canadiens-de-Montréal", "address2": null, "address3": null, "city": "Montreal", "zip_code": "H3B 5G0", "country": "CA", "state": "QC", "display_address": ["1280 Avenue des Canadiens-de-Montréal", "Montreal, QC H3B 5G0", "Canada"]}, "phone": "+15144169809", "display_phone": "+1 514-416-9809", "distance": 33.56198303743352}, {"id": "JsWnBDHZW1HFkgJVYCaEfg", "alias": "le-blossom-montréal", "name": "Le Blossom", "image_url": "https://s3-media4.fl.yelpcdn.com/bphoto/fOOm_pXeSgId416vdTpo3g/o.jpg", "is_closed": false, "url": "https://www.yelp.com/biz/le-blossom-montr%C3%A9al?adjust_creative=a2JdNtFqB-C38ga_06BHvw&utm_campaign=yelp_api_v3&utm_medium=api_v3_business_search&utm_source=a2JdNtFqB-C38ga_06BHvw", "review_count": 25, "categories": [{"alias": "japanese", "title": "Japanese"}, {"alias": "cocktailbars", "title": "Cocktail Bars"}], "rating": 3.0, "coordinates": {"latitude": 45.518375, "longitude": -73.558611}, "transactions": [], "price": "$$", "location": {"address1": "1101 Boulevard de Maisonneuve E", "address2": "", "address3": null, "city": "Montreal", "zip_code": "H2L 1Z6", "country": "CA", "state": "QC", "display_address": ["1101 Boulevard de Maisonneuve E", "Montreal, QC H2L 1Z6", "Canada"]}, "phone": "+15143793699", "display_phone": "+1 514-379-3699", "distance": 2615.61697398334}, {"id": "dnVzCntyNuXbga8yIIyjJg", "alias": "la-canting-montréal", "name": "La Canting", "image_url": "https://s3-media3.fl.yelpcdn.com/bphoto/v6V_zAfT7Qk9JIVRpO6Bnw/o.jpg", "is_closed": false, "url": "https://www.yelp.com/biz/la-canting-montr%C3%A9al?adjust_creative=a2JdNtFqB-C38ga_06BHvw&utm_campaign=yelp_api_v3&utm_medium=api_v3_business_search&utm_source=a2JdNtFqB-C38ga_06BHvw", "review_count": 4, "categories": [{"alias": "wine_bars", "title": "Wine Bars"}, {"alias": "panasian", "title": "Pan Asian"}, {"alias": "beerbar", "title": "Beer Bar"}], "rating": 5.0, "coordinates": {"latitude": 45.485013, "longitude": -73.563402}, "transactions": [], "location": {"address1": "1720 Rue Saint-Patrick", "address2": "", "address3": null, "city": "Montreal", "zip_code": "H3K 2H2", "country": "CA", "state": "QC", "display_address": ["1720 Rue Saint-Patrick", "Montreal, QC H3K 2H2", "Canada"]}, "phone": "+15149372555", "display_phone": "+1 514-937-2555", "distance": 1320.861073453186}, {"id": "jsaZ2JDgCMl2uk2cRmVPjg", "alias": "pub-st-paul-montréal-3", "name": "Pub St-Paul", "image_url": "https://s3-media3.fl.yelpcdn.com/bphoto/Z-dYbvV-gFeYTTItyBtNoA/o.jpg", "is_closed": false, "url": "https://www.yelp.com/biz/pub-st-paul-montr%C3%A9al-3?adjust_creative=a2JdNtFqB-C38ga_06BHvw&utm_campaign=yelp_api_v3&utm_medium=api_v3_business_search&utm_source=a2JdNtFqB-C38ga_06BHvw", "review_count": 36, "categories": [{"alias": "musicvenues", "title": "Music Venues"}, {"alias": "pubs", "title": "Pubs"}, {"alias": "newcanadian", "title": "Canadian (New)"}], "rating": 3.0, "coordinates": {"latitude": 45.5069, "longitude": -73.5526}, "transactions": [], "price": "$$", "location": {"address1": "124 Rue Saint-Paul Est", "address2": "", "address3": "", "city": "Montreal", "zip_code": "H2Y 1G6", "country": "CA", "state": "QC", "display_address": ["124 Rue Saint-Paul Est", "Montreal, QC H2Y 1G6", "Canada"]}, "phone": "+15148740485", "display_phone": "+1 514-874-0485", "distance": 1784.3160711559701}, {"id": "MyDFeohoa_sZoQHycqO3wA", "alias": "la-station-des-sports-montréal-3", "name": "La Station des Sports", "image_url": "https://s3-media4.fl.yelpcdn.com/bphoto/JKGMkUiFnOwqNkQiNnPnKg/o.jpg", "is_closed": false, "url": "https://www.yelp.com/biz/la-station-des-sports-montr%C3%A9al-3?adjust_creative=a2JdNtFqB-C38ga_06BHvw&utm_campaign=yelp_api_v3&utm_medium=api_v3_business_search&utm_source=a2JdNtFqB-C38ga_06BHvw", "review_count": 96, "categories": [{"alias": "burgers", "title": "Burgers"}, {"alias": "sportsbars", "title": "Sports Bars"}, {"alias": "bbq", "title": "Barbeque"}], "rating": 2.5, "coordinates": {"latitude": 45.49185, "longitude": -73.58205}, "transactions": [], "price": "$$", "location": {"address1": "2051 Rue Sainte-Catherine Ouest", "address2": "", "address3": "", "city": "Montreal", "zip_code": "H3H 1M6", "country": "CA", "state": "QC", "display_address": ["2051 Rue Sainte-Catherine Ouest", "Montreal, QC H3H 1M6", "Canada"]}, "phone": "+15149315559", "display_phone": "+1 514-931-5559", "distance": 1083.514981897008}, {"id": "QJVdk64jVqoa5qG05konog", "alias": "bar-majesthé-montréal-5", "name": "Bar MajesThé", "image_url": "https://s3-media2.fl.yelpcdn.com/bphoto/ixpFr4A5zRmKipipX84u9Q/o.jpg", "is_closed": false, "url": "https://www.yelp.com/biz/bar-majesth%C3%A9-montr%C3%A9al-5?adjust_creative=a2JdNtFqB-C38ga_06BHvw&utm_campaign=yelp_api_v3&utm_medium=api_v3_business_search&utm_source=a2JdNtFqB-C38ga_06BHvw", "review_count": 3, "categories": [{"alias": "taiwanese", "title": "Taiwanese"}, {"alias": "asianfusion", "title": "Asian Fusion"}, {"alias": "cocktailbars", "title": "Cocktail Bars"}], "rating": 5.0, "coordinates": {"latitude": 45.50478, "longitude": -73.57261}, "transactions": [], "location": {"address1": "2077 Boulevard Robert-Bourassa", "address2": "", "address3": null, "city": "Montreal", "zip_code": "H3A 2M3", "country": "CA", "state": "QC", "display_address": ["2077 Boulevard Robert-Bourassa", "Montreal, QC H3A 2M3", "Canada"]}, "phone": "+15145435505", "display_phone": "+1 514-543-5505", "distance": 996.0568260897022}, {"id": "Cv5AfEnaaH65PvWa8GViUw", "alias": "café-mimosa-montréal-2", "name": "Café Mimosa", "image_url": "https://s3-media4.fl.yelpcdn.com/bphoto/KAVPAswAUgwcSvM7s0QLoQ/o.jpg", "is_closed": false, "url": "https://www.yelp.com/biz/caf%C3%A9-mimosa-montr%C3%A9al-2?adjust_creative=a2JdNtFqB-C38ga_06BHvw&utm_campaign=yelp_api_v3&utm_medium=api_v3_business_search&utm_source=a2JdNtFqB-C38ga_06BHvw", "review_count": 4, "categories": [{"alias": "breakfast_brunch", "title": "Breakfast & Brunch"}, {"alias": "cocktailbars", "title": "Cocktail Bars"}], "rating": 4.5, "coordinates": {"latitude": 45.5133917, "longitude": -73.5710835}, "transactions": [], "location": {"address1": "3509 Boulevard Saint-Laurent", "address2": null, "address3": "", "city": "Montreal", "zip_code": "H2X 2T6", "country": "CA", "state": "QC", "display_address": ["3509 Boulevard Saint-Laurent", "Montreal, QC H2X 2T6", "Canada"]}, "phone": "+14383751286", "display_phone": "+1 438-375-1286", "distance": 1920.3827291884672}, {"id": "cgYU1DKsvUgBvjp35ZimJQ", "alias": "pub-victoria-montréal-3", "name": "Pub Victoria", "image_url": "https://s3-media2.fl.yelpcdn.com/bphoto/sjD1J78JIh0WekU9C3kDEA/o.jpg", "is_closed": false, "url": "https://www.yelp.com/biz/pub-victoria-montr%C3%A9al-3?adjust_creative=a2JdNtFqB-C38ga_06BHvw&utm_campaign=yelp_api_v3&utm_medium=api_v3_business_search&utm_source=a2JdNtFqB-C38ga_06BHvw", "review_count": 12, "categories": [{"alias": "pubs", "title": "Pubs"}, {"alias": "steak", "title": "Steakhouses"}], "rating": 3.5, "coordinates": {"latitude": 45.49993, "longitude": -73.55993}, "transactions": [], "price": "$$", "location": {"address1": "698 Rue Notre-Dame O", "address2": "", "address3": "", "city": "Montreal", "zip_code": "H3C 1J2", "country": "CA", "state": "QC", "display_address": ["698 Rue Notre-Dame O", "Montreal, QC H3C 1J2", "Canada"]}, "phone": "+15148645060", "display_phone": "+1 514-864-5060", "distance": 857.4875658158471}, {"id": "mygjyR00ZtD3-ca8jb6PQA", "alias": "bâton-rouge-steakhouse-and-bar-montréal-26", "name": "Bâton Rouge Steakhouse & Bar", "image_url": "https://s3-media2.fl.yelpcdn.com/bphoto/GOQovLKX8I7pXdjcPpBL6A/o.jpg", "is_closed": false, "url": "https://www.yelp.com/biz/b%C3%A2ton-rouge-steakhouse-and-bar-montr%C3%A9al-26?adjust_creative=a2JdNtFqB-C38ga_06BHvw&utm_campaign=yelp_api_v3&utm_medium=api_v3_business_search&utm_source=a2JdNtFqB-C38ga_06BHvw", "review_count": 39, "categories": [{"alias": "seafood", "title": "Seafood"}, {"alias": "steak", "title": "Steakhouses"}, {"alias": "cocktailbars", "title": "Cocktail Bars"}], "rating": 2.5, "coordinates": {"latitude": 45.496007, "longitude": -73.571511}, "transactions": [], "price": "$$", "location": {"address1": "1050 Rue de la Montagne", "address2": "", "address3": "", "city": "Montreal", "zip_code": "H3G 1Y8", "country": "CA", "state": "QC", "display_address": ["1050 Rue de la Montagne", "Montreal, QC H3G 1Y8", "Canada"]}, "phone": "+15149319969", "display_phone": "+1 514-931-9969", "distance": 161.5225268054233}, {"id": "cHVoGbxT533a_nkMPijnuA", "alias": "fleurs-et-cadeaux-montréal", "name": "Fleurs et Cadeaux", "image_url": "https://s3-media3.fl.yelpcdn.com/bphoto/jD5UNx0xXHae7O5TuJdpeg/o.jpg", "is_closed": false, "url": "https://www.yelp.com/biz/fleurs-et-cadeaux-montr%C3%A9al?adjust_creative=a2JdNtFqB-C38ga_06BHvw&utm_campaign=yelp_api_v3&utm_medium=api_v3_business_search&utm_source=a2JdNtFqB-C38ga_06BHvw", "review_count": 3, "categories": [{"alias": "japanese", "title": "Japanese"}, {"alias": "wine_bars", "title": "Wine Bars"}, {"alias": "cafes", "title": "Cafes"}], "rating": 4.5, "coordinates": {"latitude": 45.506561, "longitude": -73.560507}, "transactions": [], "location": {"address1": "1002 Rue Saint-Urbain", "address2": null, "address3": "", "city": "Montreal", "zip_code": "H2Z 1K6", "country": "CA", "state": "QC", "display_address": ["1002 Rue Saint-Urbain", "Montreal, QC H2Z 1K6", "Canada"]}, "phone": "+15148664411", "display_phone": "+1 514-866-4411", "distance": 1354.746395209173}, {"id": "Xl2LzZ7AKZA5uSdCmdOluA", "alias": "le-milsa-montréal-5", "name": "Le Milsa", "image_url": "https://s3-media4.fl.yelpcdn.com/bphoto/zRFuwPQamwhdaCtojXVvvg/o.jpg", "is_closed": false, "url": "https://www.yelp.com/biz/le-milsa-montr%C3%A9al-5?adjust_creative=a2JdNtFqB-C38ga_06BHvw&utm_campaign=yelp_api_v3&utm_medium=api_v3_business_search&utm_source=a2JdNtFqB-C38ga_06BHvw", "review_count": 24, "categories": [{"alias": "brazilian", "title": "Brazilian"}, {"alias": "wine_bars", "title": "Wine Bars"}, {"alias": "bbq", "title": "Barbeque"}], "rating": 2.5, "coordinates": {"latitude": 45.497854, "longitude": -73.577414}, "transactions": [], "price": "$$$", "location": {"address1": "1476 Rue Crescent", "address2": "", "address3": null, "city": "Montreal", "zip_code": "H3G 2B6", "country": "CA", "state": "QC", "display_address": ["1476 Rue Crescent", "Montreal, QC H3G 2B6", "Canada"]}, "phone": "+15149850777", "display_phone": "+1 514-985-0777", "distance": 650.7276032655283}, {"id": "OixAX9U7ukSgEc8SIzScow", "alias": "resto-pub-100-génies-montréal", "name": "Resto-Pub 100 Génies", "image_url": "https://s3-media1.fl.yelpcdn.com/bphoto/heHMvAozhrYjZyT0Cxqyeg/o.jpg", "is_closed": false, "url": "https://www.yelp.com/biz/resto-pub-100-g%C3%A9nies-montr%C3%A9al?adjust_creative=a2JdNtFqB-C38ga_06BHvw&utm_campaign=yelp_api_v3&utm_medium=api_v3_business_search&utm_source=a2JdNtFqB-C38ga_06BHvw", "review_count": 7, "categories": [{"alias": "pubs", "title": "Pubs"}, {"alias": "burgers", "title": "Burgers"}, {"alias": "pizza", "title": "Pizza"}], "rating": 3.5, "coordinates": {"latitude": 45.4952876955146, "longitude": -73.5637321400047}, "transactions": [], "price": "$$", "location": {"address1": "530 Rue Peel", "address2": "", "address3": "", "city": "Montreal", "zip_code": "H3C 6M8", "country": "CA", "state": "QC", "display_address": ["530 Rue Peel", "Montreal, QC H3C 6M8", "Canada"]}, "phone": "+15143968892", "display_phone": "+1 514-396-8892", "distance": 454.51691195675835}, {"id": "XjbPr3o-YTsticeavLjTEg", "alias": "hooters-montréal-2", "name": "Hooters", "image_url": "https://s3-media1.fl.yelpcdn.com/bphoto/_pcj_BFbKk3OI7jpxaMgkQ/o.jpg", "is_closed": false, "url": "https://www.yelp.com/biz/hooters-montr%C3%A9al-2?adjust_creative=a2JdNtFqB-C38ga_06BHvw&utm_campaign=yelp_api_v3&utm_medium=api_v3_business_search&utm_source=a2JdNtFqB-C38ga_06BHvw", "review_count": 45, "categories": [{"alias": "sportsbars", "title": "Sports Bars"}, {"alias": "bbq", "title": "Barbeque"}], "rating": 2.0, "coordinates": {"latitude": 45.49775, "longitude": -73.57635}, "transactions": [], "price": "$$", "location": {"address1": "1433 Rue Crescent", "address2": null, "address3": "", "city": "Montreal", "zip_code": "H3G 2B2", "country": "CA", "state": "QC", "display_address": ["1433 Rue Crescent", "Montreal, QC H3G 2B2", "Canada"]}, "phone": "+15142662222", "display_phone": "+1 514-266-2222", "distance": 573.7088077823812}, {"id": "Y6zqMM_VI16v2icj7NYnsA", "alias": "le-boulevardier-montréal-2", "name": "Le Boulevardier", "image_url": "https://s3-media2.fl.yelpcdn.com/bphoto/-WK6v0lKFAxj0oVrCKT4rQ/o.jpg", "is_closed": false, "url": "https://www.yelp.com/biz/le-boulevardier-montr%C3%A9al-2?adjust_creative=a2JdNtFqB-C38ga_06BHvw&utm_campaign=yelp_api_v3&utm_medium=api_v3_business_search&utm_source=a2JdNtFqB-C38ga_06BHvw", "review_count": 3, "categories": [{"alias": "french", "title": "French"}, {"alias": "cocktailbars", "title": "Cocktail Bars"}], "rating": 4.5, "coordinates": {"latitude": 45.50244, "longitude": -73.5744}, "transactions": [], "location": {"address1": "2050 Rue Mansfield", "address2": "", "address3": null, "city": "Montreal", "zip_code": "H3A 1Y9", "country": "CA", "state": "QC", "display_address": ["2050 Rue Mansfield", "Montreal, QC H3A 1Y9", "Canada"]}, "phone": "+15149856072", "display_phone": "+1 514-985-6072", "distance": 799.3130245512114}, {"id": "F_vYbYgUremlFUqOR5HSeQ", "alias": "pastaga-montréal-2", "name": "Pastaga", "image_url": "https://s3-media2.fl.yelpcdn.com/bphoto/CWNf_3_TZFRyZsB6xMQxRQ/o.jpg", "is_closed": false, "url": "https://www.yelp.com/biz/pastaga-montr%C3%A9al-2?adjust_creative=a2JdNtFqB-C38ga_06BHvw&utm_campaign=yelp_api_v3&utm_medium=api_v3_business_search&utm_source=a2JdNtFqB-C38ga_06BHvw", "review_count": 3, "categories": [{"alias": "wine_bars", "title": "Wine Bars"}, {"alias": "cafes", "title": "Cafes"}], "rating": 4.5, "coordinates": {"latitude": 45.4985311757274, "longitude": -73.5521639477463}, "transactions": [], "location": {"address1": "400 Rue de la Commune O", "address2": "", "address3": null, "city": "Montreal", "zip_code": "H3C", "country": "CA", "state": "QC", "display_address": ["400 Rue de la Commune O", "Montreal, QC H3C", "Canada"]}, "phone": "+14383816389", "display_phone": "+1 438-381-6389", "distance": 1373.4501323117336}, {"id": "nbnbYeKwYnagTINWLOQYkQ", "alias": "local-legend-montréal", "name": "Local Legend", "image_url": "https://s3-media3.fl.yelpcdn.com/bphoto/30BdjGn1HlHncGnthylc1w/o.jpg", "is_closed": false, "url": "https://www.yelp.com/biz/local-legend-montr%C3%A9al?adjust_creative=a2JdNtFqB-C38ga_06BHvw&utm_campaign=yelp_api_v3&utm_medium=api_v3_business_search&utm_source=a2JdNtFqB-C38ga_06BHvw", "review_count": 4, "categories": [{"alias": "caribbean", "title": "Caribbean"}, {"alias": "lounges", "title": "Lounges"}, {"alias": "cocktailbars", "title": "Cocktail Bars"}], "rating": 3.5, "coordinates": {"latitude": 45.516353, "longitude": -73.578282}, "transactions": [], "location": {"address1": "3910 Boulevard Saint-Laurent", "address2": "", "address3": null, "city": "Montreal", "zip_code": "H2W 1Y2", "country": "CA", "state": "QC", "display_address": ["3910 Boulevard Saint-Laurent", "Montreal, QC H2W 1Y2", "Canada"]}, "phone": "+15149859999", "display_phone": "+1 514-985-9999", "distance": 2353.822444293963}, {"id": "L-xCDikUleQDJKcI8Uy9DQ", "alias": "unibar-montréal", "name": "Unibar", "image_url": "https://s3-media1.fl.yelpcdn.com/bphoto/Ogj2zusj-vo2uvFn8s0zNw/o.jpg", "is_closed": false, "url": "https://www.yelp.com/biz/unibar-montr%C3%A9al?adjust_creative=a2JdNtFqB-C38ga_06BHvw&utm_campaign=yelp_api_v3&utm_medium=api_v3_business_search&utm_source=a2JdNtFqB-C38ga_06BHvw", "review_count": 7, "categories": [{"alias": "cocktailbars", "title": "Cocktail Bars"}, {"alias": "burgers", "title": "Burgers"}], "rating": 3.0, "coordinates": {"latitude": 45.50432, "longitude": -73.55494}, "transactions": [], "price": "$$", "location": {"address1": "404 Rue Saint-Sulpice", "address2": "", "address3": null, "city": "Montreal", "zip_code": "H2Y 2V5", "country": "CA", "state": "QC", "display_address": ["404 Rue Saint-Sulpice", "Montreal, QC H2Y 2V5", "Canada"]}, "phone": "+15148449663", "display_phone": "+1 514-844-9663", "distance": 1471.320997450364}, {"id": "u7DrbDVFnAaJ3-zkGbkacw", "alias": "place-deschamps-montréal", "name": "Place Deschamps", "image_url": "https://s3-media3.fl.yelpcdn.com/bphoto/k3Ylzvz9sx6qllX38f6kvQ/o.jpg", "is_closed": false, "url": "https://www.yelp.com/biz/place-deschamps-montr%C3%A9al?adjust_creative=a2JdNtFqB-C38ga_06BHvw&utm_campaign=yelp_api_v3&utm_medium=api_v3_business_search&utm_source=a2JdNtFqB-C38ga_06BHvw", "review_count": 5, "categories": [{"alias": "wine_bars", "title": "Wine Bars"}, {"alias": "french", "title": "French"}], "rating": 3.0, "coordinates": {"latitude": 45.507987, "longitude": -73.56634}, "transactions": [], "price": "$$$", "location": {"address1": "175 Rue Sainte-Catherine E", "address2": "", "address3": "", "city": "Montreal", "zip_code": "H2X 1Z8", "country": "CA", "state": "QC", "display_address": ["175 Rue Sainte-Catherine E", "Montreal, QC H2X 1Z8", "Canada"]}, "phone": "+15145643155", "display_phone": "+1 514-564-3155", "distance": 1342.5240966748631}, {"id": "aGH4ADggSvj8TvxMzYJP6A", "alias": "bazarette-montréal-2", "name": "Bazarette", "image_url": "https://s3-media4.fl.yelpcdn.com/bphoto/Aq8rtXH8frJNn9sWB7Wbwg/o.jpg", "is_closed": false, "url": "https://www.yelp.com/biz/bazarette-montr%C3%A9al-2?adjust_creative=a2JdNtFqB-C38ga_06BHvw&utm_campaign=yelp_api_v3&utm_medium=api_v3_business_search&utm_source=a2JdNtFqB-C38ga_06BHvw", "review_count": 2, "categories": [{"alias": "wine_bars", "title": "Wine Bars"}, {"alias": "cafes", "title": "Cafes"}], "rating": 4.0, "coordinates": {"latitude": 45.4963404, "longitude": -73.5701018}, "transactions": [], "location": {"address1": "1280 Avenue des Canadiens-de-Montréal", "address2": "", "address3": null, "city": "Montreal", "zip_code": "H3G 5G0", "country": "CA", "state": "QC", "display_address": ["1280 Avenue des Canadiens-de-Montréal", "Montreal, QC H3G 5G0", "Canada"]}, "phone": "+15149299463", "display_phone": "+1 514-929-9463", "distance": 33.3261337531633}, {"id": "xOC7kCRmCC-SuE_V83eiyg", "alias": "resto-bar-le-kube-montréal", "name": "Resto-Bar le Kube", "image_url": "https://s3-media2.fl.yelpcdn.com/bphoto/mOWXzODYJ1rWtMfpwqxOGA/o.jpg", "is_closed": false, "url": "https://www.yelp.com/biz/resto-bar-le-kube-montr%C3%A9al?adjust_creative=a2JdNtFqB-C38ga_06BHvw&utm_campaign=yelp_api_v3&utm_medium=api_v3_business_search&utm_source=a2JdNtFqB-C38ga_06BHvw", "review_count": 4, "categories": [{"alias": "french", "title": "French"}, {"alias": "pubs", "title": "Pubs"}], "rating": 3.0, "coordinates": {"latitude": 45.499347, "longitude": -73.564925}, "transactions": [], "location": {"address1": "900 Rue de la Gauchetière O", "address2": "", "address3": null, "city": "Montreal", "zip_code": "H5A 1E4", "country": "CA", "state": "QC", "display_address": ["900 Rue de la Gauchetière O", "Montreal, QC H5A 1E4", "Canada"]}, "phone": "+15148782332", "display_phone": "+1 514-878-2332", "distance": 503.517091975452}, {"id": "ZIw4cR1oAhTCq3kqiDR7nw", "alias": "karisma-montréal", "name": "Karisma", "image_url": "https://s3-media3.fl.yelpcdn.com/bphoto/SoIKaev2w1LBy_GHk1cQVw/o.jpg", "is_closed": false, "url": "https://www.yelp.com/biz/karisma-montr%C3%A9al?adjust_creative=a2JdNtFqB-C38ga_06BHvw&utm_campaign=yelp_api_v3&utm_medium=api_v3_business_search&utm_source=a2JdNtFqB-C38ga_06BHvw", "review_count": 1, "categories": [{"alias": "mexican", "title": "Mexican"}, {"alias": "cocktailbars", "title": "Cocktail Bars"}], "rating": 5.0, "coordinates": {"latitude": 45.52143, "longitude": -73.59385}, "transactions": [], "location": {"address1": "114 Avenue Laurier O", "address2": null, "address3": "", "city": "Montreal", "zip_code": "H2T 2N7", "country": "CA", "state": "QC", "display_address": ["114 Avenue Laurier O", "Montreal, QC H2T 2N7", "Canada"]}, "phone": "+15142779500", "display_phone": "+1 514-277-9500", "distance": 3403.9068115105465}, {"id": "F0Lad1eaVRATQ2dyjW1nxg", "alias": "brasseur-ye-olde-orchard-montréal", "name": "Brasseur Ye Olde Orchard", "image_url": "", "is_closed": false, "url": "https://www.yelp.com/biz/brasseur-ye-olde-orchard-montr%C3%A9al?adjust_creative=a2JdNtFqB-C38ga_06BHvw&utm_campaign=yelp_api_v3&utm_medium=api_v3_business_search&utm_source=a2JdNtFqB-C38ga_06BHvw", "review_count": 1, "categories": [{"alias": "pubs", "title": "Pubs"}, {"alias": "brasseries", "title": "Brasseries"}], "rating": 5.0, "coordinates": {"latitude": 45.51909, "longitude": -73.59666}, "transactions": [], "location": {"address1": "381 Avenue Laurier O", "address2": null, "address3": "", "city": "Montreal", "zip_code": "H2V", "country": "CA", "state": "QC", "display_address": ["381 Avenue Laurier O", "Montreal, QC H2V", "Canada"]}, "phone": "+15143791569", "display_phone": "+1 514-379-1569", "distance": 3326.9058636371897}, {"id": "WVmNSlWhsQGDseVzecJQNw", "alias": "notkins-montréal-3", "name": "Notkins", "image_url": "", "is_closed": false, "url": "https://www.yelp.com/biz/notkins-montr%C3%A9al-3?adjust_creative=a2JdNtFqB-C38ga_06BHvw&utm_campaign=yelp_api_v3&utm_medium=api_v3_business_search&utm_source=a2JdNtFqB-C38ga_06BHvw", "review_count": 1, "categories": [{"alias": "cocktailbars", "title": "Cocktail Bars"}, {"alias": "seafood", "title": "Seafood"}], "rating": 5.0, "coordinates": {"latitude": 45.504985, "longitude": -73.5637947}, "transactions": [], "location": {"address1": "1101 Rue de Bleury", "address2": "", "address3": null, "city": "Montreal", "zip_code": "H2Z 1N1", "country": "CA", "state": "QC", "display_address": ["1101 Rue de Bleury", "Montreal, QC H2Z 1N1", "Canada"]}, "phone": "+15148661101", "display_phone": "+1 514-866-1101", "distance": 1077.3955051627884}, {"id": "7LGZNBNxWyUnTvjfW_XtGg", "alias": "resto-keela-montréal", "name": "Resto Keela", "image_url": "https://s3-media1.fl.yelpcdn.com/bphoto/my7LuNaVnYjUvzPr-jkb7Q/o.jpg", "is_closed": false, "url": "https://www.yelp.com/biz/resto-keela-montr%C3%A9al?adjust_creative=a2JdNtFqB-C38ga_06BHvw&utm_campaign=yelp_api_v3&utm_medium=api_v3_business_search&utm_source=a2JdNtFqB-C38ga_06BHvw", "review_count": 1, "categories": [{"alias": "modern_european", "title": "Modern European"}, {"alias": "cocktailbars", "title": "Cocktail Bars"}], "rating": 5.0, "coordinates": {"latitude": 45.516995, "longitude": -73.5556896}, "transactions": [], "location": {"address1": "1237 Rue Atateken", "address2": null, "address3": "", "city": "Montreal", "zip_code": "H2L 3K9", "country": "CA", "state": "QC", "display_address": ["1237 Rue Atateken", "Montreal, QC H2L 3K9", "Canada"]}, "phone": "+15145287617", "display_phone": "+1 514-528-7617", "distance": 2557.627257807365}, {"id": "kXMvB73ZL0rVqjMZRyjMFw", "alias": "loam-montréal", "name": "Loam", "image_url": "", "is_closed": false, "url": "https://www.yelp.com/biz/loam-montr%C3%A9al?adjust_creative=a2JdNtFqB-C38ga_06BHvw&utm_campaign=yelp_api_v3&utm_medium=api_v3_business_search&utm_source=a2JdNtFqB-C38ga_06BHvw", "review_count": 1, "categories": [{"alias": "wine_bars", "title": "Wine Bars"}, {"alias": "newcanadian", "title": "Canadian (New)"}], "rating": 5.0, "coordinates": {"latitude": 45.51019, "longitude": -73.55222}, "transactions": [], "location": {"address1": "400 Rue Notre-Dame E", "address2": "", "address3": null, "city": "Montreal", "zip_code": "H2Y 1C8", "country": "CA", "state": "QC", "display_address": ["400 Rue Notre-Dame E", "Montreal, QC H2Y 1C8", "Canada"]}, "phone": "+15146625626", "display_phone": "+1 514-662-5626", "distance": 2061.4538410643954}, {"id": "FilyX4Xuvue3saRHS2ID-A", "alias": "le-speakeasy-montréal-5", "name": "Le Speakeasy", "image_url": "", "is_closed": false, "url": "https://www.yelp.com/biz/le-speakeasy-montr%C3%A9al-5?adjust_creative=a2JdNtFqB-C38ga_06BHvw&utm_campaign=yelp_api_v3&utm_medium=api_v3_business_search&utm_source=a2JdNtFqB-C38ga_06BHvw", "review_count": 1, "categories": [{"alias": "cocktailbars", "title": "Cocktail Bars"}, {"alias": "speakeasies", "title": "Speakeasies"}, {"alias": "seafood", "title": "Seafood"}], "rating": 5.0, "coordinates": {"latitude": 45.49946, "longitude": -73.5558}, "transactions": [], "location": {"address1": "120 Rue McGill", "address2": "", "address3": null, "city": "Montreal", "zip_code": "H2Y 2E5", "country": "CA", "state": "QC", "display_address": ["120 Rue McGill", "Montreal, QC H2Y 2E5", "Canada"]}, "phone": "+15149037710", "display_phone": "+1 514-903-7710", "distance": 1116.9964967334347}, {"id": "OXwTDAjZOTrzG1gIqXVJ2A", "alias": "mythik-montréal", "name": "Mythik", "image_url": "https://s3-media2.fl.yelpcdn.com/bphoto/XicuGg3YJBKJZtlfTPewRQ/o.jpg", "is_closed": false, "url": "https://www.yelp.com/biz/mythik-montr%C3%A9al?adjust_creative=a2JdNtFqB-C38ga_06BHvw&utm_campaign=yelp_api_v3&utm_medium=api_v3_business_search&utm_source=a2JdNtFqB-C38ga_06BHvw", "review_count": 2, "categories": [{"alias": "cocktailbars", "title": "Cocktail Bars"}, {"alias": "tapas", "title": "Tapas Bars"}], "rating": 3.0, "coordinates": {"latitude": 45.496032, "longitude": -73.569481}, "transactions": [], "location": {"address1": "1909 Avenue des Canadiens-de-Montréal", "address2": "", "address3": "Centre Bell", "city": "Montreal", "zip_code": "H4B 5G0", "country": "CA", "state": "QC", "display_address": ["1909 Avenue des Canadiens-de-Montréal", "Centre Bell", "Montreal, QC H4B 5G0", "Canada"]}, "phone": "+15149895151", "display_phone": "+1 514-989-5151", "distance": 9.245664138653263}, {"id": "UtzPrNPY0d6jh3VHiVvzIg", "alias": "le-buddah-montréal", "name": "Le Buddah", "image_url": "https://s3-media2.fl.yelpcdn.com/bphoto/dvPiwHcaPMO3nbdQlGNLUA/o.jpg", "is_closed": false, "url": "https://www.yelp.com/biz/le-buddah-montr%C3%A9al?adjust_creative=a2JdNtFqB-C38ga_06BHvw&utm_campaign=yelp_api_v3&utm_medium=api_v3_business_search&utm_source=a2JdNtFqB-C38ga_06BHvw", "review_count": 1, "categories": [{"alias": "vegan", "title": "Vegan"}, {"alias": "cocktailbars", "title": "Cocktail Bars"}], "rating": 4.0, "coordinates": {"latitude": 45.4960793484753, "longitude": -73.5818579792976}, "transactions": [], "location": {"address1": "1620A Rue Sherbrooke O", "address2": "", "address3": null, "city": "Montreal", "zip_code": "H3H 1C9", "country": "CA", "state": "QC", "display_address": ["1620A Rue Sherbrooke O", "Montreal, QC H3H 1C9", "Canada"]}, "phone": "+15149338866", "display_phone": "+1 514-933-8866", "distance": 967.5876083755975}, {"id": "9RG83bP4YKGThE0csDTt4g", "alias": "le-porto-lounge-montréal", "name": "Le Porto Lounge", "image_url": "https://s3-media3.fl.yelpcdn.com/bphoto/GzWzbQYcaCXnkB1FwiWBNA/o.jpg", "is_closed": false, "url": "https://www.yelp.com/biz/le-porto-lounge-montr%C3%A9al?adjust_creative=a2JdNtFqB-C38ga_06BHvw&utm_campaign=yelp_api_v3&utm_medium=api_v3_business_search&utm_source=a2JdNtFqB-C38ga_06BHvw", "review_count": 1, "categories": [{"alias": "cocktailbars", "title": "Cocktail Bars"}, {"alias": "tapas", "title": "Tapas Bars"}, {"alias": "venues", "title": "Venues & Event Spaces"}], "rating": 4.0, "coordinates": {"latitude": 45.4791442, "longitude": -73.5816205}, "transactions": [], "location": {"address1": "3716 Rue Notre-Dame O", "address2": "", "address3": null, "city": "Montreal", "zip_code": "H4C 1P7", "country": "CA", "state": "QC", "display_address": ["3716 Rue Notre-Dame O", "Montreal, QC H4C 1P7", "Canada"]}, "phone": "+15148984064", "display_phone": "+1 514-898-4064", "distance": 2111.9522586169537}, {"id": "1zSIPwgzyR-OfMCVngsbtQ", "alias": "the-scoreboard-medicine-hat", "name": "The Scoreboard", "image_url": "https://s3-media4.fl.yelpcdn.com/bphoto/IKl_3kVjRRESa0GyY7oTQA/o.jpg", "is_closed": false, "url": "https://www.yelp.com/biz/the-scoreboard-medicine-hat?adjust_creative=a2JdNtFqB-C38ga_06BHvw&utm_campaign=yelp_api_v3&utm_medium=api_v3_business_search&utm_source=a2JdNtFqB-C38ga_06BHvw", "review_count": 3, "categories": [{"alias": "pubs", "title": "Pubs"}, {"alias": "lounges", "title": "Lounges"}, {"alias": "tradamerican", "title": "American (Traditional)"}], "rating": 2.5, "coordinates": {"latitude": 45.502963, "longitude": -73.568619}, "transactions": [], "price": "$", "location": {"address1": "3188 Dunmore Road SE", "address2": "", "address3": "", "city": "Medicine Hat", "zip_code": "T1B 2X2", "country": "CA", "state": "AB", "display_address": ["3188 Dunmore Road SE", "Medicine Hat, AB T1B 2X2", "Canada"]}, "phone": "+14035296066", "display_phone": "+1 403-529-6066", "distance": 764.6151409888032}, {"id": "7bdU3QMrMHwvm9D2H6VV9A", "alias": "arem-restaurant-montréal", "name": "Arem Restaurant", "image_url": "https://s3-media3.fl.yelpcdn.com/bphoto/MzBVRCMaqyxSG-16l3sZnw/o.jpg", "is_closed": false, "url": "https://www.yelp.com/biz/arem-restaurant-montr%C3%A9al?adjust_creative=a2JdNtFqB-C38ga_06BHvw&utm_campaign=yelp_api_v3&utm_medium=api_v3_business_search&utm_source=a2JdNtFqB-C38ga_06BHvw", "review_count": 3, "categories": [{"alias": "turkish", "title": "Turkish"}, {"alias": "buffets", "title": "Buffets"}, {"alias": "wine_bars", "title": "Wine Bars"}], "rating": 1.5, "coordinates": {"latitude": 45.4883504, "longitude": -73.5660372}, "transactions": [], "price": "$$", "location": {"address1": "1619 Rue William", "address2": "Suite B", "address3": "", "city": "Montreal", "zip_code": "H3J 1R1", "country": "CA", "state": "QC", "display_address": ["1619 Rue William", "Suite B", "Montreal, QC H3J 1R1", "Canada"]}, "phone": "+15148461234", "display_phone": "+1 514-846-1234", "distance": 902.8740736957527}], "absolute total": 90, "total": 90}