{"league": "NFL", "team": "New York Jets", "stadium": "MetLife Stadium", "stadium latitude": 40.813528000000005, "stadium longitude": -74.074361, "radius": "3000 meters", "city": "East Rutherford", "state": "New Jersey", "businesses": [{"id": "ZSk6oFWU7CE8yH-tVVUp8Q", "alias": "blackjack-mulligans-secaucus-secaucus", "name": "Blackjack Mulligans Secaucus", "image_url": "https://s3-media2.fl.yelpcdn.com/bphoto/3yBkNQGrItqexeHWBA6d6A/o.jpg", "is_closed": false, "url": "https://www.yelp.com/biz/blackjack-mulligans-secaucus-secaucus?adjust_creative=a2JdNtFqB-C38ga_06BHvw&utm_campaign=yelp_api_v3&utm_medium=api_v3_business_search&utm_source=a2JdNtFqB-C38ga_06BHvw", "review_count": 115, "categories": [{"alias": "irish_pubs", "title": "Irish Pub"}, {"alias": "tradamerican", "title": "American (Traditional)"}, {"alias": "sportsbars", "title": "Sports Bars"}], "rating": 4.0, "coordinates": {"latitude": 40.790836, "longitude": -74.0586258}, "transactions": ["pickup", "delivery"], "price": "$$", "location": {"address1": "146 Front St", "address2": null, "address3": "", "city": "Secaucus", "zip_code": "07094", "country": "US", "state": "NJ", "display_address": ["146 Front St", "Secaucus, NJ 07094"]}, "phone": "+12018645544", "display_phone": "(201) 864-5544", "distance": 2843.810165911573}, {"id": "I_qPHSRdzb1wL586pK6AFg", "alias": "biggies-carlstadt", "name": "Biggie's", "image_url": "https://s3-media4.fl.yelpcdn.com/bphoto/6gt5xOtkjyjAVG2mbJCuvA/o.jpg", "is_closed": false, "url": "https://www.yelp.com/biz/biggies-carlstadt?adjust_creative=a2JdNtFqB-C38ga_06BHvw&utm_campaign=yelp_api_v3&utm_medium=api_v3_business_search&utm_source=a2JdNtFqB-C38ga_06BHvw", "review_count": 452, "categories": [{"alias": "seafood", "title": "Seafood"}, {"alias": "sportsbars", "title": "Sports Bars"}, {"alias": "italian", "title": "Italian"}], "rating": 4.0, "coordinates": {"latitude": 40.83557, "longitude": -74.08638}, "transactions": ["pickup", "delivery"], "price": "$$", "location": {"address1": "430 Route 17 S", "address2": "", "address3": "", "city": "Carlstadt", "zip_code": "07072", "country": "US", "state": "NJ", "display_address": ["430 Route 17 S", "Carlstadt, NJ 07072"]}, "phone": "+12019334000", "display_phone": "(201) 933-4000", "distance": 2667.8107762331965}, {"id": "sAy-yFDnl4dJ97K5SI9x-A", "alias": "blarney-station-east-rutherford", "name": "Blarney Station", "image_url": "https://s3-media3.fl.yelpcdn.com/bphoto/Rqs86bQ55AMk7qzVKHXEdw/o.jpg", "is_closed": false, "url": "https://www.yelp.com/biz/blarney-station-east-rutherford?adjust_creative=a2JdNtFqB-C38ga_06BHvw&utm_campaign=yelp_api_v3&utm_medium=api_v3_business_search&utm_source=a2JdNtFqB-C38ga_06BHvw", "review_count": 125, "categories": [{"alias": "pubs", "title": "Pubs"}, {"alias": "irish", "title": "Irish"}], "rating": 4.0, "coordinates": {"latitude": 40.829008406004, "longitude": -74.100459446656}, "transactions": ["delivery"], "price": "$$", "location": {"address1": "258 Park Ave", "address2": "", "address3": "", "city": "East Rutherford", "zip_code": "07073", "country": "US", "state": "NJ", "display_address": ["258 Park Ave", "East Rutherford, NJ 07073"]}, "phone": "+12015310001", "display_phone": "(201) 531-0001", "distance": 2790.3204746035153}, {"id": "hA1apARxUMy67i6ipD_EKw", "alias": "bistro-107-moonachie", "name": "Bistro 107", "image_url": "https://s3-media3.fl.yelpcdn.com/bphoto/keIUXVvjJoihfCvGLtqNRA/o.jpg", "is_closed": false, "url": "https://www.yelp.com/biz/bistro-107-moonachie?adjust_creative=a2JdNtFqB-C38ga_06BHvw&utm_campaign=yelp_api_v3&utm_medium=api_v3_business_search&utm_source=a2JdNtFqB-C38ga_06BHvw", "review_count": 75, "categories": [{"alias": "italian", "title": "Italian"}, {"alias": "wine_bars", "title": "Wine Bars"}], "rating": 4.0, "coordinates": {"latitude": 40.8401787, "longitude": -74.0475001}, "transactions": ["pickup", "delivery"], "price": "$$", "location": {"address1": "107 Moonachie Rd", "address2": "", "address3": null, "city": "Moonachie", "zip_code": "07074", "country": "US", "state": "NJ", "display_address": ["107 Moonachie Rd", "Moonachie, NJ 07074"]}, "phone": "+12014403339", "display_phone": "(201) 440-3339", "distance": 3726.8995525285213}, {"id": "8QVodl0JGDNyJmtBa8hChA", "alias": "redds-restaurant-and-biergarten-carlstadt-2", "name": "Redds Restaurant & Biergarten", "image_url": "https://s3-media3.fl.yelpcdn.com/bphoto/U3LjyrrkIKx9YEgA8NLupw/o.jpg", "is_closed": false, "url": "https://www.yelp.com/biz/redds-restaurant-and-biergarten-carlstadt-2?adjust_creative=a2JdNtFqB-C38ga_06BHvw&utm_campaign=yelp_api_v3&utm_medium=api_v3_business_search&utm_source=a2JdNtFqB-C38ga_06BHvw", "review_count": 139, "categories": [{"alias": "tradamerican", "title": "American (Traditional)"}, {"alias": "sportsbars", "title": "Sports Bars"}, {"alias": "beergardens", "title": "Beer Gardens"}], "rating": 3.5, "coordinates": {"latitude": 40.817331, "longitude": -74.065861}, "transactions": ["delivery"], "price": "$$", "location": {"address1": "317 Washington Ave", "address2": "", "address3": "", "city": "Carlstadt", "zip_code": "07072", "country": "US", "state": "NJ", "display_address": ["317 Washington Ave", "Carlstadt, NJ 07072"]}, "phone": "+12019330015", "display_phone": "(201) 933-0015", "distance": 830.9593654336463}, {"id": "dntM9E_vKVAbEOWkqca3aA", "alias": "buffalo-wild-wings-secaucus", "name": "Buffalo Wild Wings", "image_url": "https://s3-media2.fl.yelpcdn.com/bphoto/bMDSvQGWvHHDyTHAqlZ5xQ/o.jpg", "is_closed": false, "url": "https://www.yelp.com/biz/buffalo-wild-wings-secaucus?adjust_creative=a2JdNtFqB-C38ga_06BHvw&utm_campaign=yelp_api_v3&utm_medium=api_v3_business_search&utm_source=a2JdNtFqB-C38ga_06BHvw", "review_count": 460, "categories": [{"alias": "sportsbars", "title": "Sports Bars"}, {"alias": "tradamerican", "title": "American (Traditional)"}, {"alias": "chicken_wings", "title": "Chicken Wings"}], "rating": 2.5, "coordinates": {"latitude": 40.790299, "longitude": -74.0447}, "transactions": [], "price": "$$", "location": {"address1": "470 Harmon Meadow Blvd", "address2": "", "address3": "", "city": "Secaucus", "zip_code": "07094", "country": "US", "state": "NJ", "display_address": ["470 Harmon Meadow Blvd", "Secaucus, NJ 07094"]}, "phone": "+12013480824", "display_phone": "(201) 348-0824", "distance": 3592.306236224893}], "absolute total": 6, "total": 6}