{"league": "MLS", "team": "New England Revolution", "stadium": "Gillette Stadium", "stadium latitude": 42.091, "stadium longitude": -71.264, "radius": "3000 meters", "city": "Foxborough", "state": "Massachusetts", "businesses": [{"id": "Ma-3e2NkFbd6Y9-KI6lA-w", "alias": "tavolino-foxborough", "name": "Tavolino", "image_url": "https://s3-media4.fl.yelpcdn.com/bphoto/hR50wFdVStSAUWKvTDBYKw/o.jpg", "is_closed": false, "url": "https://www.yelp.com/biz/tavolino-foxborough?adjust_creative=a2JdNtFqB-C38ga_06BHvw&utm_campaign=yelp_api_v3&utm_medium=api_v3_business_search&utm_source=a2JdNtFqB-C38ga_06BHvw", "review_count": 353, "categories": [{"alias": "italian", "title": "Italian"}, {"alias": "desserts", "title": "Desserts"}, {"alias": "wine_bars", "title": "Wine Bars"}], "rating": 3.5, "coordinates": {"latitude": 42.0920499, "longitude": -71.2683238}, "transactions": ["delivery"], "price": "$$", "location": {"address1": "274 Patriot Pl", "address2": "", "address3": "", "city": "Foxborough", "zip_code": "02035", "country": "US", "state": "MA", "display_address": ["274 Patriot Pl", "Foxborough, MA 02035"]}, "phone": "+15085436543", "display_phone": "(508) 543-6543", "distance": 361.30490835791153}, {"id": "dausY-2Zbn_WmzxfiPl_lw", "alias": "rally-point-inn-and-pub-foxborough", "name": "Rally Point Inn & Pub", "image_url": "https://s3-media4.fl.yelpcdn.com/bphoto/OYhrQcRTrH98S29QK9NBdw/o.jpg", "is_closed": false, "url": "https://www.yelp.com/biz/rally-point-inn-and-pub-foxborough?adjust_creative=a2JdNtFqB-C38ga_06BHvw&utm_campaign=yelp_api_v3&utm_medium=api_v3_business_search&utm_source=a2JdNtFqB-C38ga_06BHvw", "review_count": 15, "categories": [{"alias": "pizza", "title": "Pizza"}, {"alias": "sandwiches", "title": "Sandwiches"}, {"alias": "pubs", "title": "Pubs"}], "rating": 3.5, "coordinates": {"latitude": 42.0653099, "longitude": -71.24848}, "transactions": ["delivery", "pickup"], "location": {"address1": "9 Mechanic St", "address2": null, "address3": null, "city": "Foxborough", "zip_code": "02035", "country": "US", "state": "MA", "display_address": ["9 Mechanic St", "Foxborough, MA 02035"]}, "phone": "+15085435564", "display_phone": "(508) 543-5564", "distance": 3119.64204101747}, {"id": "4IRRwKH3uChKjE-wmTSrNg", "alias": "baristo-cafe-bar-foxborough", "name": "Baristo Cafe Bar", "image_url": "https://s3-media4.fl.yelpcdn.com/bphoto/P7D3VrmtFOL7xu7jDmJ0Ng/o.jpg", "is_closed": false, "url": "https://www.yelp.com/biz/baristo-cafe-bar-foxborough?adjust_creative=a2JdNtFqB-C38ga_06BHvw&utm_campaign=yelp_api_v3&utm_medium=api_v3_business_search&utm_source=a2JdNtFqB-C38ga_06BHvw", "review_count": 2, "categories": [{"alias": "breakfast_brunch", "title": "Breakfast & Brunch"}, {"alias": "cocktailbars", "title": "Cocktail Bars"}], "rating": 1.0, "coordinates": {"latitude": 42.09210417, "longitude": -71.26818133}, "transactions": ["pickup"], "location": {"address1": "270 Patriot Pl", "address2": "", "address3": "Inside Tavolina", "city": "Foxborough", "zip_code": "02035", "country": "US", "state": "MA", "display_address": ["270 Patriot Pl", "Inside Tavolina", "Foxborough, MA 02035"]}, "phone": "", "display_phone": "", "distance": 367.2609123316561}], "absolute total": 3, "total": 3}