{"league": "NHL", "team": "New Jersey Devils", "stadium": "Prudential Center", "stadium latitude": 40.733610999999996, "stadium longitude": -74.171111, "radius": "3000 meters", "city": "Newark", "state": "New Jersey", "businesses": [{"id": "tmbW6_dJs5-UXhvROO093Q", "alias": "casa-d-paco-newark", "name": "Casa d'Paco", "image_url": "https://s3-media2.fl.yelpcdn.com/bphoto/zd84XX26_6SPwp4VXPATmA/o.jpg", "is_closed": false, "url": "https://www.yelp.com/biz/casa-d-paco-newark?adjust_creative=a2JdNtFqB-C38ga_06BHvw&utm_campaign=yelp_api_v3&utm_medium=api_v3_business_search&utm_source=a2JdNtFqB-C38ga_06BHvw", "review_count": 726, "categories": [{"alias": "spanish", "title": "Spanish"}, {"alias": "tapas", "title": "Tapas Bars"}, {"alias": "wine_bars", "title": "Wine Bars"}], "rating": 4.5, "coordinates": {"latitude": 40.72529, "longitude": -74.16309}, "transactions": ["delivery"], "price": "$$", "location": {"address1": "73 Warwick St", "address2": "", "address3": "", "city": "Newark", "zip_code": "07105", "country": "US", "state": "NJ", "display_address": ["73 Warwick St", "Newark, NJ 07105"]}, "phone": "+18623436300", "display_phone": "(862) 343-6300", "distance": 1140.2899767820322}, {"id": "aX_QoLQab0UXhI_TtAv0Mg", "alias": "vinnies-all-star-bar-and-grill-harrison", "name": "Vinnie's All-Star Bar & Grill", "image_url": "https://s3-media2.fl.yelpcdn.com/bphoto/hSDPqtl7L-5nM3otloSoaw/o.jpg", "is_closed": false, "url": "https://www.yelp.com/biz/vinnies-all-star-bar-and-grill-harrison?adjust_creative=a2JdNtFqB-C38ga_06BHvw&utm_campaign=yelp_api_v3&utm_medium=api_v3_business_search&utm_source=a2JdNtFqB-C38ga_06BHvw", "review_count": 36, "categories": [{"alias": "portuguese", "title": "Portuguese"}, {"alias": "sportsbars", "title": "Sports Bars"}, {"alias": "tradamerican", "title": "American (Traditional)"}], "rating": 5.0, "coordinates": {"latitude": 40.745587, "longitude": -74.148878}, "transactions": ["delivery"], "price": "$$", "location": {"address1": "215 Manor Ave", "address2": "", "address3": "", "city": "Harrison", "zip_code": "07029", "country": "US", "state": "NJ", "display_address": ["215 Manor Ave", "Harrison, NJ 07029"]}, "phone": "+19734817513", "display_phone": "(973) 481-7513", "distance": 2298.2597270272568}, {"id": "B6ZHTK8kaEGjtikEJeccWg", "alias": "qtal-bar-and-grill-kearny", "name": "Q'tal Bar & Grill", "image_url": "https://s3-media1.fl.yelpcdn.com/bphoto/yWfez3hetQPxTaOlbSeBDw/o.jpg", "is_closed": false, "url": "https://www.yelp.com/biz/qtal-bar-and-grill-kearny?adjust_creative=a2JdNtFqB-C38ga_06BHvw&utm_campaign=yelp_api_v3&utm_medium=api_v3_business_search&utm_source=a2JdNtFqB-C38ga_06BHvw", "review_count": 48, "categories": [{"alias": "cocktailbars", "title": "Cocktail Bars"}, {"alias": "newamerican", "title": "American (New)"}, {"alias": "wine_bars", "title": "Wine Bars"}], "rating": 4.5, "coordinates": {"latitude": 40.7525, "longitude": -74.15772}, "transactions": [], "price": "$$", "location": {"address1": "3 Kearny Ave", "address2": null, "address3": "", "city": "Kearny", "zip_code": "07032", "country": "US", "state": "NJ", "display_address": ["3 Kearny Ave", "Kearny, NJ 07032"]}, "phone": "+12019977825", "display_phone": "(201) 997-7825", "distance": 2388.2704369641697}, {"id": "GKFy5-4dVxkKxjWZ3dBDbw", "alias": "mompou-tapas-bar-and-restaurant-newark", "name": "Mompou Tapas Bar & Restaurant", "image_url": "https://s3-media2.fl.yelpcdn.com/bphoto/AZe0CFZ9a0MyITOgyViSOw/o.jpg", "is_closed": false, "url": "https://www.yelp.com/biz/mompou-tapas-bar-and-restaurant-newark?adjust_creative=a2JdNtFqB-C38ga_06BHvw&utm_campaign=yelp_api_v3&utm_medium=api_v3_business_search&utm_source=a2JdNtFqB-C38ga_06BHvw", "review_count": 418, "categories": [{"alias": "spanish", "title": "Spanish"}, {"alias": "wine_bars", "title": "Wine Bars"}, {"alias": "tapas", "title": "Tapas Bars"}], "rating": 3.5, "coordinates": {"latitude": 40.731356, "longitude": -74.162046}, "transactions": ["restaurant_reservation", "delivery"], "price": "$$", "location": {"address1": "77 Ferry St", "address2": "", "address3": "", "city": "Newark", "zip_code": "07105", "country": "US", "state": "NJ", "display_address": ["77 Ferry St", "Newark, NJ 07105"]}, "phone": "+19735788114", "display_phone": "(973) 578-8114", "distance": 803.9164702629336}, {"id": "ynYZ5ohMIKR-IJAtjL4Kdw", "alias": "the-vanguard-harrison", "name": "The Vanguard", "image_url": "https://s3-media1.fl.yelpcdn.com/bphoto/NoZTUsqYumSikgNQAVZKJQ/o.jpg", "is_closed": false, "url": "https://www.yelp.com/biz/the-vanguard-harrison?adjust_creative=a2JdNtFqB-C38ga_06BHvw&utm_campaign=yelp_api_v3&utm_medium=api_v3_business_search&utm_source=a2JdNtFqB-C38ga_06BHvw", "review_count": 110, "categories": [{"alias": "cocktailbars", "title": "Cocktail Bars"}, {"alias": "tradamerican", "title": "American (Traditional)"}, {"alias": "sportsbars", "title": "Sports Bars"}], "rating": 4.0, "coordinates": {"latitude": 40.740623, "longitude": -74.156045}, "transactions": ["pickup", "delivery"], "location": {"address1": "705 Frank E Rodgers Blvd S", "address2": "", "address3": null, "city": "Harrison", "zip_code": "07029", "country": "US", "state": "NJ", "display_address": ["705 Frank E Rodgers Blvd S", "Harrison, NJ 07029"]}, "phone": "+12012923633", "display_phone": "(201) 292-3633", "distance": 1489.7033374982161}, {"id": "SNVjVR0jADcxZOZrNZtABQ", "alias": "allegro-seafood-grill-newark-2", "name": "Allegro Seafood Grill", "image_url": "https://s3-media3.fl.yelpcdn.com/bphoto/j0wSLQ43iaPwjzyBwvuBdg/o.jpg", "is_closed": false, "url": "https://www.yelp.com/biz/allegro-seafood-grill-newark-2?adjust_creative=a2JdNtFqB-C38ga_06BHvw&utm_campaign=yelp_api_v3&utm_medium=api_v3_business_search&utm_source=a2JdNtFqB-C38ga_06BHvw", "review_count": 142, "categories": [{"alias": "portuguese", "title": "Portuguese"}, {"alias": "seafood", "title": "Seafood"}, {"alias": "wine_bars", "title": "Wine Bars"}], "rating": 3.5, "coordinates": {"latitude": 40.72383, "longitude": -74.14804}, "transactions": ["pickup", "delivery"], "price": "$$", "location": {"address1": "58 Kossuth St", "address2": null, "address3": null, "city": "Newark", "zip_code": "07105", "country": "US", "state": "NJ", "display_address": ["58 Kossuth St", "Newark, NJ 07105"]}, "phone": "+19733444500", "display_phone": "(973) 344-4500", "distance": 2231.1756773366583}, {"id": "mGQYCJKy0JHyvtm_OmFCsg", "alias": "city-rub-smokehouse-newark", "name": "City Rub Smokehouse", "image_url": "https://s3-media3.fl.yelpcdn.com/bphoto/pxMV9eRSHkdXgjN2mpcstQ/o.jpg", "is_closed": false, "url": "https://www.yelp.com/biz/city-rub-smokehouse-newark?adjust_creative=a2JdNtFqB-C38ga_06BHvw&utm_campaign=yelp_api_v3&utm_medium=api_v3_business_search&utm_source=a2JdNtFqB-C38ga_06BHvw", "review_count": 97, "categories": [{"alias": "southern", "title": "Southern"}, {"alias": "sportsbars", "title": "Sports Bars"}, {"alias": "steak", "title": "Steakhouses"}], "rating": 3.5, "coordinates": {"latitude": 40.717317, "longitude": -74.1518426}, "transactions": ["delivery"], "price": "$$", "location": {"address1": "118 Stockton St", "address2": "", "address3": null, "city": "Newark", "zip_code": "07105", "country": "US", "state": "NJ", "display_address": ["118 Stockton St", "Newark, NJ 07105"]}, "phone": "+18622377528", "display_phone": "(862) 237-7528", "distance": 2432.9208906528734}, {"id": "74mcn2j23WUVT_KCMX3VLg", "alias": "boi-na-brasa-newark-2", "name": "Boi Na Brasa", "image_url": "https://s3-media1.fl.yelpcdn.com/bphoto/Ht7iSAB7_BU1qeI0FCeygg/o.jpg", "is_closed": false, "url": "https://www.yelp.com/biz/boi-na-brasa-newark-2?adjust_creative=a2JdNtFqB-C38ga_06BHvw&utm_campaign=yelp_api_v3&utm_medium=api_v3_business_search&utm_source=a2JdNtFqB-C38ga_06BHvw", "review_count": 92, "categories": [{"alias": "sportsbars", "title": "Sports Bars"}, {"alias": "brazilian", "title": "Brazilian"}, {"alias": "bbq", "title": "Barbeque"}], "rating": 3.0, "coordinates": {"latitude": 40.72961, "longitude": -74.1544399}, "transactions": ["delivery"], "price": "$$", "location": {"address1": "1 Merchant St", "address2": "", "address3": "", "city": "Newark", "zip_code": "07105", "country": "US", "state": "NJ", "display_address": ["1 Merchant St", "Newark, NJ 07105"]}, "phone": "+19735221557", "display_phone": "(973) 522-1557", "distance": 1476.1915575744279}, {"id": "fscHJxuHTEDmaLxKaVDeww", "alias": "little-tijuana-newark", "name": "Little Tijuana", "image_url": "https://s3-media1.fl.yelpcdn.com/bphoto/YzBsKKeB5m9f0Leu7lyMjg/o.jpg", "is_closed": false, "url": "https://www.yelp.com/biz/little-tijuana-newark?adjust_creative=a2JdNtFqB-C38ga_06BHvw&utm_campaign=yelp_api_v3&utm_medium=api_v3_business_search&utm_source=a2JdNtFqB-C38ga_06BHvw", "review_count": 41, "categories": [{"alias": "lounges", "title": "Lounges"}, {"alias": "mexican", "title": "Mexican"}, {"alias": "cocktailbars", "title": "Cocktail Bars"}], "rating": 3.0, "coordinates": {"latitude": 40.73171, "longitude": -74.15518}, "transactions": [], "location": {"address1": "538 Market St", "address2": null, "address3": "", "city": "Newark", "zip_code": "07105", "country": "US", "state": "NJ", "display_address": ["538 Market St", "Newark, NJ 07105"]}, "phone": "+19732309417", "display_phone": "(973) 230-9417", "distance": 1356.211321502747}, {"id": "lJOvVQInzr3O7k5V0fYG8A", "alias": "teds-bar-and-grill-newark", "name": "Ted's Bar and Grill", "image_url": "https://s3-media1.fl.yelpcdn.com/bphoto/3i0y_YrWVHUvzReJysioRA/o.jpg", "is_closed": false, "url": "https://www.yelp.com/biz/teds-bar-and-grill-newark?adjust_creative=a2JdNtFqB-C38ga_06BHvw&utm_campaign=yelp_api_v3&utm_medium=api_v3_business_search&utm_source=a2JdNtFqB-C38ga_06BHvw", "review_count": 45, "categories": [{"alias": "tradamerican", "title": "American (Traditional)"}, {"alias": "sportsbars", "title": "Sports Bars"}, {"alias": "lounges", "title": "Lounges"}], "rating": 2.5, "coordinates": {"latitude": 40.7128647, "longitude": -74.1664299}, "transactions": ["pickup", "delivery"], "price": "$$", "location": {"address1": "160 Frontage Rd", "address2": "", "address3": "Ramada Plaza Hotel", "city": "Newark", "zip_code": "07114", "country": "US", "state": "NJ", "display_address": ["160 Frontage Rd", "Ramada Plaza Hotel", "Newark, NJ 07114"]}, "phone": "+19733444700", "display_phone": "(973) 344-4700", "distance": 2340.366359923049}, {"id": "PQznVWK7D2E5KfA6g5ViGA", "alias": "lit-21-newark", "name": "Lit 21", "image_url": "https://s3-media2.fl.yelpcdn.com/bphoto/7XzYYIvm4AqjqnSw93pCwg/o.jpg", "is_closed": false, "url": "https://www.yelp.com/biz/lit-21-newark?adjust_creative=a2JdNtFqB-C38ga_06BHvw&utm_campaign=yelp_api_v3&utm_medium=api_v3_business_search&utm_source=a2JdNtFqB-C38ga_06BHvw", "review_count": 80, "categories": [{"alias": "sportsbars", "title": "Sports Bars"}, {"alias": "tradamerican", "title": "American (Traditional)"}, {"alias": "wraps", "title": "Wraps"}], "rating": 2.5, "coordinates": {"latitude": 40.74413517, "longitude": -74.16703167}, "transactions": ["pickup", "delivery"], "location": {"address1": "1034 McCarter Hwy", "address2": "", "address3": null, "city": "Newark", "zip_code": "07102", "country": "US", "state": "NJ", "display_address": ["1034 McCarter Hwy", "Newark, NJ 07102"]}, "phone": "+19737182646", "display_phone": "(973) 718-2646", "distance": 1218.9970830178704}, {"id": "od5n6SZ5G0pCiuhYwvpV8Q", "alias": "applebees-grill-bar-newark-2", "name": "Applebee's Grill + Bar", "image_url": "https://s3-media4.fl.yelpcdn.com/bphoto/WEEfIs_UaaEA725sDnQdrw/o.jpg", "is_closed": false, "url": "https://www.yelp.com/biz/applebees-grill-bar-newark-2?adjust_creative=a2JdNtFqB-C38ga_06BHvw&utm_campaign=yelp_api_v3&utm_medium=api_v3_business_search&utm_source=a2JdNtFqB-C38ga_06BHvw", "review_count": 85, "categories": [{"alias": "tradamerican", "title": "American (Traditional)"}, {"alias": "sportsbars", "title": "Sports Bars"}, {"alias": "burgers", "title": "Burgers"}], "rating": 2.0, "coordinates": {"latitude": 40.732591, "longitude": -74.196284}, "transactions": ["pickup", "delivery"], "price": "$$", "location": {"address1": "383 Springfield Ave", "address2": null, "address3": null, "city": "Newark", "zip_code": "07103", "country": "US", "state": "NJ", "display_address": ["383 Springfield Ave", "Newark, NJ 07103"]}, "phone": "+19732423600", "display_phone": "(973) 242-3600", "distance": 2124.0743485709913}, {"id": "bgi00VFgT3gdhN1sSDKGaw", "alias": "cortico-restaurant-newark", "name": "Cortico Restaurant", "image_url": "https://s3-media2.fl.yelpcdn.com/bphoto/NugUBzPtrOZnopWrdD0LdQ/o.jpg", "is_closed": false, "url": "https://www.yelp.com/biz/cortico-restaurant-newark?adjust_creative=a2JdNtFqB-C38ga_06BHvw&utm_campaign=yelp_api_v3&utm_medium=api_v3_business_search&utm_source=a2JdNtFqB-C38ga_06BHvw", "review_count": 2, "categories": [{"alias": "sandwiches", "title": "Sandwiches"}, {"alias": "sportsbars", "title": "Sports Bars"}, {"alias": "portuguese", "title": "Portuguese"}], "rating": 4.5, "coordinates": {"latitude": 40.7220840454102, "longitude": -74.1586456298828}, "transactions": [], "price": "$$", "location": {"address1": "112 Pulaski St", "address2": "", "address3": "", "city": "Newark", "zip_code": "07105", "country": "US", "state": "NJ", "display_address": ["112 Pulaski St", "Newark, NJ 07105"]}, "phone": "+19735784499", "display_phone": "(973) 578-4499", "distance": 1652.3728688441747}, {"id": "pa-BNBK8_Mz4hADlB4zD6w", "alias": "the-mark-newark", "name": "The Mark", "image_url": "https://s3-media3.fl.yelpcdn.com/bphoto/oct1o1kWO_CIOd-TbWdG4g/o.jpg", "is_closed": true, "url": "https://www.yelp.com/biz/the-mark-newark?adjust_creative=a2JdNtFqB-C38ga_06BHvw&utm_campaign=yelp_api_v3&utm_medium=api_v3_business_search&utm_source=a2JdNtFqB-C38ga_06BHvw", "review_count": 2, "categories": [{"alias": "wine_bars", "title": "Wine Bars"}, {"alias": "tradamerican", "title": "American (Traditional)"}, {"alias": "tapasmallplates", "title": "Tapas/Small Plates"}], "rating": 4.5, "coordinates": {"latitude": 40.058863, "longitude": -82.401843}, "transactions": [], "location": {"address1": "26 N Park Pl", "address2": null, "address3": "", "city": "Newark", "zip_code": "43055", "country": "US", "state": "OH", "display_address": ["26 N Park Pl", "Newark, OH 43055"]}, "phone": "+17402810102", "display_phone": "(740) 281-0102", "distance": 250.90281590800268}, {"id": "ZMqQ3zmnBGjknkyVwvLQXA", "alias": "castle-sports-bar-and-restaurant-newark", "name": "Castle Sports Bar & Restaurant", "image_url": "https://s3-media2.fl.yelpcdn.com/bphoto/J-h5Y44unipoityhlMBV_w/o.jpg", "is_closed": false, "url": "https://www.yelp.com/biz/castle-sports-bar-and-restaurant-newark?adjust_creative=a2JdNtFqB-C38ga_06BHvw&utm_campaign=yelp_api_v3&utm_medium=api_v3_business_search&utm_source=a2JdNtFqB-C38ga_06BHvw", "review_count": 7, "categories": [{"alias": "sportsbars", "title": "Sports Bars"}, {"alias": "caribbean", "title": "Caribbean"}], "rating": 2.5, "coordinates": {"latitude": 40.7600713, "longitude": -74.1761994}, "transactions": ["pickup", "delivery"], "price": "$$", "location": {"address1": "189 Bloomfield Ave", "address2": "", "address3": "", "city": "Newark", "zip_code": "07104", "country": "US", "state": "NJ", "display_address": ["189 Bloomfield Ave", "Newark, NJ 07104"]}, "phone": "+19734971100", "display_phone": "(973) 497-1100", "distance": 2973.308956334518}, {"id": "CiVouKoMnDFjLOTjd7MExw", "alias": "el-criollo-restaurant-newark", "name": "El Criollo Restaurant", "image_url": "https://s3-media3.fl.yelpcdn.com/bphoto/wAef_3KwCI-bBNukFsYxfg/o.jpg", "is_closed": false, "url": "https://www.yelp.com/biz/el-criollo-restaurant-newark?adjust_creative=a2JdNtFqB-C38ga_06BHvw&utm_campaign=yelp_api_v3&utm_medium=api_v3_business_search&utm_source=a2JdNtFqB-C38ga_06BHvw", "review_count": 6, "categories": [{"alias": "sportsbars", "title": "Sports Bars"}, {"alias": "latin", "title": "Latin American"}], "rating": 2.0, "coordinates": {"latitude": 40.75357, "longitude": -74.17013}, "transactions": ["pickup", "delivery"], "price": "$", "location": {"address1": "99 Broadway", "address2": "", "address3": "", "city": "Newark", "zip_code": "07104", "country": "US", "state": "NJ", "display_address": ["99 Broadway", "Newark, NJ 07104"]}, "phone": "+19734855333", "display_phone": "(973) 485-5333", "distance": 2223.4393003351593}], "absolute total": 16, "total": 16}