{"league": "NFL", "team": "Philadelphia Eagles", "stadium": "Lincoln Financial Field", "stadium latitude": 39.900833, "stadium longitude": -75.1675, "radius": "3000 meters", "city": "Philadelphia", "state": "Pennsylvania", "businesses": [{"id": "24xx8ju_U_uN1zJf2YtKkA", "alias": "the-black-cat-tavern-on-12th-philadelphia-2", "name": "The Black Cat Tavern On 12th", "image_url": "https://s3-media3.fl.yelpcdn.com/bphoto/3WtVfk_6HXgLvO-34NLfEQ/o.jpg", "is_closed": false, "url": "https://www.yelp.com/biz/the-black-cat-tavern-on-12th-philadelphia-2?adjust_creative=a2JdNtFqB-C38ga_06BHvw&utm_campaign=yelp_api_v3&utm_medium=api_v3_business_search&utm_source=a2JdNtFqB-C38ga_06BHvw", "review_count": 38, "categories": [{"alias": "beerbar", "title": "Beer Bar"}, {"alias": "cocktailbars", "title": "Cocktail Bars"}, {"alias": "gastropubs", "title": "Gastropubs"}], "rating": 5.0, "coordinates": {"latitude": 39.91654, "longitude": -75.1678}, "transactions": ["pickup", "delivery"], "price": "$$", "location": {"address1": "2654 S 12th St", "address2": "", "address3": null, "city": "Philadelphia", "zip_code": "19148", "country": "US", "state": "PA", "display_address": ["2654 S 12th St", "Philadelphia, PA 19148"]}, "phone": "+12675193574", "display_phone": "(267) 519-3574", "distance": 1746.6930161740656}, {"id": "ZYRul0i1bhOjirHED6Kd0w", "alias": "southhouse-philadelphia", "name": "SouthHouse", "image_url": "https://s3-media1.fl.yelpcdn.com/bphoto/p53LVuCCZoK77ctTqBXyYA/o.jpg", "is_closed": false, "url": "https://www.yelp.com/biz/southhouse-philadelphia?adjust_creative=a2JdNtFqB-C38ga_06BHvw&utm_campaign=yelp_api_v3&utm_medium=api_v3_business_search&utm_source=a2JdNtFqB-C38ga_06BHvw", "review_count": 149, "categories": [{"alias": "newamerican", "title": "American (New)"}, {"alias": "pubs", "title": "Pubs"}], "rating": 4.5, "coordinates": {"latitude": 39.91804, "longitude": -75.1687}, "transactions": ["pickup", "delivery"], "price": "$$", "location": {"address1": "2535 S 13th St", "address2": "", "address3": "", "city": "Philadelphia", "zip_code": "19148", "country": "US", "state": "PA", "display_address": ["2535 S 13th St", "Philadelphia, PA 19148"]}, "phone": "+12673145937", "display_phone": "(267) 314-5937", "distance": 1916.0966103696644}, {"id": "OqyaD0hEytrcfC_F-ugqMw", "alias": "noir-restaurant-and-bar-philadelphia", "name": "Noir Restaurant & Bar", "image_url": "https://s3-media3.fl.yelpcdn.com/bphoto/w8G55ooS626Zrse-tnBvdw/o.jpg", "is_closed": false, "url": "https://www.yelp.com/biz/noir-restaurant-and-bar-philadelphia?adjust_creative=a2JdNtFqB-C38ga_06BHvw&utm_campaign=yelp_api_v3&utm_medium=api_v3_business_search&utm_source=a2JdNtFqB-C38ga_06BHvw", "review_count": 141, "categories": [{"alias": "pubs", "title": "Pubs"}, {"alias": "italian", "title": "Italian"}, {"alias": "salad", "title": "Salad"}], "rating": 4.5, "coordinates": {"latitude": 39.9263, "longitude": -75.16741}, "transactions": ["pickup", "delivery"], "price": "$$", "location": {"address1": "1909 E Passyunk Ave", "address2": "", "address3": "", "city": "Philadelphia", "zip_code": "19148", "country": "US", "state": "PA", "display_address": ["1909 E Passyunk Ave", "Philadelphia, PA 19148"]}, "phone": "+12673191678", "display_phone": "(267) 319-1678", "distance": 2832.350524060138}, {"id": "jUOhse36Yw56KXxGmva2Ug", "alias": "moonshine-philly-philadelphia", "name": "Moonshine Philly", "image_url": "https://s3-media3.fl.yelpcdn.com/bphoto/oRaj0hLFxl9zwRlZD-an4w/o.jpg", "is_closed": false, "url": "https://www.yelp.com/biz/moonshine-philly-philadelphia?adjust_creative=a2JdNtFqB-C38ga_06BHvw&utm_campaign=yelp_api_v3&utm_medium=api_v3_business_search&utm_source=a2JdNtFqB-C38ga_06BHvw", "review_count": 220, "categories": [{"alias": "gastropubs", "title": "Gastropubs"}, {"alias": "pubs", "title": "Pubs"}], "rating": 4.0, "coordinates": {"latitude": 39.9250107, "longitude": -75.1516037}, "transactions": ["delivery"], "price": "$$", "location": {"address1": "1825 E Moyamensing Ave", "address2": "", "address3": "", "city": "Philadelphia", "zip_code": "19148", "country": "US", "state": "PA", "display_address": ["1825 E Moyamensing Ave", "Philadelphia, PA 19148"]}, "phone": "+12676399720", "display_phone": "(267) 639-9720", "distance": 3009.7261809737165}, {"id": "T3tiN6g7G2XUoDjRv3d8Cw", "alias": "irwins-philadelphia-3", "name": "Irwin's", "image_url": "https://s3-media2.fl.yelpcdn.com/bphoto/uS8QYnnSDR_R6tEPxL_krA/o.jpg", "is_closed": false, "url": "https://www.yelp.com/biz/irwins-philadelphia-3?adjust_creative=a2JdNtFqB-C38ga_06BHvw&utm_campaign=yelp_api_v3&utm_medium=api_v3_business_search&utm_source=a2JdNtFqB-C38ga_06BHvw", "review_count": 87, "categories": [{"alias": "cocktailbars", "title": "Cocktail Bars"}, {"alias": "tapasmallplates", "title": "Tapas/Small Plates"}, {"alias": "mediterranean", "title": "Mediterranean"}], "rating": 4.0, "coordinates": {"latitude": 39.9253459, "longitude": -75.159369}, "transactions": ["delivery"], "location": {"address1": "800 Mifflin St", "address2": "", "address3": null, "city": "Philadelphia", "zip_code": "19148", "country": "US", "state": "PA", "display_address": ["800 Mifflin St", "Philadelphia, PA 19148"]}, "phone": "+12156936206", "display_phone": "(215) 693-6206", "distance": 2783.1576962015256}, {"id": "6vp741cxMvQMicJ3qZuLGQ", "alias": "2nd-street-brew-house-philadelphia", "name": "2nd Street Brew House", "image_url": "https://s3-media3.fl.yelpcdn.com/bphoto/9bccCKfJNV8HgZDgm84-jA/o.jpg", "is_closed": false, "url": "https://www.yelp.com/biz/2nd-street-brew-house-philadelphia?adjust_creative=a2JdNtFqB-C38ga_06BHvw&utm_campaign=yelp_api_v3&utm_medium=api_v3_business_search&utm_source=a2JdNtFqB-C38ga_06BHvw", "review_count": 72, "categories": [{"alias": "pubs", "title": "Pubs"}, {"alias": "tradamerican", "title": "American (Traditional)"}, {"alias": "beerbar", "title": "Beer Bar"}], "rating": 4.0, "coordinates": {"latitude": 39.92664, "longitude": -75.1494}, "transactions": [], "price": "$$", "location": {"address1": "1700 S 2nd St", "address2": "", "address3": "", "city": "Philadelphia", "zip_code": "19148", "country": "US", "state": "PA", "display_address": ["1700 S 2nd St", "Philadelphia, PA 19148"]}, "phone": "+12676877964", "display_phone": "(267) 687-7964", "distance": 3258.775473452107}, {"id": "GKNknnI7pZgPwjOKNI9NPQ", "alias": "lucky-13-pub-philadelphia", "name": "Lucky 13 Pub", "image_url": "https://s3-media3.fl.yelpcdn.com/bphoto/T-PLSqQwJWJCtFQ6ml3Dow/o.jpg", "is_closed": false, "url": "https://www.yelp.com/biz/lucky-13-pub-philadelphia?adjust_creative=a2JdNtFqB-C38ga_06BHvw&utm_campaign=yelp_api_v3&utm_medium=api_v3_business_search&utm_source=a2JdNtFqB-C38ga_06BHvw", "review_count": 125, "categories": [{"alias": "pubs", "title": "Pubs"}, {"alias": "newamerican", "title": "American (New)"}], "rating": 4.0, "coordinates": {"latitude": 39.92716, "longitude": -75.16713}, "transactions": ["delivery"], "price": "$$", "location": {"address1": "1820 S 13th St", "address2": "", "address3": "", "city": "Philadelphia", "zip_code": "19148", "country": "US", "state": "PA", "display_address": ["1820 S 13th St", "Philadelphia, PA 19148"]}, "phone": "+12153368467", "display_phone": "(215) 336-8467", "distance": 2928.0087188262746}, {"id": "eMiN8nm70jjKg8izikVWDA", "alias": "chickies-and-petes-philadelphia", "name": "Chickie's & Pete's", "image_url": "https://s3-media1.fl.yelpcdn.com/bphoto/46cGZuRvoZ86LJCRqM3Y1w/o.jpg", "is_closed": false, "url": "https://www.yelp.com/biz/chickies-and-petes-philadelphia?adjust_creative=a2JdNtFqB-C38ga_06BHvw&utm_campaign=yelp_api_v3&utm_medium=api_v3_business_search&utm_source=a2JdNtFqB-C38ga_06BHvw", "review_count": 565, "categories": [{"alias": "sportsbars", "title": "Sports Bars"}, {"alias": "seafood", "title": "Seafood"}, {"alias": "newamerican", "title": "American (New)"}], "rating": 3.5, "coordinates": {"latitude": 39.91147, "longitude": -75.17456}, "transactions": ["delivery"], "price": "$$", "location": {"address1": "1526 Packer Ave", "address2": null, "address3": "", "city": "Philadelphia", "zip_code": "19145", "country": "US", "state": "PA", "display_address": ["1526 Packer Ave", "Philadelphia, PA 19145"]}, "phone": "+12152180500", "display_phone": "(215) 218-0500", "distance": 1320.1618000235778}, {"id": "1qw5dIsQPNGLOwnuP7Wj1g", "alias": "south-bowl-philadelphia", "name": "South Bowl", "image_url": "https://s3-media2.fl.yelpcdn.com/bphoto/UK9Gk3tmQKBcfF7hAVyKSQ/o.jpg", "is_closed": false, "url": "https://www.yelp.com/biz/south-bowl-philadelphia?adjust_creative=a2JdNtFqB-C38ga_06BHvw&utm_campaign=yelp_api_v3&utm_medium=api_v3_business_search&utm_source=a2JdNtFqB-C38ga_06BHvw", "review_count": 245, "categories": [{"alias": "bowling", "title": "Bowling"}, {"alias": "sportsbars", "title": "Sports Bars"}, {"alias": "tradamerican", "title": "American (Traditional)"}], "rating": 3.5, "coordinates": {"latitude": 39.914289, "longitude": -75.147205}, "transactions": ["delivery"], "price": "$$", "location": {"address1": "19 E Oregon Ave", "address2": "", "address3": "", "city": "Philadelphia", "zip_code": "19148", "country": "US", "state": "PA", "display_address": ["19 E Oregon Ave", "Philadelphia, PA 19148"]}, "phone": "+12153892695", "display_phone": "(215) 389-2695", "distance": 2291.90442464565}, {"id": "4x_DhrjTcrpieMkbrrCU-g", "alias": "millers-ale-house-south-philadelphia-philadelphia", "name": "Miller's Ale House - South Philadelphia", "image_url": "https://s3-media4.fl.yelpcdn.com/bphoto/T7Ojcv2MXMeCinw6XTbPpA/o.jpg", "is_closed": false, "url": "https://www.yelp.com/biz/millers-ale-house-south-philadelphia-philadelphia?adjust_creative=a2JdNtFqB-C38ga_06BHvw&utm_campaign=yelp_api_v3&utm_medium=api_v3_business_search&utm_source=a2JdNtFqB-C38ga_06BHvw", "review_count": 123, "categories": [{"alias": "sportsbars", "title": "Sports Bars"}, {"alias": "tradamerican", "title": "American (Traditional)"}], "rating": 3.5, "coordinates": {"latitude": 39.92020805801779, "longitude": -75.14174704307217}, "transactions": ["pickup", "delivery"], "price": "$$", "location": {"address1": "2100 S Columbus Blvd", "address2": null, "address3": null, "city": "Philadelphia", "zip_code": "19148", "country": "US", "state": "PA", "display_address": ["2100 S Columbus Blvd", "Philadelphia, PA 19148"]}, "phone": "+12153831686", "display_phone": "(215) 383-1686", "distance": 3076.7081790818497}, {"id": "D_jS6w2j1mFzb2KoYncCaA", "alias": "nbc-sports-arena-philadelphia", "name": "NBC Sports Arena", "image_url": "https://s3-media3.fl.yelpcdn.com/bphoto/DJz2WUZ8s3msmgfHXPX-hA/o.jpg", "is_closed": false, "url": "https://www.yelp.com/biz/nbc-sports-arena-philadelphia?adjust_creative=a2JdNtFqB-C38ga_06BHvw&utm_campaign=yelp_api_v3&utm_medium=api_v3_business_search&utm_source=a2JdNtFqB-C38ga_06BHvw", "review_count": 48, "categories": [{"alias": "sportsbars", "title": "Sports Bars"}, {"alias": "newamerican", "title": "American (New)"}, {"alias": "beer_and_wine", "title": "Beer, Wine & Spirits"}], "rating": 3.5, "coordinates": {"latitude": 39.9046173, "longitude": -75.1686783}, "transactions": [], "price": "$$", "location": {"address1": "1100 Pattison Ave", "address2": "", "address3": "", "city": "Philadelphia", "zip_code": "19148", "country": "US", "state": "PA", "display_address": ["1100 Pattison Ave", "Philadelphia, PA 19148"]}, "phone": "+12675344264", "display_phone": "(267) 534-4264", "distance": 412.4395119353988}, {"id": "vlGBKK9Ti07MYibNQbTq5g", "alias": "philadium-philadelphia-2", "name": "Philadium", "image_url": "https://s3-media1.fl.yelpcdn.com/bphoto/ATDulrp84L6FKuDMGzq43w/o.jpg", "is_closed": false, "url": "https://www.yelp.com/biz/philadium-philadelphia-2?adjust_creative=a2JdNtFqB-C38ga_06BHvw&utm_campaign=yelp_api_v3&utm_medium=api_v3_business_search&utm_source=a2JdNtFqB-C38ga_06BHvw", "review_count": 21, "categories": [{"alias": "tradamerican", "title": "American (Traditional)"}, {"alias": "sportsbars", "title": "Sports Bars"}], "rating": 4.0, "coordinates": {"latitude": 39.91259, "longitude": -75.17635}, "transactions": ["pickup", "delivery"], "location": {"address1": "1631 Packer Ave", "address2": "", "address3": null, "city": "Philadelphia", "zip_code": "19145", "country": "US", "state": "PA", "display_address": ["1631 Packer Ave", "Philadelphia, PA 19145"]}, "phone": "+12152712337", "display_phone": "(215) 271-2337", "distance": 1515.4097723490004}, {"id": "s-Ff-8M5-AR-5jl59lCj1w", "alias": "xfinity-live-philadelphia-philadelphia", "name": "Xfinity Live! Philadelphia", "image_url": "https://s3-media2.fl.yelpcdn.com/bphoto/utuR0ujS1nN9KkXmedaS9A/o.jpg", "is_closed": false, "url": "https://www.yelp.com/biz/xfinity-live-philadelphia-philadelphia?adjust_creative=a2JdNtFqB-C38ga_06BHvw&utm_campaign=yelp_api_v3&utm_medium=api_v3_business_search&utm_source=a2JdNtFqB-C38ga_06BHvw", "review_count": 358, "categories": [{"alias": "sportsbars", "title": "Sports Bars"}, {"alias": "newamerican", "title": "American (New)"}], "rating": 3.0, "coordinates": {"latitude": 39.9044484998949, "longitude": -75.1696318387985}, "transactions": ["pickup", "delivery"], "price": "$$", "location": {"address1": "1100 Pattison Ave", "address2": "", "address3": "", "city": "Philadelphia", "zip_code": "19148", "country": "US", "state": "PA", "display_address": ["1100 Pattison Ave", "Philadelphia, PA 19148"]}, "phone": "+12675344264", "display_phone": "(267) 534-4264", "distance": 441.2403067674239}, {"id": "RbHZJdoy7kIXfGRmM-6sdw", "alias": "station-bar-and-grill-philadelphia", "name": "Station Bar & Grill", "image_url": "https://s3-media2.fl.yelpcdn.com/bphoto/Py067OfiQTA6Ah6NzP8XYw/o.jpg", "is_closed": false, "url": "https://www.yelp.com/biz/station-bar-and-grill-philadelphia?adjust_creative=a2JdNtFqB-C38ga_06BHvw&utm_campaign=yelp_api_v3&utm_medium=api_v3_business_search&utm_source=a2JdNtFqB-C38ga_06BHvw", "review_count": 57, "categories": [{"alias": "tradamerican", "title": "American (Traditional)"}, {"alias": "sportsbars", "title": "Sports Bars"}], "rating": 3.5, "coordinates": {"latitude": 39.9258346557617, "longitude": -75.1725997924805}, "transactions": ["delivery"], "price": "$", "location": {"address1": "1550 McKean St", "address2": "", "address3": "", "city": "Philadelphia", "zip_code": "19145", "country": "US", "state": "PA", "display_address": ["1550 McKean St", "Philadelphia, PA 19145"]}, "phone": "+12154671871", "display_phone": "(215) 467-1871", "distance": 2816.502033727517}, {"id": "z1TyupB3dqGlAfijPyGryA", "alias": "the-pizza-pub-philadelphia", "name": "The Pizza Pub", "image_url": "https://s3-media1.fl.yelpcdn.com/bphoto/j1ieYU2gzVLWMP1zX4_y6A/o.jpg", "is_closed": false, "url": "https://www.yelp.com/biz/the-pizza-pub-philadelphia?adjust_creative=a2JdNtFqB-C38ga_06BHvw&utm_campaign=yelp_api_v3&utm_medium=api_v3_business_search&utm_source=a2JdNtFqB-C38ga_06BHvw", "review_count": 56, "categories": [{"alias": "pizza", "title": "Pizza"}, {"alias": "pubs", "title": "Pubs"}], "rating": 2.5, "coordinates": {"latitude": 39.9235420227051, "longitude": -75.179443359375}, "transactions": ["pickup", "delivery"], "price": "$", "location": {"address1": "1940 W Passyunk Ave", "address2": "", "address3": "", "city": "Philadelphia", "zip_code": "19145", "country": "US", "state": "PA", "display_address": ["1940 W Passyunk Ave", "Philadelphia, PA 19145"]}, "phone": "+12676875000", "display_phone": "(267) 687-5000", "distance": 2723.367751763178}, {"id": "S1QynCi7mchgNvMvrskLdA", "alias": "nittys-tavern-philadelphia", "name": "Nitty's Tavern", "image_url": "https://s3-media2.fl.yelpcdn.com/bphoto/CsOjWrlbxNQFi3WDBjS8Mw/o.jpg", "is_closed": false, "url": "https://www.yelp.com/biz/nittys-tavern-philadelphia?adjust_creative=a2JdNtFqB-C38ga_06BHvw&utm_campaign=yelp_api_v3&utm_medium=api_v3_business_search&utm_source=a2JdNtFqB-C38ga_06BHvw", "review_count": 2, "categories": [{"alias": "italian", "title": "Italian"}, {"alias": "sportsbars", "title": "Sports Bars"}], "rating": 2.5, "coordinates": {"latitude": 39.915025, "longitude": -75.176577}, "transactions": [], "location": {"address1": "1720 W Moyamensing Ave", "address2": null, "address3": "", "city": "Philadelphia", "zip_code": "19145", "country": "US", "state": "PA", "display_address": ["1720 W Moyamensing Ave", "Philadelphia, PA 19145"]}, "phone": "+12156088089", "display_phone": "(215) 608-8089", "distance": 1753.7870243270038}], "absolute total": 16, "total": 16}