{"league": "NBA", "team": "Portland Trail Blazers", "stadium": "Moda Center", "stadium latitude": 45.531667, "stadium longitude": -122.66666699999999, "radius": "3000 meters", "city": "Portland", "state": "Oregon", "businesses": [{"id": "4ZjHsu_bNxPyPqSOq2fw4g", "alias": "q-restaurant-and-bar-portland", "name": "Q Restaurant & Bar", "image_url": "https://s3-media2.fl.yelpcdn.com/bphoto/jAH0XyZe5N8YTrOy71SuJg/o.jpg", "is_closed": false, "url": "https://www.yelp.com/biz/q-restaurant-and-bar-portland?adjust_creative=a2JdNtFqB-C38ga_06BHvw&utm_campaign=yelp_api_v3&utm_medium=api_v3_business_search&utm_source=a2JdNtFqB-C38ga_06BHvw", "review_count": 772, "categories": [{"alias": "newamerican", "title": "American (New)"}, {"alias": "cocktailbars", "title": "Cocktail Bars"}], "rating": 4.5, "coordinates": {"latitude": 45.516815, "longitude": -122.675052}, "transactions": ["delivery", "restaurant_reservation"], "price": "$$", "location": {"address1": "828 SW 2nd Ave", "address2": "", "address3": null, "city": "Portland", "zip_code": "97204", "country": "US", "state": "OR", "display_address": ["828 SW 2nd Ave", "Portland, OR 97204"]}, "phone": "+15038508915", "display_phone": "(503) 850-8915", "distance": 1775.9615092808392}, {"id": "lbDumHm4Ot7aa8cSuzwwUA", "alias": "pinkys-pizza-portland-2", "name": "Pinky's Pizza", "image_url": "https://s3-media4.fl.yelpcdn.com/bphoto/9dEKibgfUWJROwQ7uYxpkw/o.jpg", "is_closed": false, "url": "https://www.yelp.com/biz/pinkys-pizza-portland-2?adjust_creative=a2JdNtFqB-C38ga_06BHvw&utm_campaign=yelp_api_v3&utm_medium=api_v3_business_search&utm_source=a2JdNtFqB-C38ga_06BHvw", "review_count": 262, "categories": [{"alias": "pizza", "title": "Pizza"}, {"alias": "cocktailbars", "title": "Cocktail Bars"}], "rating": 4.5, "coordinates": {"latitude": 45.55197, "longitude": -122.68067}, "transactions": ["delivery", "pickup"], "price": "$$", "location": {"address1": "3990 N Interstate Ave", "address2": "", "address3": "", "city": "Portland", "zip_code": "97227", "country": "US", "state": "OR", "display_address": ["3990 N Interstate Ave", "Portland, OR 97227"]}, "phone": "+15032884453", "display_phone": "(503) 288-4453", "distance": 2506.71510536268}, {"id": "eUbq0uNxRlXQ6sy7phM7yA", "alias": "lechon-portland", "name": "Lechon", "image_url": "https://s3-media1.fl.yelpcdn.com/bphoto/1sE02Y1glmOvdRA54VIlYA/o.jpg", "is_closed": false, "url": "https://www.yelp.com/biz/lechon-portland?adjust_creative=a2JdNtFqB-C38ga_06BHvw&utm_campaign=yelp_api_v3&utm_medium=api_v3_business_search&utm_source=a2JdNtFqB-C38ga_06BHvw", "review_count": 1338, "categories": [{"alias": "tapas", "title": "Tapas Bars"}, {"alias": "cocktailbars", "title": "Cocktail Bars"}], "rating": 4.5, "coordinates": {"latitude": 45.52129, "longitude": -122.67094}, "transactions": ["delivery"], "price": "$$", "location": {"address1": "113 SW Naito Pkwy", "address2": null, "address3": "", "city": "Portland", "zip_code": "97204", "country": "US", "state": "OR", "display_address": ["113 SW Naito Pkwy", "Portland, OR 97204"]}, "phone": "+15032199000", "display_phone": "(503) 219-9000", "distance": 1203.8515470545794}, {"id": "3L-ezs0VANOtmdJDlbha1Q", "alias": "g체ero-portland", "name": "G체ero", "image_url": "https://s3-media2.fl.yelpcdn.com/bphoto/kREinBHSXdCzUHS0tL5ICw/o.jpg", "is_closed": false, "url": "https://www.yelp.com/biz/g%C3%BCero-portland?adjust_creative=a2JdNtFqB-C38ga_06BHvw&utm_campaign=yelp_api_v3&utm_medium=api_v3_business_search&utm_source=a2JdNtFqB-C38ga_06BHvw", "review_count": 504, "categories": [{"alias": "mexican", "title": "Mexican"}, {"alias": "sandwiches", "title": "Sandwiches"}, {"alias": "cocktailbars", "title": "Cocktail Bars"}], "rating": 4.5, "coordinates": {"latitude": 45.5244618, "longitude": -122.6370351}, "transactions": ["delivery"], "price": "$$", "location": {"address1": "200 NE 28th Ave", "address2": "", "address3": "", "city": "Portland", "zip_code": "97232", "country": "US", "state": "OR", "display_address": ["200 NE 28th Ave", "Portland, OR 97232"]}, "phone": "+15038879258", "display_phone": "(503) 887-9258", "distance": 2443.371635963086}, {"id": "3u3Xllz8NezyMjH6zsGp9w", "alias": "cest-si-bon-bistro-vins-portland-3", "name": "C'est Si Bon! Bistro+Vins", "image_url": "https://s3-media2.fl.yelpcdn.com/bphoto/Vmk4KjPZHLCKtuH4kYbscA/o.jpg", "is_closed": false, "url": "https://www.yelp.com/biz/cest-si-bon-bistro-vins-portland-3?adjust_creative=a2JdNtFqB-C38ga_06BHvw&utm_campaign=yelp_api_v3&utm_medium=api_v3_business_search&utm_source=a2JdNtFqB-C38ga_06BHvw", "review_count": 130, "categories": [{"alias": "french", "title": "French"}, {"alias": "wine_bars", "title": "Wine Bars"}], "rating": 4.5, "coordinates": {"latitude": 45.5233755, "longitude": -122.6584833}, "transactions": ["delivery"], "price": "$$", "location": {"address1": "22 NE 7th Ave", "address2": null, "address3": "", "city": "Portland", "zip_code": "97232", "country": "US", "state": "OR", "display_address": ["22 NE 7th Ave", "Portland, OR 97232"]}, "phone": "+15039353761", "display_phone": "(503) 935-3761", "distance": 1120.9123450071122}, {"id": "9VaPtJVziILHr4ghXfzuSw", "alias": "the-pocket-pub-portland", "name": "The Pocket Pub", "image_url": "https://s3-media3.fl.yelpcdn.com/bphoto/ACE20-KnZoyvTuJU-pz8Jw/o.jpg", "is_closed": false, "url": "https://www.yelp.com/biz/the-pocket-pub-portland?adjust_creative=a2JdNtFqB-C38ga_06BHvw&utm_campaign=yelp_api_v3&utm_medium=api_v3_business_search&utm_source=a2JdNtFqB-C38ga_06BHvw", "review_count": 157, "categories": [{"alias": "cocktailbars", "title": "Cocktail Bars"}, {"alias": "pubs", "title": "Pubs"}, {"alias": "pizza", "title": "Pizza"}], "rating": 4.5, "coordinates": {"latitude": 45.54236, "longitude": -122.65894}, "transactions": ["delivery"], "price": "$$", "location": {"address1": "2719 NE 7th Ave", "address2": null, "address3": "", "city": "Portland", "zip_code": "97212", "country": "US", "state": "OR", "display_address": ["2719 NE 7th Ave", "Portland, OR 97212"]}, "phone": "+15032873645", "display_phone": "(503) 287-3645", "distance": 1339.8212083686242}, {"id": "6DwR5rF1s6fJn4f-Lvfbuw", "alias": "eem-portland", "name": "Eem", "image_url": "https://s3-media1.fl.yelpcdn.com/bphoto/y1gkOtnBUwWOTo1eueVStw/o.jpg", "is_closed": false, "url": "https://www.yelp.com/biz/eem-portland?adjust_creative=a2JdNtFqB-C38ga_06BHvw&utm_campaign=yelp_api_v3&utm_medium=api_v3_business_search&utm_source=a2JdNtFqB-C38ga_06BHvw", "review_count": 408, "categories": [{"alias": "cocktailbars", "title": "Cocktail Bars"}, {"alias": "thai", "title": "Thai"}, {"alias": "bbq", "title": "Barbeque"}], "rating": 4.5, "coordinates": {"latitude": 45.550666, "longitude": -122.666517}, "transactions": ["delivery", "pickup"], "price": "$$", "location": {"address1": "3808 N Williams Ave", "address2": "Ste 127", "address3": null, "city": "Portland", "zip_code": "97227", "country": "US", "state": "OR", "display_address": ["3808 N Williams Ave", "Ste 127", "Portland, OR 97227"]}, "phone": "+19712951645", "display_phone": "(971) 295-1645", "distance": 2112.6223673875825}, {"id": "LF0EuyDA4-rhb6s36q0wsQ", "alias": "andina-restaurant-portland", "name": "Andina Restaurant", "image_url": "https://s3-media1.fl.yelpcdn.com/bphoto/Ij9yv97Ch6NwKhNdpezRhw/o.jpg", "is_closed": false, "url": "https://www.yelp.com/biz/andina-restaurant-portland?adjust_creative=a2JdNtFqB-C38ga_06BHvw&utm_campaign=yelp_api_v3&utm_medium=api_v3_business_search&utm_source=a2JdNtFqB-C38ga_06BHvw", "review_count": 2992, "categories": [{"alias": "wine_bars", "title": "Wine Bars"}, {"alias": "tapas", "title": "Tapas Bars"}, {"alias": "peruvian", "title": "Peruvian"}], "rating": 4.5, "coordinates": {"latitude": 45.526348, "longitude": -122.684604}, "transactions": ["delivery"], "price": "$$$", "location": {"address1": "1314 NW Glisan St", "address2": "", "address3": "", "city": "Portland", "zip_code": "97209", "country": "US", "state": "OR", "display_address": ["1314 NW Glisan St", "Portland, OR 97209"]}, "phone": "+15032289535", "display_phone": "(503) 228-9535", "distance": 1517.2666386564458}, {"id": "FWpmpjEHvkaSpzdBOSy6Xw", "alias": "normandie-portland", "name": "NORMANDIE", "image_url": "https://s3-media3.fl.yelpcdn.com/bphoto/OL-QcRhaAI-OG4vfRSZKhA/o.jpg", "is_closed": false, "url": "https://www.yelp.com/biz/normandie-portland?adjust_creative=a2JdNtFqB-C38ga_06BHvw&utm_campaign=yelp_api_v3&utm_medium=api_v3_business_search&utm_source=a2JdNtFqB-C38ga_06BHvw", "review_count": 145, "categories": [{"alias": "seafood", "title": "Seafood"}, {"alias": "modern_european", "title": "Modern European"}, {"alias": "cocktailbars", "title": "Cocktail Bars"}], "rating": 4.5, "coordinates": {"latitude": 45.52235, "longitude": -122.65553}, "transactions": ["delivery"], "location": {"address1": "1005 SE Ankeny St", "address2": null, "address3": "", "city": "Portland", "zip_code": "97214", "country": "US", "state": "OR", "display_address": ["1005 SE Ankeny St", "Portland, OR 97214"]}, "phone": "+15032334129", "display_phone": "(503) 233-4129", "distance": 1356.4851348918849}, {"id": "RlLcnHbmQvlfj39Zklvr9g", "alias": "flying-fish-oyster-bar-portland-3", "name": "Flying Fish Oyster Bar", "image_url": "https://s3-media2.fl.yelpcdn.com/bphoto/bQNm9RYNG9xHLYf_lDi-7Q/o.jpg", "is_closed": false, "url": "https://www.yelp.com/biz/flying-fish-oyster-bar-portland-3?adjust_creative=a2JdNtFqB-C38ga_06BHvw&utm_campaign=yelp_api_v3&utm_medium=api_v3_business_search&utm_source=a2JdNtFqB-C38ga_06BHvw", "review_count": 78, "categories": [{"alias": "raw_food", "title": "Live/Raw Food"}, {"alias": "wine_bars", "title": "Wine Bars"}, {"alias": "beerbar", "title": "Beer Bar"}], "rating": 4.5, "coordinates": {"latitude": 45.5226726, "longitude": -122.6346293}, "transactions": [], "price": "$$", "location": {"address1": "3004 East Burnside", "address2": null, "address3": "", "city": "Portland", "zip_code": "97214", "country": "US", "state": "OR", "display_address": ["3004 East Burnside", "Portland, OR 97214"]}, "phone": "+19718066747", "display_phone": "(971) 806-6747", "distance": 2688.6686893500423}, {"id": "oVOFZTfnmHmZz3IJ3uy1fQ", "alias": "olympia-provisions-portland-2", "name": "Olympia Provisions", "image_url": "https://s3-media4.fl.yelpcdn.com/bphoto/w8w2mkIrowArbwpzIInq9g/o.jpg", "is_closed": false, "url": "https://www.yelp.com/biz/olympia-provisions-portland-2?adjust_creative=a2JdNtFqB-C38ga_06BHvw&utm_campaign=yelp_api_v3&utm_medium=api_v3_business_search&utm_source=a2JdNtFqB-C38ga_06BHvw", "review_count": 967, "categories": [{"alias": "newamerican", "title": "American (New)"}, {"alias": "breakfast_brunch", "title": "Breakfast & Brunch"}, {"alias": "wine_bars", "title": "Wine Bars"}], "rating": 4.5, "coordinates": {"latitude": 45.5190372372082, "longitude": -122.664292728836}, "transactions": ["delivery"], "price": "$$", "location": {"address1": "107 SE Washington St", "address2": "", "address3": "", "city": "Portland", "zip_code": "97214", "country": "US", "state": "OR", "display_address": ["107 SE Washington St", "Portland, OR 97214"]}, "phone": "+15039543663", "display_phone": "(503) 954-3663", "distance": 1416.4917626316821}, {"id": "6VhcvzGrfYYSygc9UKYfQw", "alias": "nongs-khao-man-gai-portland-2", "name": "Nong's Khao Man Gai", "image_url": "https://s3-media3.fl.yelpcdn.com/bphoto/jtp9n8HTjid4lEeXlcKKiA/o.jpg", "is_closed": false, "url": "https://www.yelp.com/biz/nongs-khao-man-gai-portland-2?adjust_creative=a2JdNtFqB-C38ga_06BHvw&utm_campaign=yelp_api_v3&utm_medium=api_v3_business_search&utm_source=a2JdNtFqB-C38ga_06BHvw", "review_count": 1774, "categories": [{"alias": "thai", "title": "Thai"}, {"alias": "chickenshop", "title": "Chicken Shop"}, {"alias": "cocktailbars", "title": "Cocktail Bars"}], "rating": 4.5, "coordinates": {"latitude": 45.5223316574034, "longitude": -122.659269462731}, "transactions": ["delivery", "pickup"], "price": "$$", "location": {"address1": "609 Se Ankeny St", "address2": "Ste C", "address3": "", "city": "Portland", "zip_code": "97214", "country": "US", "state": "OR", "display_address": ["609 Se Ankeny St", "Ste C", "Portland, OR 97214"]}, "phone": "+15037402907", "display_phone": "(503) 740-2907", "distance": 1187.2725240489688}, {"id": "RCiDqkIHatRlB5GFN0dilQ", "alias": "bar-botell처n-portland-2", "name": "Bar Botell처n", "image_url": "https://s3-media1.fl.yelpcdn.com/bphoto/99C4VMIadr9HRwRo3hwDhQ/o.jpg", "is_closed": false, "url": "https://www.yelp.com/biz/bar-botell%C3%B3n-portland-2?adjust_creative=a2JdNtFqB-C38ga_06BHvw&utm_campaign=yelp_api_v3&utm_medium=api_v3_business_search&utm_source=a2JdNtFqB-C38ga_06BHvw", "review_count": 53, "categories": [{"alias": "wine_bars", "title": "Wine Bars"}, {"alias": "beerbar", "title": "Beer Bar"}, {"alias": "tapas", "title": "Tapas Bars"}], "rating": 5.0, "coordinates": {"latitude": 45.5243476, "longitude": -122.6596187}, "transactions": ["delivery"], "price": "$", "location": {"address1": "606 NE Davis St", "address2": "", "address3": null, "city": "Portland", "zip_code": "97232", "country": "US", "state": "OR", "display_address": ["606 NE Davis St", "Portland, OR 97232"]}, "phone": "+19712291287", "display_phone": "(971) 229-1287", "distance": 981.7632046579037}, {"id": "zMp86mJ_SGvQkFnKXjpXVQ", "alias": "canard-portland", "name": "Canard", "image_url": "https://s3-media2.fl.yelpcdn.com/bphoto/QCXZi3yHBbSCMD--wQIQQg/o.jpg", "is_closed": false, "url": "https://www.yelp.com/biz/canard-portland?adjust_creative=a2JdNtFqB-C38ga_06BHvw&utm_campaign=yelp_api_v3&utm_medium=api_v3_business_search&utm_source=a2JdNtFqB-C38ga_06BHvw", "review_count": 297, "categories": [{"alias": "wine_bars", "title": "Wine Bars"}, {"alias": "cocktailbars", "title": "Cocktail Bars"}, {"alias": "newamerican", "title": "American (New)"}], "rating": 4.5, "coordinates": {"latitude": 45.52274, "longitude": -122.65799}, "transactions": [], "price": "$$", "location": {"address1": "734 E Burnside", "address2": null, "address3": "", "city": "Portland", "zip_code": "97214", "country": "US", "state": "OR", "display_address": ["734 E Burnside", "Portland, OR 97214"]}, "phone": "+19712792356", "display_phone": "(971) 279-2356", "distance": 1202.6538143217026}, {"id": "cq58hTPKAs03dPmPPIKVQQ", "alias": "kachka-portland-2", "name": "Kachka", "image_url": "https://s3-media4.fl.yelpcdn.com/bphoto/NYeo0_llvWdKAT_ntU9qYw/o.jpg", "is_closed": false, "url": "https://www.yelp.com/biz/kachka-portland-2?adjust_creative=a2JdNtFqB-C38ga_06BHvw&utm_campaign=yelp_api_v3&utm_medium=api_v3_business_search&utm_source=a2JdNtFqB-C38ga_06BHvw", "review_count": 914, "categories": [{"alias": "russian", "title": "Russian"}, {"alias": "comfortfood", "title": "Comfort Food"}, {"alias": "cocktailbars", "title": "Cocktail Bars"}], "rating": 4.5, "coordinates": {"latitude": 45.515782, "longitude": -122.6544675}, "transactions": ["delivery"], "price": "$$", "location": {"address1": "960 SE 11th Ave", "address2": "", "address3": "", "city": "Portland", "zip_code": "97214", "country": "US", "state": "OR", "display_address": ["960 SE 11th Ave", "Portland, OR 97214"]}, "phone": "+15032350059", "display_phone": "(503) 235-0059", "distance": 2006.8891152826886}, {"id": "E6aYeFovWUzogH0ygo31jg", "alias": "ox-portland", "name": "Ox", "image_url": "https://s3-media2.fl.yelpcdn.com/bphoto/p0XLmtOZSTnXh33zlmV5DQ/o.jpg", "is_closed": false, "url": "https://www.yelp.com/biz/ox-portland?adjust_creative=a2JdNtFqB-C38ga_06BHvw&utm_campaign=yelp_api_v3&utm_medium=api_v3_business_search&utm_source=a2JdNtFqB-C38ga_06BHvw", "review_count": 1017, "categories": [{"alias": "steak", "title": "Steakhouses"}, {"alias": "wine_bars", "title": "Wine Bars"}], "rating": 4.5, "coordinates": {"latitude": 45.53935, "longitude": -122.66213}, "transactions": ["delivery"], "price": "$$$", "location": {"address1": "2225 NE Martin Luther King Jr Blvd", "address2": "", "address3": "", "city": "Portland", "zip_code": "97212", "country": "US", "state": "OR", "display_address": ["2225 NE Martin Luther King Jr Blvd", "Portland, OR 97212"]}, "phone": "+15032843366", "display_phone": "(503) 284-3366", "distance": 939.7118618282552}, {"id": "3203k1hyaxa3PxkKL0R9Ow", "alias": "arden-portland-2", "name": "Arden ", "image_url": "https://s3-media2.fl.yelpcdn.com/bphoto/zvgQyj_E0ai4Azuy2vlDig/o.jpg", "is_closed": false, "url": "https://www.yelp.com/biz/arden-portland-2?adjust_creative=a2JdNtFqB-C38ga_06BHvw&utm_campaign=yelp_api_v3&utm_medium=api_v3_business_search&utm_source=a2JdNtFqB-C38ga_06BHvw", "review_count": 118, "categories": [{"alias": "newamerican", "title": "American (New)"}, {"alias": "wine_bars", "title": "Wine Bars"}], "rating": 4.5, "coordinates": {"latitude": 45.5261799, "longitude": -122.68173}, "transactions": ["delivery"], "price": "$$$", "location": {"address1": "417 NW 10th Ave", "address2": null, "address3": "", "city": "Portland", "zip_code": "97209", "country": "US", "state": "OR", "display_address": ["417 NW 10th Ave", "Portland, OR 97209"]}, "phone": "+15032066097", "display_phone": "(503) 206-6097", "distance": 1309.6635927084758}, {"id": "CfxHo9Z5JN2bsvZh2DT1sw", "alias": "bamboo-sushi-portland-3", "name": "Bamboo Sushi", "image_url": "https://s3-media4.fl.yelpcdn.com/bphoto/kR08PX7OgBrdJBMVUdqy8g/o.jpg", "is_closed": false, "url": "https://www.yelp.com/biz/bamboo-sushi-portland-3?adjust_creative=a2JdNtFqB-C38ga_06BHvw&utm_campaign=yelp_api_v3&utm_medium=api_v3_business_search&utm_source=a2JdNtFqB-C38ga_06BHvw", "review_count": 722, "categories": [{"alias": "sushi", "title": "Sushi Bars"}, {"alias": "japanese", "title": "Japanese"}, {"alias": "cocktailbars", "title": "Cocktail Bars"}], "rating": 4.5, "coordinates": {"latitude": 45.5289180365298, "longitude": -122.698444739168}, "transactions": ["delivery"], "price": "$$", "location": {"address1": "836 NW 23rd Ave", "address2": "", "address3": "", "city": "Portland", "zip_code": "97210", "country": "US", "state": "OR", "display_address": ["836 NW 23rd Ave", "Portland, OR 97210"]}, "phone": "+19712291925", "display_phone": "(971) 229-1925", "distance": 2494.145291129011}, {"id": "5ZZnsolkH4bQsxRx7Tcpuw", "alias": "carina-lounge-portland-2", "name": "Carina Lounge", "image_url": "https://s3-media1.fl.yelpcdn.com/bphoto/watEgvLpT2i7JmkEPdsuHA/o.jpg", "is_closed": false, "url": "https://www.yelp.com/biz/carina-lounge-portland-2?adjust_creative=a2JdNtFqB-C38ga_06BHvw&utm_campaign=yelp_api_v3&utm_medium=api_v3_business_search&utm_source=a2JdNtFqB-C38ga_06BHvw", "review_count": 145, "categories": [{"alias": "mediterranean", "title": "Mediterranean"}, {"alias": "lounges", "title": "Lounges"}, {"alias": "cocktailbars", "title": "Cocktail Bars"}], "rating": 4.5, "coordinates": {"latitude": 45.52581, "longitude": -122.69408}, "transactions": ["delivery", "pickup"], "price": "$$", "location": {"address1": "410 NW 21st Ave", "address2": null, "address3": "", "city": "Portland", "zip_code": "97209", "country": "US", "state": "OR", "display_address": ["410 NW 21st Ave", "Portland, OR 97209"]}, "phone": "+15032741572", "display_phone": "(503) 274-1572", "distance": 2241.2953043935518}, {"id": "sSQxJpnYBcX-GwWkHRDuPw", "alias": "pollo-bravo-portland", "name": "Pollo Bravo", "image_url": "https://s3-media3.fl.yelpcdn.com/bphoto/eE-DbM_qkjJvQsiUxORYzg/o.jpg", "is_closed": false, "url": "https://www.yelp.com/biz/pollo-bravo-portland?adjust_creative=a2JdNtFqB-C38ga_06BHvw&utm_campaign=yelp_api_v3&utm_medium=api_v3_business_search&utm_source=a2JdNtFqB-C38ga_06BHvw", "review_count": 166, "categories": [{"alias": "tapasmallplates", "title": "Tapas/Small Plates"}, {"alias": "spanish", "title": "Spanish"}, {"alias": "cocktailbars", "title": "Cocktail Bars"}], "rating": 4.5, "coordinates": {"latitude": 45.521455, "longitude": -122.6723357}, "transactions": ["delivery", "pickup"], "price": "$$", "location": {"address1": "126 SW 2nd Ave", "address2": "Ste 10", "address3": "", "city": "Portland", "zip_code": "97204", "country": "US", "state": "OR", "display_address": ["126 SW 2nd Ave", "Ste 10", "Portland, OR 97204"]}, "phone": "+15034778999", "display_phone": "(503) 477-8999", "distance": 1218.365880527073}, {"id": "iqBhkl7GF_ttVG16jmBRzg", "alias": "kingsland-kitchen-portland", "name": "Kingsland Kitchen", "image_url": "https://s3-media2.fl.yelpcdn.com/bphoto/QXAEcy6Gfug1B9W7dQMUVA/o.jpg", "is_closed": false, "url": "https://www.yelp.com/biz/kingsland-kitchen-portland?adjust_creative=a2JdNtFqB-C38ga_06BHvw&utm_campaign=yelp_api_v3&utm_medium=api_v3_business_search&utm_source=a2JdNtFqB-C38ga_06BHvw", "review_count": 527, "categories": [{"alias": "breakfast_brunch", "title": "Breakfast & Brunch"}, {"alias": "coffee", "title": "Coffee & Tea"}, {"alias": "cocktailbars", "title": "Cocktail Bars"}], "rating": 4.0, "coordinates": {"latitude": 45.521729, "longitude": -122.673884}, "transactions": ["delivery"], "price": "$$", "location": {"address1": "301 SW Pine St", "address2": "", "address3": "", "city": "Portland", "zip_code": "97204", "country": "US", "state": "OR", "display_address": ["301 SW Pine St", "Portland, OR 97204"]}, "phone": "+19713003118", "display_phone": "(971) 300-3118", "distance": 1239.4505079773419}, {"id": "90nu9SmFfQaXsoWoZGB0mQ", "alias": "murata-restaurant-portland", "name": "Murata Restaurant", "image_url": "https://s3-media3.fl.yelpcdn.com/bphoto/hcIS9v8AhgVhAtR5NL9DKA/o.jpg", "is_closed": false, "url": "https://www.yelp.com/biz/murata-restaurant-portland?adjust_creative=a2JdNtFqB-C38ga_06BHvw&utm_campaign=yelp_api_v3&utm_medium=api_v3_business_search&utm_source=a2JdNtFqB-C38ga_06BHvw", "review_count": 283, "categories": [{"alias": "japanese", "title": "Japanese"}, {"alias": "sushi", "title": "Sushi Bars"}, {"alias": "wine_bars", "title": "Wine Bars"}], "rating": 4.5, "coordinates": {"latitude": 45.511592, "longitude": -122.678604}, "transactions": ["delivery", "pickup"], "price": "$$", "location": {"address1": "200 SW Market St", "address2": "", "address3": "", "city": "Portland", "zip_code": "97201", "country": "US", "state": "OR", "display_address": ["200 SW Market St", "Portland, OR 97201"]}, "phone": "+15032270080", "display_phone": "(503) 227-0080", "distance": 2405.445817708113}, {"id": "Ys42wLKqrflqmtqkgqOXgA", "alias": "luc-lac-portland-7", "name": "Luc Lac", "image_url": "https://s3-media1.fl.yelpcdn.com/bphoto/azr6sD6VeJbdaiO2aKvSsw/o.jpg", "is_closed": false, "url": "https://www.yelp.com/biz/luc-lac-portland-7?adjust_creative=a2JdNtFqB-C38ga_06BHvw&utm_campaign=yelp_api_v3&utm_medium=api_v3_business_search&utm_source=a2JdNtFqB-C38ga_06BHvw", "review_count": 3264, "categories": [{"alias": "vietnamese", "title": "Vietnamese"}, {"alias": "tapasmallplates", "title": "Tapas/Small Plates"}, {"alias": "cocktailbars", "title": "Cocktail Bars"}], "rating": 4.0, "coordinates": {"latitude": 45.516868, "longitude": -122.675447}, "transactions": ["delivery", "pickup"], "price": "$$", "location": {"address1": "835 SW 2nd Ave", "address2": null, "address3": "", "city": "Portland", "zip_code": "97204", "country": "US", "state": "OR", "display_address": ["835 SW 2nd Ave", "Portland, OR 97204"]}, "phone": "+15032220047", "display_phone": "(503) 222-0047", "distance": 1778.1657381627872}, {"id": "nd3k1lDrWedcLNX3o6-5uA", "alias": "epif-portland-3", "name": "Epif", "image_url": "https://s3-media2.fl.yelpcdn.com/bphoto/cAkHykIg2Q9SDm4hL2Y4Ag/o.jpg", "is_closed": false, "url": "https://www.yelp.com/biz/epif-portland-3?adjust_creative=a2JdNtFqB-C38ga_06BHvw&utm_campaign=yelp_api_v3&utm_medium=api_v3_business_search&utm_source=a2JdNtFqB-C38ga_06BHvw", "review_count": 136, "categories": [{"alias": "latin", "title": "Latin American"}, {"alias": "vegan", "title": "Vegan"}, {"alias": "cocktailbars", "title": "Cocktail Bars"}], "rating": 4.5, "coordinates": {"latitude": 45.5259272, "longitude": -122.6370851}, "transactions": ["delivery", "pickup"], "price": "$$", "location": {"address1": "404 NE 28th Ave", "address2": null, "address3": "", "city": "Portland", "zip_code": "97232", "country": "US", "state": "OR", "display_address": ["404 NE 28th Ave", "Portland, OR 97232"]}, "phone": "+19712548680", "display_phone": "(971) 254-8680", "distance": 2395.663445361999}, {"id": "0mTVv3vIzXLFNqWT0nc2HA", "alias": "taste-on-23rd-portland", "name": "Taste On 23rd", "image_url": "https://s3-media3.fl.yelpcdn.com/bphoto/jJgTArkv8EJK5caBASuY3g/o.jpg", "is_closed": false, "url": "https://www.yelp.com/biz/taste-on-23rd-portland?adjust_creative=a2JdNtFqB-C38ga_06BHvw&utm_campaign=yelp_api_v3&utm_medium=api_v3_business_search&utm_source=a2JdNtFqB-C38ga_06BHvw", "review_count": 205, "categories": [{"alias": "wine_bars", "title": "Wine Bars"}, {"alias": "newamerican", "title": "American (New)"}, {"alias": "tapas", "title": "Tapas Bars"}], "rating": 4.5, "coordinates": {"latitude": 45.5285415649414, "longitude": -122.69832611084}, "transactions": ["delivery"], "price": "$$", "location": {"address1": "2285 NW Johnson St", "address2": "", "address3": "", "city": "Portland", "zip_code": "97210", "country": "US", "state": "OR", "display_address": ["2285 NW Johnson St", "Portland, OR 97210"]}, "phone": "+15034777238", "display_phone": "(503) 477-7238", "distance": 2494.5677354503646}, {"id": "ZehEdNbwSBBducVmEJPrXA", "alias": "the-waiting-room-portland-2", "name": "The Waiting Room", "image_url": "https://s3-media3.fl.yelpcdn.com/bphoto/u1vb8Gu-YiDPTkO7H1TpBg/o.jpg", "is_closed": false, "url": "https://www.yelp.com/biz/the-waiting-room-portland-2?adjust_creative=a2JdNtFqB-C38ga_06BHvw&utm_campaign=yelp_api_v3&utm_medium=api_v3_business_search&utm_source=a2JdNtFqB-C38ga_06BHvw", "review_count": 259, "categories": [{"alias": "cocktailbars", "title": "Cocktail Bars"}, {"alias": "newamerican", "title": "American (New)"}], "rating": 4.0, "coordinates": {"latitude": 45.52929, "longitude": -122.69924}, "transactions": ["delivery"], "price": "$$", "location": {"address1": "2327 NW Kearney St", "address2": null, "address3": "", "city": "Portland", "zip_code": "97210", "country": "US", "state": "OR", "display_address": ["2327 NW Kearney St", "Portland, OR 97210"]}, "phone": "+15034774380", "display_phone": "(503) 477-4380", "distance": 2550.2461070914965}, {"id": "jHLrX42I1lEcEg4WMMKP9A", "alias": "hey-love-portland-3", "name": "Hey Love", "image_url": "https://s3-media2.fl.yelpcdn.com/bphoto/bl9wB089wN09bGPkoydy_Q/o.jpg", "is_closed": false, "url": "https://www.yelp.com/biz/hey-love-portland-3?adjust_creative=a2JdNtFqB-C38ga_06BHvw&utm_campaign=yelp_api_v3&utm_medium=api_v3_business_search&utm_source=a2JdNtFqB-C38ga_06BHvw", "review_count": 137, "categories": [{"alias": "coffee", "title": "Coffee & Tea"}, {"alias": "breakfast_brunch", "title": "Breakfast & Brunch"}, {"alias": "cocktailbars", "title": "Cocktail Bars"}], "rating": 4.5, "coordinates": {"latitude": 45.5227, "longitude": -122.65615}, "transactions": [], "price": "$$", "location": {"address1": "920 E Burnside St", "address2": null, "address3": "", "city": "Portland", "zip_code": "97214", "country": "US", "state": "OR", "display_address": ["920 E Burnside St", "Portland, OR 97214"]}, "phone": "+15032066223", "display_phone": "(503) 206-6223", "distance": 1279.9585302635292}, {"id": "JB7pzWtOJ-t0bBHWJ1cpKA", "alias": "black-water-portland", "name": "Black Water", "image_url": "https://s3-media4.fl.yelpcdn.com/bphoto/qWjHcmWdqPeGf4wbXuN4Dg/o.jpg", "is_closed": false, "url": "https://www.yelp.com/biz/black-water-portland?adjust_creative=a2JdNtFqB-C38ga_06BHvw&utm_campaign=yelp_api_v3&utm_medium=api_v3_business_search&utm_source=a2JdNtFqB-C38ga_06BHvw", "review_count": 222, "categories": [{"alias": "cocktailbars", "title": "Cocktail Bars"}, {"alias": "burgers", "title": "Burgers"}, {"alias": "sandwiches", "title": "Sandwiches"}], "rating": 4.0, "coordinates": {"latitude": 45.53529, "longitude": -122.65679}, "transactions": ["delivery"], "price": "$", "location": {"address1": "835 NE Broadway", "address2": "", "address3": "", "city": "Portland", "zip_code": "97232", "country": "US", "state": "OR", "display_address": ["835 NE Broadway", "Portland, OR 97232"]}, "phone": "+15032810439", "display_phone": "(503) 281-0439", "distance": 867.6995316123358}, {"id": "czkZRe91TEJcxsszXJ_wRQ", "alias": "samurai-blue-portland-3", "name": "Samurai Blue", "image_url": "https://s3-media1.fl.yelpcdn.com/bphoto/TAnHnuY5A4FUwtT5YrVo1Q/o.jpg", "is_closed": false, "url": "https://www.yelp.com/biz/samurai-blue-portland-3?adjust_creative=a2JdNtFqB-C38ga_06BHvw&utm_campaign=yelp_api_v3&utm_medium=api_v3_business_search&utm_source=a2JdNtFqB-C38ga_06BHvw", "review_count": 337, "categories": [{"alias": "sushi", "title": "Sushi Bars"}, {"alias": "ramen", "title": "Ramen"}, {"alias": "cocktailbars", "title": "Cocktail Bars"}], "rating": 4.0, "coordinates": {"latitude": 45.5503135, "longitude": -122.675782}, "transactions": ["delivery", "pickup"], "price": "$$", "location": {"address1": "3807 N Mississippi Ave", "address2": "", "address3": "", "city": "Portland", "zip_code": "97227", "country": "US", "state": "OR", "display_address": ["3807 N Mississippi Ave", "Portland, OR 97227"]}, "phone": "+15032841020", "display_phone": "(503) 284-1020", "distance": 2191.5509653847425}, {"id": "TvZ-8ZEcsv93UvMQXnvOug", "alias": "papa-haydn-northwest-portland", "name": "Papa Haydn Northwest", "image_url": "https://s3-media3.fl.yelpcdn.com/bphoto/RDeVAHx34HStXmGhCLUuHg/o.jpg", "is_closed": false, "url": "https://www.yelp.com/biz/papa-haydn-northwest-portland?adjust_creative=a2JdNtFqB-C38ga_06BHvw&utm_campaign=yelp_api_v3&utm_medium=api_v3_business_search&utm_source=a2JdNtFqB-C38ga_06BHvw", "review_count": 1199, "categories": [{"alias": "newamerican", "title": "American (New)"}, {"alias": "desserts", "title": "Desserts"}, {"alias": "cocktailbars", "title": "Cocktail Bars"}], "rating": 4.0, "coordinates": {"latitude": 45.52787, "longitude": -122.69876}, "transactions": ["delivery"], "price": "$$", "location": {"address1": "701 NW 23rd Ave", "address2": "", "address3": "", "city": "Portland", "zip_code": "97210", "country": "US", "state": "OR", "display_address": ["701 NW 23rd Ave", "Portland, OR 97210"]}, "phone": "+15032287317", "display_phone": "(503) 228-7317", "distance": 2533.0709568515226}, {"id": "YLfC8mt25gUY1SSLOmivrQ", "alias": "mama-bird-portland-2", "name": "Mama Bird", "image_url": "https://s3-media3.fl.yelpcdn.com/bphoto/lEUTLyxKCNWntq2pB_lVug/o.jpg", "is_closed": false, "url": "https://www.yelp.com/biz/mama-bird-portland-2?adjust_creative=a2JdNtFqB-C38ga_06BHvw&utm_campaign=yelp_api_v3&utm_medium=api_v3_business_search&utm_source=a2JdNtFqB-C38ga_06BHvw", "review_count": 82, "categories": [{"alias": "chickenshop", "title": "Chicken Shop"}, {"alias": "wine_bars", "title": "Wine Bars"}], "rating": 4.5, "coordinates": {"latitude": 45.5342646, "longitude": -122.6954799}, "transactions": ["delivery"], "price": "$$", "location": {"address1": "2145 NW Raleigh St", "address2": "", "address3": null, "city": "Portland", "zip_code": "97210", "country": "US", "state": "OR", "display_address": ["2145 NW Raleigh St", "Portland, OR 97210"]}, "phone": "+15033842064", "display_phone": "(503) 384-2064", "distance": 2269.8815627842723}, {"id": "umw3Q6eW8fc8Kt-rXrYi-w", "alias": "bantam-tavern-portland-3", "name": "Bantam Tavern", "image_url": "https://s3-media1.fl.yelpcdn.com/bphoto/DRHE5Vc79TuH5ZuX5HJ96g/o.jpg", "is_closed": false, "url": "https://www.yelp.com/biz/bantam-tavern-portland-3?adjust_creative=a2JdNtFqB-C38ga_06BHvw&utm_campaign=yelp_api_v3&utm_medium=api_v3_business_search&utm_source=a2JdNtFqB-C38ga_06BHvw", "review_count": 48, "categories": [{"alias": "brewpubs", "title": "Brewpubs"}, {"alias": "newamerican", "title": "American (New)"}, {"alias": "cocktailbars", "title": "Cocktail Bars"}], "rating": 4.5, "coordinates": {"latitude": 45.52946, "longitude": -122.69433}, "transactions": ["delivery", "pickup"], "price": "$$", "location": {"address1": "922 NW 21st Ave", "address2": null, "address3": "", "city": "Portland", "zip_code": "97209", "country": "US", "state": "OR", "display_address": ["922 NW 21st Ave", "Portland, OR 97209"]}, "phone": "+15032749032", "display_phone": "(503) 274-9032", "distance": 2170.0886063865405}, {"id": "Xph7Vfqxyjyynr-aE06fMg", "alias": "palomar-portland", "name": "Palomar", "image_url": "https://s3-media3.fl.yelpcdn.com/bphoto/Hz6KiSquiSt-Qu7MyRKs8Q/o.jpg", "is_closed": false, "url": "https://www.yelp.com/biz/palomar-portland?adjust_creative=a2JdNtFqB-C38ga_06BHvw&utm_campaign=yelp_api_v3&utm_medium=api_v3_business_search&utm_source=a2JdNtFqB-C38ga_06BHvw", "review_count": 161, "categories": [{"alias": "cocktailbars", "title": "Cocktail Bars"}, {"alias": "cuban", "title": "Cuban"}], "rating": 4.5, "coordinates": {"latitude": 45.505322, "longitude": -122.656438}, "transactions": ["delivery"], "price": "$$", "location": {"address1": "959 SE Division St", "address2": "", "address3": null, "city": "Portland", "zip_code": "97214", "country": "US", "state": "OR", "display_address": ["959 SE Division St", "Portland, OR 97214"]}, "phone": "+19713578020", "display_phone": "(971) 357-8020", "distance": 3035.9000325867305}, {"id": "W60O4ast9uAq03n7nzcHSw", "alias": "paleys-place-portland", "name": "Paley's Place", "image_url": "https://s3-media2.fl.yelpcdn.com/bphoto/dXoojioObj_tTMY_wx8Eng/o.jpg", "is_closed": false, "url": "https://www.yelp.com/biz/paleys-place-portland?adjust_creative=a2JdNtFqB-C38ga_06BHvw&utm_campaign=yelp_api_v3&utm_medium=api_v3_business_search&utm_source=a2JdNtFqB-C38ga_06BHvw", "review_count": 534, "categories": [{"alias": "french", "title": "French"}, {"alias": "wine_bars", "title": "Wine Bars"}], "rating": 4.0, "coordinates": {"latitude": 45.5313891084409, "longitude": -122.694475476548}, "transactions": ["delivery"], "price": "$$$", "location": {"address1": "1204 NW 21st Ave", "address2": "", "address3": "", "city": "Portland", "zip_code": "97209", "country": "US", "state": "OR", "display_address": ["1204 NW 21st Ave", "Portland, OR 97209"]}, "phone": "+15032432403", "display_phone": "(503) 243-2403", "distance": 2166.32868645703}, {"id": "_AXiiZrpuI-YXggCjfhK6Q", "alias": "fish-sauce-portland-3", "name": "Fish Sauce", "image_url": "https://s3-media3.fl.yelpcdn.com/bphoto/lEKqU9oXQYz5EpXl3gzUdw/o.jpg", "is_closed": false, "url": "https://www.yelp.com/biz/fish-sauce-portland-3?adjust_creative=a2JdNtFqB-C38ga_06BHvw&utm_campaign=yelp_api_v3&utm_medium=api_v3_business_search&utm_source=a2JdNtFqB-C38ga_06BHvw", "review_count": 280, "categories": [{"alias": "vietnamese", "title": "Vietnamese"}, {"alias": "cocktailbars", "title": "Cocktail Bars"}], "rating": 4.0, "coordinates": {"latitude": 45.52583, "longitude": -122.68846}, "transactions": ["delivery", "pickup"], "price": "$$", "location": {"address1": "407 NW 17th Ave", "address2": "", "address3": "", "city": "Portland", "zip_code": "97209", "country": "US", "state": "OR", "display_address": ["407 NW 17th Ave", "Portland, OR 97209"]}, "phone": "+15032278000", "display_phone": "(503) 227-8000", "distance": 1817.4665605707514}, {"id": "mAmLdDebNphIahyH1aZuXA", "alias": "suzette-creperie-portland", "name": "Suzette Creperie", "image_url": "https://s3-media1.fl.yelpcdn.com/bphoto/UU9RJ6D6OvAkltPLOuMrmA/o.jpg", "is_closed": false, "url": "https://www.yelp.com/biz/suzette-creperie-portland?adjust_creative=a2JdNtFqB-C38ga_06BHvw&utm_campaign=yelp_api_v3&utm_medium=api_v3_business_search&utm_source=a2JdNtFqB-C38ga_06BHvw", "review_count": 158, "categories": [{"alias": "creperies", "title": "Creperies"}, {"alias": "breakfast_brunch", "title": "Breakfast & Brunch"}, {"alias": "cocktailbars", "title": "Cocktail Bars"}], "rating": 4.5, "coordinates": {"latitude": 45.516216, "longitude": -122.629928}, "transactions": ["delivery", "pickup"], "price": "$$", "location": {"address1": "3342 SE Belmont St", "address2": "", "address3": "", "city": "Portland", "zip_code": "97214", "country": "US", "state": "OR", "display_address": ["3342 SE Belmont St", "Portland, OR 97214"]}, "phone": "+15035460892", "display_phone": "(503) 546-0892", "distance": 3327.231754395489}, {"id": "PuPuAypjUO073zMG73s3kA", "alias": "rum-club-portland", "name": "Rum Club", "image_url": "https://s3-media1.fl.yelpcdn.com/bphoto/Rt6X1DPTJ-Bd12jXKwhxtw/o.jpg", "is_closed": false, "url": "https://www.yelp.com/biz/rum-club-portland?adjust_creative=a2JdNtFqB-C38ga_06BHvw&utm_campaign=yelp_api_v3&utm_medium=api_v3_business_search&utm_source=a2JdNtFqB-C38ga_06BHvw", "review_count": 252, "categories": [{"alias": "newamerican", "title": "American (New)"}, {"alias": "lounges", "title": "Lounges"}, {"alias": "cocktailbars", "title": "Cocktail Bars"}], "rating": 4.0, "coordinates": {"latitude": 45.51887, "longitude": -122.65796}, "transactions": [], "price": "$$", "location": {"address1": "720 SE Sandy Blvd", "address2": "", "address3": "", "city": "Portland", "zip_code": "97214", "country": "US", "state": "OR", "display_address": ["720 SE Sandy Blvd", "Portland, OR 97214"]}, "phone": "+15032658807", "display_phone": "(503) 265-8807", "distance": 1571.6103965053762}, {"id": "2EJpVjliJ6Ceijbz9HSpeQ", "alias": "montesacro-pinseria-pdx-portland-3", "name": "MONTESACRO Pinseria PDX", "image_url": "https://s3-media3.fl.yelpcdn.com/bphoto/u-SG62SfHFiacZzlbXV-8w/o.jpg", "is_closed": false, "url": "https://www.yelp.com/biz/montesacro-pinseria-pdx-portland-3?adjust_creative=a2JdNtFqB-C38ga_06BHvw&utm_campaign=yelp_api_v3&utm_medium=api_v3_business_search&utm_source=a2JdNtFqB-C38ga_06BHvw", "review_count": 88, "categories": [{"alias": "pizza", "title": "Pizza"}, {"alias": "italian", "title": "Italian"}, {"alias": "cocktailbars", "title": "Cocktail Bars"}], "rating": 4.5, "coordinates": {"latitude": 45.52698, "longitude": -122.68388}, "transactions": ["delivery", "pickup"], "price": "$$", "location": {"address1": "1230 NW Hoyt St", "address2": null, "address3": "", "city": "Portland", "zip_code": "97209", "country": "US", "state": "OR", "display_address": ["1230 NW Hoyt St", "Portland, OR 97209"]}, "phone": "+15032082992", "display_phone": "(503) 208-2992", "distance": 1440.4785902356919}, {"id": "oloBhDAbMhmqA8tlAChj4g", "alias": "nostrana-portland", "name": "Nostrana", "image_url": "https://s3-media2.fl.yelpcdn.com/bphoto/kD7p3zhA62CJmI-dmW4G3g/o.jpg", "is_closed": false, "url": "https://www.yelp.com/biz/nostrana-portland?adjust_creative=a2JdNtFqB-C38ga_06BHvw&utm_campaign=yelp_api_v3&utm_medium=api_v3_business_search&utm_source=a2JdNtFqB-C38ga_06BHvw", "review_count": 962, "categories": [{"alias": "italian", "title": "Italian"}, {"alias": "pizza", "title": "Pizza"}, {"alias": "wine_bars", "title": "Wine Bars"}], "rating": 4.0, "coordinates": {"latitude": 45.51755, "longitude": -122.6511}, "transactions": ["delivery"], "price": "$$", "location": {"address1": "1401 SE Morrison St", "address2": "Ste 101", "address3": "", "city": "Portland", "zip_code": "97214", "country": "US", "state": "OR", "display_address": ["1401 SE Morrison St", "Ste 101", "Portland, OR 97214"]}, "phone": "+15032342427", "display_phone": "(503) 234-2427", "distance": 1965.2047430706218}, {"id": "hl6NmFCscjigwhi7a-FtfA", "alias": "prost-portland", "name": "Prost", "image_url": "https://s3-media3.fl.yelpcdn.com/bphoto/N5u9aDNzv1Df3PEplPL7Ew/o.jpg", "is_closed": false, "url": "https://www.yelp.com/biz/prost-portland?adjust_creative=a2JdNtFqB-C38ga_06BHvw&utm_campaign=yelp_api_v3&utm_medium=api_v3_business_search&utm_source=a2JdNtFqB-C38ga_06BHvw", "review_count": 446, "categories": [{"alias": "pubs", "title": "Pubs"}, {"alias": "german", "title": "German"}], "rating": 4.0, "coordinates": {"latitude": 45.55447, "longitude": -122.67582}, "transactions": ["delivery"], "price": "$$", "location": {"address1": "4237 N Mississippi", "address2": "", "address3": "", "city": "Portland", "zip_code": "97217", "country": "US", "state": "OR", "display_address": ["4237 N Mississippi", "Portland, OR 97217"]}, "phone": "+15039542674", "display_phone": "(503) 954-2674", "distance": 2636.6297012838745}, {"id": "JTNfXNofJDYI67VC62aEiQ", "alias": "double-dragon-portland-2", "name": "Double Dragon", "image_url": "https://s3-media4.fl.yelpcdn.com/bphoto/DNSgG6jqNysG3-e15jsFHA/o.jpg", "is_closed": false, "url": "https://www.yelp.com/biz/double-dragon-portland-2?adjust_creative=a2JdNtFqB-C38ga_06BHvw&utm_campaign=yelp_api_v3&utm_medium=api_v3_business_search&utm_source=a2JdNtFqB-C38ga_06BHvw", "review_count": 423, "categories": [{"alias": "sandwiches", "title": "Sandwiches"}, {"alias": "cocktailbars", "title": "Cocktail Bars"}], "rating": 4.0, "coordinates": {"latitude": 45.50511, "longitude": -122.65292}, "transactions": ["pickup", "delivery"], "price": "$$", "location": {"address1": "1235 SE Division St", "address2": null, "address3": "", "city": "Portland", "zip_code": "97214", "country": "US", "state": "OR", "display_address": ["1235 SE Division St", "Portland, OR 97214"]}, "phone": "+15032308340", "display_phone": "(503) 230-8340", "distance": 3147.5987001003905}, {"id": "plCfeFJ_D3IdjowF45riUA", "alias": "scotch-lodge-portland", "name": "Scotch Lodge", "image_url": "https://s3-media3.fl.yelpcdn.com/bphoto/Uw01gyZuMXc3E4yxGKyohg/o.jpg", "is_closed": false, "url": "https://www.yelp.com/biz/scotch-lodge-portland?adjust_creative=a2JdNtFqB-C38ga_06BHvw&utm_campaign=yelp_api_v3&utm_medium=api_v3_business_search&utm_source=a2JdNtFqB-C38ga_06BHvw", "review_count": 53, "categories": [{"alias": "cocktailbars", "title": "Cocktail Bars"}, {"alias": "whiskeybars", "title": "Whiskey Bars"}, {"alias": "french", "title": "French"}], "rating": 4.5, "coordinates": {"latitude": 45.521347, "longitude": -122.656848}, "transactions": ["delivery"], "price": "$$", "location": {"address1": "215 SE 9th Ave", "address2": "Ste 102", "address3": "", "city": "Portland", "zip_code": "97214", "country": "US", "state": "OR", "display_address": ["215 SE 9th Ave", "Ste 102", "Portland, OR 97214"]}, "phone": "+15032082039", "display_phone": "(503) 208-2039", "distance": 1379.0974016020473}, {"id": "giLX7ndl5XYIjq6o0AAMpA", "alias": "victoria-portland", "name": "Victoria", "image_url": "https://s3-media3.fl.yelpcdn.com/bphoto/WhKXLcq2fnFBqGU7EzLecw/o.jpg", "is_closed": false, "url": "https://www.yelp.com/biz/victoria-portland?adjust_creative=a2JdNtFqB-C38ga_06BHvw&utm_campaign=yelp_api_v3&utm_medium=api_v3_business_search&utm_source=a2JdNtFqB-C38ga_06BHvw", "review_count": 171, "categories": [{"alias": "cocktailbars", "title": "Cocktail Bars"}, {"alias": "vegan", "title": "Vegan"}, {"alias": "breakfast_brunch", "title": "Breakfast & Brunch"}], "rating": 4.0, "coordinates": {"latitude": 45.558034, "longitude": -122.675259}, "transactions": ["delivery"], "price": "$$", "location": {"address1": "4835 N Albina Ave", "address2": "", "address3": "", "city": "Portland", "zip_code": "97217", "country": "US", "state": "OR", "display_address": ["4835 N Albina Ave", "Portland, OR 97217"]}, "phone": "", "display_phone": "", "distance": 3007.255080086283}, {"id": "Hvwxs3zu4axmSiqYDuCTKA", "alias": "masu-sushi-portland", "name": "Masu Sushi", "image_url": "https://s3-media1.fl.yelpcdn.com/bphoto/euxqFyqRmsPd8BXzwm6JVw/o.jpg", "is_closed": false, "url": "https://www.yelp.com/biz/masu-sushi-portland?adjust_creative=a2JdNtFqB-C38ga_06BHvw&utm_campaign=yelp_api_v3&utm_medium=api_v3_business_search&utm_source=a2JdNtFqB-C38ga_06BHvw", "review_count": 677, "categories": [{"alias": "sushi", "title": "Sushi Bars"}, {"alias": "japanese", "title": "Japanese"}, {"alias": "cocktailbars", "title": "Cocktail Bars"}], "rating": 4.0, "coordinates": {"latitude": 45.52256, "longitude": -122.68396}, "transactions": ["pickup", "delivery"], "price": "$$", "location": {"address1": "406 SW 13th Ave", "address2": "", "address3": "", "city": "Portland", "zip_code": "97205", "country": "US", "state": "OR", "display_address": ["406 SW 13th Ave", "Portland, OR 97205"]}, "phone": "+15032216278", "display_phone": "(503) 221-6278", "distance": 1689.071484909928}, {"id": "YhNxOAihYXTkziyNGOErDg", "alias": "serratto-portland", "name": "Serratto", "image_url": "https://s3-media1.fl.yelpcdn.com/bphoto/LwIrN1s72eysOevHyi5FqA/o.jpg", "is_closed": false, "url": "https://www.yelp.com/biz/serratto-portland?adjust_creative=a2JdNtFqB-C38ga_06BHvw&utm_campaign=yelp_api_v3&utm_medium=api_v3_business_search&utm_source=a2JdNtFqB-C38ga_06BHvw", "review_count": 636, "categories": [{"alias": "italian", "title": "Italian"}, {"alias": "wine_bars", "title": "Wine Bars"}, {"alias": "french", "title": "French"}], "rating": 4.0, "coordinates": {"latitude": 45.52886, "longitude": -122.69484}, "transactions": ["delivery"], "price": "$$$", "location": {"address1": "2112 NW Kearney St", "address2": "", "address3": "", "city": "Portland", "zip_code": "97210", "country": "US", "state": "OR", "display_address": ["2112 NW Kearney St", "Portland, OR 97210"]}, "phone": "+15032211195", "display_phone": "(503) 221-1195", "distance": 2213.960113949149}, {"id": "9hz5Il6RRyGBW7FcwdZtaQ", "alias": "the-boiling-bowl-portland", "name": "The Boiling Bowl", "image_url": "https://s3-media1.fl.yelpcdn.com/bphoto/95RYAtIoqr5xabYRv3EA7Q/o.jpg", "is_closed": false, "url": "https://www.yelp.com/biz/the-boiling-bowl-portland?adjust_creative=a2JdNtFqB-C38ga_06BHvw&utm_campaign=yelp_api_v3&utm_medium=api_v3_business_search&utm_source=a2JdNtFqB-C38ga_06BHvw", "review_count": 166, "categories": [{"alias": "vietnamese", "title": "Vietnamese"}, {"alias": "wine_bars", "title": "Wine Bars"}, {"alias": "soup", "title": "Soup"}], "rating": 4.0, "coordinates": {"latitude": 45.5237, "longitude": -122.69475}, "transactions": ["pickup", "delivery"], "price": "$$", "location": {"address1": "103 NW 21st St", "address2": null, "address3": "", "city": "Portland", "zip_code": "97209", "country": "US", "state": "OR", "display_address": ["103 NW 21st St", "Portland, OR 97209"]}, "phone": "+19718884255", "display_phone": "(971) 888-4255", "distance": 2337.2953153439676}, {"id": "enOjG-yGGgm1orBjjW7yyg", "alias": "il-terrazzo-portland", "name": "Il Terrazzo", "image_url": "https://s3-media1.fl.yelpcdn.com/bphoto/gJjupA3_hNwc9IvUuUwiug/o.jpg", "is_closed": false, "url": "https://www.yelp.com/biz/il-terrazzo-portland?adjust_creative=a2JdNtFqB-C38ga_06BHvw&utm_campaign=yelp_api_v3&utm_medium=api_v3_business_search&utm_source=a2JdNtFqB-C38ga_06BHvw", "review_count": 177, "categories": [{"alias": "italian", "title": "Italian"}, {"alias": "wine_bars", "title": "Wine Bars"}, {"alias": "cocktailbars", "title": "Cocktail Bars"}], "rating": 4.0, "coordinates": {"latitude": 45.5102213, "longitude": -122.6739867}, "transactions": ["pickup", "delivery"], "price": "$$", "location": {"address1": "315 S Montgomery St", "address2": "", "address3": null, "city": "Portland", "zip_code": "97201", "country": "US", "state": "OR", "display_address": ["315 S Montgomery St", "Portland, OR 97201"]}, "phone": "+19713026691", "display_phone": "(971) 302-6691", "distance": 2451.889377932746}, {"id": "z6zwhYfTjnA7m0bmQxJPNQ", "alias": "tarad-thai-portland", "name": "Tarad Thai", "image_url": "https://s3-media4.fl.yelpcdn.com/bphoto/1WWgjYQ7W1FA9HvBCdCApg/o.jpg", "is_closed": false, "url": "https://www.yelp.com/biz/tarad-thai-portland?adjust_creative=a2JdNtFqB-C38ga_06BHvw&utm_campaign=yelp_api_v3&utm_medium=api_v3_business_search&utm_source=a2JdNtFqB-C38ga_06BHvw", "review_count": 149, "categories": [{"alias": "thai", "title": "Thai"}, {"alias": "cocktailbars", "title": "Cocktail Bars"}, {"alias": "noodles", "title": "Noodles"}], "rating": 4.0, "coordinates": {"latitude": 45.5173581053224, "longitude": -122.659601085427}, "transactions": ["pickup", "delivery"], "price": "$$", "location": {"address1": "601 SE Morrison St", "address2": null, "address3": "", "city": "Portland", "zip_code": "97214", "country": "US", "state": "OR", "display_address": ["601 SE Morrison St", "Portland, OR 97214"]}, "phone": "+15032344102", "display_phone": "(503) 234-4102", "distance": 1683.604661340721}, {"id": "k12ibE9y9uVXJtaSn0YB_g", "alias": "besaws-portland-2", "name": "Besaw's", "image_url": "https://s3-media1.fl.yelpcdn.com/bphoto/xD4uV-rjgtBYd2ccDVi_uA/o.jpg", "is_closed": false, "url": "https://www.yelp.com/biz/besaws-portland-2?adjust_creative=a2JdNtFqB-C38ga_06BHvw&utm_campaign=yelp_api_v3&utm_medium=api_v3_business_search&utm_source=a2JdNtFqB-C38ga_06BHvw", "review_count": 554, "categories": [{"alias": "breakfast_brunch", "title": "Breakfast & Brunch"}, {"alias": "tradamerican", "title": "American (Traditional)"}, {"alias": "cocktailbars", "title": "Cocktail Bars"}], "rating": 4.0, "coordinates": {"latitude": 45.5337583, "longitude": -122.6948549}, "transactions": ["pickup", "delivery"], "price": "$$", "location": {"address1": "1545 NW 21st Ave", "address2": "", "address3": "", "city": "Portland", "zip_code": "97209", "country": "US", "state": "OR", "display_address": ["1545 NW 21st Ave", "Portland, OR 97209"]}, "phone": "+15032282619", "display_phone": "(503) 228-2619", "distance": 2224.468851952793}, {"id": "eP0jAO4SIjb1ny6MFHGCqQ", "alias": "sante-bar-portland-3", "name": "Sante Bar", "image_url": "https://s3-media2.fl.yelpcdn.com/bphoto/vutuFFtcs-NsKkIhvmXP7Q/o.jpg", "is_closed": false, "url": "https://www.yelp.com/biz/sante-bar-portland-3?adjust_creative=a2JdNtFqB-C38ga_06BHvw&utm_campaign=yelp_api_v3&utm_medium=api_v3_business_search&utm_source=a2JdNtFqB-C38ga_06BHvw", "review_count": 50, "categories": [{"alias": "cocktailbars", "title": "Cocktail Bars"}, {"alias": "tapasmallplates", "title": "Tapas/Small Plates"}], "rating": 4.5, "coordinates": {"latitude": 45.52608, "longitude": -122.6795}, "transactions": ["delivery"], "price": "$$", "location": {"address1": "411 NW Park Ave", "address2": "", "address3": "", "city": "Portland", "zip_code": "97209", "country": "US", "state": "OR", "display_address": ["411 NW Park Ave", "Portland, OR 97209"]}, "phone": "+19714048216", "display_phone": "(971) 404-8216", "distance": 1177.463254552553}, {"id": "4VT8kIUlTa4d3mwWrGJ5Zg", "alias": "pepe-le-moko-portland-2", "name": "Pepe le Moko", "image_url": "https://s3-media1.fl.yelpcdn.com/bphoto/b4T5KB38g3S4_Jwa2lVAug/o.jpg", "is_closed": false, "url": "https://www.yelp.com/biz/pepe-le-moko-portland-2?adjust_creative=a2JdNtFqB-C38ga_06BHvw&utm_campaign=yelp_api_v3&utm_medium=api_v3_business_search&utm_source=a2JdNtFqB-C38ga_06BHvw", "review_count": 439, "categories": [{"alias": "cocktailbars", "title": "Cocktail Bars"}, {"alias": "seafood", "title": "Seafood"}], "rating": 4.0, "coordinates": {"latitude": 45.521873030233, "longitude": -122.681173476283}, "transactions": [], "price": "$$", "location": {"address1": "407 SW 10th Ave", "address2": null, "address3": "", "city": "Portland", "zip_code": "97205", "country": "US", "state": "OR", "display_address": ["407 SW 10th Ave", "Portland, OR 97205"]}, "phone": "+15035468537", "display_phone": "(503) 546-8537", "distance": 1569.4079606759033}, {"id": "4XyXfIPnyXPVE2VY3cQ__w", "alias": "raven-and-rose-portland", "name": "Raven & Rose", "image_url": "https://s3-media1.fl.yelpcdn.com/bphoto/y3iIknH7mtTQPb5r-GVG8g/o.jpg", "is_closed": false, "url": "https://www.yelp.com/biz/raven-and-rose-portland?adjust_creative=a2JdNtFqB-C38ga_06BHvw&utm_campaign=yelp_api_v3&utm_medium=api_v3_business_search&utm_source=a2JdNtFqB-C38ga_06BHvw", "review_count": 466, "categories": [{"alias": "pubs", "title": "Pubs"}, {"alias": "british", "title": "British"}], "rating": 4.0, "coordinates": {"latitude": 45.51491, "longitude": -122.68241}, "transactions": ["delivery"], "price": "$$", "location": {"address1": "1331 SW Broadway", "address2": "", "address3": "", "city": "Portland", "zip_code": "97201", "country": "US", "state": "OR", "display_address": ["1331 SW Broadway", "Portland, OR 97201"]}, "phone": "+15032227673", "display_phone": "(503) 222-7673", "distance": 2230.6168600224883}, {"id": "Khnmn7dwavwZbsuxBebggA", "alias": "afuri-izakaya-portland", "name": "AFURI IZAKAYA", "image_url": "https://s3-media1.fl.yelpcdn.com/bphoto/hGsJRZp-2TQfXSoRQujcWQ/o.jpg", "is_closed": false, "url": "https://www.yelp.com/biz/afuri-izakaya-portland?adjust_creative=a2JdNtFqB-C38ga_06BHvw&utm_campaign=yelp_api_v3&utm_medium=api_v3_business_search&utm_source=a2JdNtFqB-C38ga_06BHvw", "review_count": 779, "categories": [{"alias": "ramen", "title": "Ramen"}, {"alias": "izakaya", "title": "Izakaya"}, {"alias": "cocktailbars", "title": "Cocktail Bars"}], "rating": 4.0, "coordinates": {"latitude": 45.51602, "longitude": -122.65904}, "transactions": ["pickup", "delivery"], "price": "$$", "location": {"address1": "923 SE 7th Ave", "address2": null, "address3": "", "city": "Portland", "zip_code": "97214", "country": "US", "state": "OR", "display_address": ["923 SE 7th Ave", "Portland, OR 97214"]}, "phone": "+19713862945", "display_phone": "(971) 386-2945", "distance": 1839.0228048590125}, {"id": "C4QsRUJbp6XIjw27X8qICw", "alias": "swine-moonshine-and-whiskey-bar-portland-6", "name": "Swine Moonshine & Whiskey Bar", "image_url": "https://s3-media2.fl.yelpcdn.com/bphoto/dUHojuPs6NPNIWF4brZnIA/o.jpg", "is_closed": false, "url": "https://www.yelp.com/biz/swine-moonshine-and-whiskey-bar-portland-6?adjust_creative=a2JdNtFqB-C38ga_06BHvw&utm_campaign=yelp_api_v3&utm_medium=api_v3_business_search&utm_source=a2JdNtFqB-C38ga_06BHvw", "review_count": 306, "categories": [{"alias": "cocktailbars", "title": "Cocktail Bars"}, {"alias": "newamerican", "title": "American (New)"}, {"alias": "whiskeybars", "title": "Whiskey Bars"}], "rating": 4.0, "coordinates": {"latitude": 45.5181977, "longitude": -122.6816806}, "transactions": [], "price": "$$", "location": {"address1": "808 SW Taylor St", "address2": "", "address3": "", "city": "Portland", "zip_code": "97205", "country": "US", "state": "OR", "display_address": ["808 SW Taylor St", "Portland, OR 97205"]}, "phone": "+15039435844", "display_phone": "(503) 943-5844", "distance": 1900.2964287353525}, {"id": "MY6zOjGre-tNRNE5YSRtlw", "alias": "mission-theater-portland", "name": "Mission Theater", "image_url": "https://s3-media3.fl.yelpcdn.com/bphoto/3SwyTcoRcrMdU7uzQJSAmg/o.jpg", "is_closed": false, "url": "https://www.yelp.com/biz/mission-theater-portland?adjust_creative=a2JdNtFqB-C38ga_06BHvw&utm_campaign=yelp_api_v3&utm_medium=api_v3_business_search&utm_source=a2JdNtFqB-C38ga_06BHvw", "review_count": 166, "categories": [{"alias": "movietheaters", "title": "Cinema"}, {"alias": "pubs", "title": "Pubs"}, {"alias": "tradamerican", "title": "American (Traditional)"}], "rating": 4.0, "coordinates": {"latitude": 45.526201, "longitude": -122.688113}, "transactions": ["delivery"], "price": "$$", "location": {"address1": "1624 NW Glisan St.", "address2": "", "address3": "", "city": "Portland", "zip_code": "97209", "country": "US", "state": "OR", "display_address": ["1624 NW Glisan St.", "Portland, OR 97209"]}, "phone": "+15032234527", "display_phone": "(503) 223-4527", "distance": 1777.715721586921}, {"id": "DMqzf-NXhsIWmoXSV7GS2Q", "alias": "clarklewis-portland-2", "name": "Clarklewis", "image_url": "https://s3-media2.fl.yelpcdn.com/bphoto/YGW7GHp2_PzPHOsMfqYL6w/o.jpg", "is_closed": false, "url": "https://www.yelp.com/biz/clarklewis-portland-2?adjust_creative=a2JdNtFqB-C38ga_06BHvw&utm_campaign=yelp_api_v3&utm_medium=api_v3_business_search&utm_source=a2JdNtFqB-C38ga_06BHvw", "review_count": 517, "categories": [{"alias": "newamerican", "title": "American (New)"}, {"alias": "wine_bars", "title": "Wine Bars"}, {"alias": "italian", "title": "Italian"}], "rating": 4.0, "coordinates": {"latitude": 45.515327920095, "longitude": -122.66606549289}, "transactions": ["restaurant_reservation", "delivery", "pickup"], "price": "$$$", "location": {"address1": "1001 SE Water Ave", "address2": null, "address3": "", "city": "Portland", "zip_code": "97214", "country": "US", "state": "OR", "display_address": ["1001 SE Water Ave", "Portland, OR 97214"]}, "phone": "+15032352294", "display_phone": "(503) 235-2294", "distance": 1817.424999322613}, {"id": "DOfD6GuQ37dcTaRlk-0m9g", "alias": "noble-rot-portland-2", "name": "Noble Rot", "image_url": "https://s3-media2.fl.yelpcdn.com/bphoto/PxNREfN95hhFWJXPhoml7Q/o.jpg", "is_closed": false, "url": "https://www.yelp.com/biz/noble-rot-portland-2?adjust_creative=a2JdNtFqB-C38ga_06BHvw&utm_campaign=yelp_api_v3&utm_medium=api_v3_business_search&utm_source=a2JdNtFqB-C38ga_06BHvw", "review_count": 620, "categories": [{"alias": "wine_bars", "title": "Wine Bars"}, {"alias": "newamerican", "title": "American (New)"}, {"alias": "venues", "title": "Venues & Event Spaces"}], "rating": 4.0, "coordinates": {"latitude": 45.5229181, "longitude": -122.6544817}, "transactions": ["delivery"], "price": "$$", "location": {"address1": "1111 E Burnside St", "address2": "Fl 4", "address3": "", "city": "Portland", "zip_code": "97214", "country": "US", "state": "OR", "display_address": ["1111 E Burnside St", "Fl 4", "Portland, OR 97214"]}, "phone": "+15032331999", "display_phone": "(503) 233-1999", "distance": 1359.2063671606757}, {"id": "OT7iklmaiTrqa_nHLkuLFg", "alias": "bar-casa-vale-portland", "name": "Bar Casa Vale", "image_url": "https://s3-media3.fl.yelpcdn.com/bphoto/ZTTVeA0eIYKuDkoHdRVr4g/o.jpg", "is_closed": false, "url": "https://www.yelp.com/biz/bar-casa-vale-portland?adjust_creative=a2JdNtFqB-C38ga_06BHvw&utm_campaign=yelp_api_v3&utm_medium=api_v3_business_search&utm_source=a2JdNtFqB-C38ga_06BHvw", "review_count": 165, "categories": [{"alias": "tapas", "title": "Tapas Bars"}, {"alias": "cocktailbars", "title": "Cocktail Bars"}, {"alias": "spanish", "title": "Spanish"}], "rating": 4.0, "coordinates": {"latitude": 45.52114, "longitude": -122.65697}, "transactions": ["delivery"], "price": "$$", "location": {"address1": "215 SE 9th Ave", "address2": null, "address3": "", "city": "Portland", "zip_code": "97214", "country": "US", "state": "OR", "display_address": ["215 SE 9th Ave", "Portland, OR 97214"]}, "phone": "+15034779081", "display_phone": "(503) 477-9081", "distance": 1380.1338838776808}, {"id": "9YuN48Y2S-E70Oos9yHSMw", "alias": "bhuna-portland", "name": "Bhuna", "image_url": "https://s3-media3.fl.yelpcdn.com/bphoto/EYB4hiXQ156SILY6Xv-NUg/o.jpg", "is_closed": false, "url": "https://www.yelp.com/biz/bhuna-portland?adjust_creative=a2JdNtFqB-C38ga_06BHvw&utm_campaign=yelp_api_v3&utm_medium=api_v3_business_search&utm_source=a2JdNtFqB-C38ga_06BHvw", "review_count": 140, "categories": [{"alias": "indpak", "title": "Indian"}, {"alias": "cocktailbars", "title": "Cocktail Bars"}, {"alias": "venues", "title": "Venues & Event Spaces"}], "rating": 4.0, "coordinates": {"latitude": 45.5278598478315, "longitude": -122.69416987896}, "transactions": ["pickup", "delivery"], "price": "$$", "location": {"address1": "704 NW 21st Ave", "address2": "", "address3": null, "city": "Portland", "zip_code": "97209", "country": "US", "state": "OR", "display_address": ["704 NW 21st Ave", "Portland, OR 97209"]}, "phone": "+19718652176", "display_phone": "(971) 865-2176", "distance": 2183.7966890721764}, {"id": "g1Qok-8QvCHuZV0HL0DX5w", "alias": "grain-and-gristle-portland", "name": "Grain & Gristle", "image_url": "https://s3-media3.fl.yelpcdn.com/bphoto/LdNT1cewROHLOyM2dsAlPQ/o.jpg", "is_closed": false, "url": "https://www.yelp.com/biz/grain-and-gristle-portland?adjust_creative=a2JdNtFqB-C38ga_06BHvw&utm_campaign=yelp_api_v3&utm_medium=api_v3_business_search&utm_source=a2JdNtFqB-C38ga_06BHvw", "review_count": 450, "categories": [{"alias": "gastropubs", "title": "Gastropubs"}, {"alias": "pubs", "title": "Pubs"}, {"alias": "newamerican", "title": "American (New)"}], "rating": 4.0, "coordinates": {"latitude": 45.55565, "longitude": -122.65005}, "transactions": ["delivery"], "price": "$$", "location": {"address1": "1473 NE Prescott St", "address2": "", "address3": "", "city": "Portland", "zip_code": "97211", "country": "US", "state": "OR", "display_address": ["1473 NE Prescott St", "Portland, OR 97211"]}, "phone": "+15032985007", "display_phone": "(503) 298-5007", "distance": 2957.961026450132}, {"id": "9xWeIjeQfco-FMG6GEu6PA", "alias": "the-1905-portland-4", "name": "The 1905", "image_url": "https://s3-media1.fl.yelpcdn.com/bphoto/llI4N8Ux20p2uqwXRsK-MA/o.jpg", "is_closed": false, "url": "https://www.yelp.com/biz/the-1905-portland-4?adjust_creative=a2JdNtFqB-C38ga_06BHvw&utm_campaign=yelp_api_v3&utm_medium=api_v3_business_search&utm_source=a2JdNtFqB-C38ga_06BHvw", "review_count": 168, "categories": [{"alias": "cocktailbars", "title": "Cocktail Bars"}, {"alias": "pizza", "title": "Pizza"}, {"alias": "whiskeybars", "title": "Whiskey Bars"}], "rating": 4.0, "coordinates": {"latitude": 45.5520089703444, "longitude": -122.675233148038}, "transactions": ["delivery", "pickup"], "price": "$$", "location": {"address1": "830 North Shaver St", "address2": "", "address3": null, "city": "Portland", "zip_code": "97227", "country": "US", "state": "OR", "display_address": ["830 North Shaver St", "Portland, OR 97227"]}, "phone": "+15034603333", "display_phone": "(503) 460-3333", "distance": 2358.2509667217605}, {"id": "RaYRTnvqN_8EBsLIAQlxAQ", "alias": "aalto-lounge-portland", "name": "Aalto Lounge", "image_url": "https://s3-media1.fl.yelpcdn.com/bphoto/mo3seYMwc78gq2t17Qm7cw/o.jpg", "is_closed": false, "url": "https://www.yelp.com/biz/aalto-lounge-portland?adjust_creative=a2JdNtFqB-C38ga_06BHvw&utm_campaign=yelp_api_v3&utm_medium=api_v3_business_search&utm_source=a2JdNtFqB-C38ga_06BHvw", "review_count": 242, "categories": [{"alias": "tradamerican", "title": "American (Traditional)"}, {"alias": "cocktailbars", "title": "Cocktail Bars"}], "rating": 4.0, "coordinates": {"latitude": 45.5162506, "longitude": -122.6297531}, "transactions": ["delivery"], "price": "$", "location": {"address1": "3356 SE Belmont St", "address2": "", "address3": "", "city": "Portland", "zip_code": "97214", "country": "US", "state": "OR", "display_address": ["3356 SE Belmont St", "Portland, OR 97214"]}, "phone": "+15032356041", "display_phone": "(503) 235-6041", "distance": 3348.1995483594724}, {"id": "i5h9wem0wCJO6cvBJ5lP7w", "alias": "barlow-portland-3", "name": "Barlow", "image_url": "https://s3-media2.fl.yelpcdn.com/bphoto/nNENZnvkGE_bZGHcKnrcGA/o.jpg", "is_closed": false, "url": "https://www.yelp.com/biz/barlow-portland-3?adjust_creative=a2JdNtFqB-C38ga_06BHvw&utm_campaign=yelp_api_v3&utm_medium=api_v3_business_search&utm_source=a2JdNtFqB-C38ga_06BHvw", "review_count": 262, "categories": [{"alias": "cocktailbars", "title": "Cocktail Bars"}, {"alias": "tapasmallplates", "title": "Tapas/Small Plates"}, {"alias": "venues", "title": "Venues & Event Spaces"}], "rating": 4.0, "coordinates": {"latitude": 45.51773, "longitude": -122.68128}, "transactions": ["delivery"], "price": "$$", "location": {"address1": "737 SW Salmon St", "address2": null, "address3": "", "city": "Portland", "zip_code": "97205", "country": "US", "state": "OR", "display_address": ["737 SW Salmon St", "Portland, OR 97205"]}, "phone": "", "display_phone": "", "distance": 1935.381607799263}, {"id": "yyOOqff5xdJKXM4NvgTVig", "alias": "rose-and-thistle-portland", "name": "Rose & Thistle", "image_url": "https://s3-media4.fl.yelpcdn.com/bphoto/vkJpJ8vxjKL4TQ6y9NnZSg/o.jpg", "is_closed": false, "url": "https://www.yelp.com/biz/rose-and-thistle-portland?adjust_creative=a2JdNtFqB-C38ga_06BHvw&utm_campaign=yelp_api_v3&utm_medium=api_v3_business_search&utm_source=a2JdNtFqB-C38ga_06BHvw", "review_count": 247, "categories": [{"alias": "pubs", "title": "Pubs"}, {"alias": "fishnchips", "title": "Fish & Chips"}, {"alias": "salad", "title": "Salad"}], "rating": 4.0, "coordinates": {"latitude": 45.534873095243, "longitude": -122.64178594041}, "transactions": ["delivery"], "price": "$$", "location": {"address1": "2314 NE Broadway", "address2": "", "address3": "", "city": "Portland", "zip_code": "97232", "country": "US", "state": "OR", "display_address": ["2314 NE Broadway", "Portland, OR 97232"]}, "phone": "+15032878582", "display_phone": "(503) 287-8582", "distance": 1970.537210249315}, {"id": "0ZRpi6S6ogby5IALbpZVBg", "alias": "ruths-chris-steak-house-portland", "name": "Ruth's Chris Steak House", "image_url": "https://s3-media4.fl.yelpcdn.com/bphoto/ZIMxsHS3KQ5T3fOve8XqFw/o.jpg", "is_closed": false, "url": "https://www.yelp.com/biz/ruths-chris-steak-house-portland?adjust_creative=a2JdNtFqB-C38ga_06BHvw&utm_campaign=yelp_api_v3&utm_medium=api_v3_business_search&utm_source=a2JdNtFqB-C38ga_06BHvw", "review_count": 491, "categories": [{"alias": "steak", "title": "Steakhouses"}, {"alias": "seafood", "title": "Seafood"}, {"alias": "wine_bars", "title": "Wine Bars"}], "rating": 4.0, "coordinates": {"latitude": 45.5181174367127, "longitude": -122.680084}, "transactions": ["delivery", "pickup"], "price": "$$$", "location": {"address1": "850 SW Broadway", "address2": "", "address3": "", "city": "Portland", "zip_code": "97205", "country": "US", "state": "OR", "display_address": ["850 SW Broadway", "Portland, OR 97205"]}, "phone": "+15032214518", "display_phone": "(503) 221-4518", "distance": 1833.701620911263}, {"id": "pWTcYpuSSifEityl1t4iBg", "alias": "cascadia-coffee-pub-portland", "name": "Cascadia Coffee Pub", "image_url": "https://s3-media1.fl.yelpcdn.com/bphoto/hIEjhghlAX-ssQ0Rb6n22Q/o.jpg", "is_closed": false, "url": "https://www.yelp.com/biz/cascadia-coffee-pub-portland?adjust_creative=a2JdNtFqB-C38ga_06BHvw&utm_campaign=yelp_api_v3&utm_medium=api_v3_business_search&utm_source=a2JdNtFqB-C38ga_06BHvw", "review_count": 31, "categories": [{"alias": "coffeeroasteries", "title": "Coffee Roasteries"}, {"alias": "sandwiches", "title": "Sandwiches"}, {"alias": "cocktailbars", "title": "Cocktail Bars"}], "rating": 4.5, "coordinates": {"latitude": 45.5374929, "longitude": -122.6874261}, "transactions": ["delivery"], "price": "$", "location": {"address1": "2010 NW Front Ave", "address2": "Ste A", "address3": "", "city": "Portland", "zip_code": "97209", "country": "US", "state": "OR", "display_address": ["2010 NW Front Ave", "Ste A", "Portland, OR 97209"]}, "phone": "+19712074202", "display_phone": "(971) 207-4202", "distance": 1741.8612119794223}, {"id": "4BgyFrSoQYJGA040FTvaYg", "alias": "the-fields-bar-and-grill-portland", "name": "The Fields Bar & Grill", "image_url": "https://s3-media3.fl.yelpcdn.com/bphoto/4m6HIc654Xu9gkHcLGOfkQ/o.jpg", "is_closed": false, "url": "https://www.yelp.com/biz/the-fields-bar-and-grill-portland?adjust_creative=a2JdNtFqB-C38ga_06BHvw&utm_campaign=yelp_api_v3&utm_medium=api_v3_business_search&utm_source=a2JdNtFqB-C38ga_06BHvw", "review_count": 336, "categories": [{"alias": "tradamerican", "title": "American (Traditional)"}, {"alias": "sportsbars", "title": "Sports Bars"}, {"alias": "breakfast_brunch", "title": "Breakfast & Brunch"}], "rating": 4.0, "coordinates": {"latitude": 45.5313048, "longitude": -122.6826159}, "transactions": ["delivery", "pickup"], "price": "$$", "location": {"address1": "1139 NW 11th Ave", "address2": "", "address3": "", "city": "Portland", "zip_code": "97209", "country": "US", "state": "OR", "display_address": ["1139 NW 11th Ave", "Portland, OR 97209"]}, "phone": "+15038416601", "display_phone": "(503) 841-6601", "distance": 1242.9742459261765}, {"id": "5Yz9TvBebuZJl2xAPD93JQ", "alias": "hair-of-the-dog-brewery-and-tasting-room-portland", "name": "Hair of the Dog Brewery and Tasting Room", "image_url": "https://s3-media2.fl.yelpcdn.com/bphoto/BM9ERpPnOuaRx8zlGSIqMQ/o.jpg", "is_closed": false, "url": "https://www.yelp.com/biz/hair-of-the-dog-brewery-and-tasting-room-portland?adjust_creative=a2JdNtFqB-C38ga_06BHvw&utm_campaign=yelp_api_v3&utm_medium=api_v3_business_search&utm_source=a2JdNtFqB-C38ga_06BHvw", "review_count": 574, "categories": [{"alias": "breweries", "title": "Breweries"}, {"alias": "pubs", "title": "Pubs"}, {"alias": "german", "title": "German"}], "rating": 4.0, "coordinates": {"latitude": 45.51604, "longitude": -122.66552}, "transactions": ["delivery"], "price": "$$", "location": {"address1": "61 SE Yamhill St", "address2": "", "address3": "", "city": "Portland", "zip_code": "97214", "country": "US", "state": "OR", "display_address": ["61 SE Yamhill St", "Portland, OR 97214"]}, "phone": "+15032326585", "display_phone": "(503) 232-6585", "distance": 1739.3749880097748}, {"id": "Yi449S7MV072VqCC93QNNA", "alias": "mcmenamins-ringlers-annex-portland", "name": "McMenamins Ringler's Annex", "image_url": "https://s3-media2.fl.yelpcdn.com/bphoto/E6oY4seiJtkzfeOWmBbKug/o.jpg", "is_closed": false, "url": "https://www.yelp.com/biz/mcmenamins-ringlers-annex-portland?adjust_creative=a2JdNtFqB-C38ga_06BHvw&utm_campaign=yelp_api_v3&utm_medium=api_v3_business_search&utm_source=a2JdNtFqB-C38ga_06BHvw", "review_count": 257, "categories": [{"alias": "tradamerican", "title": "American (Traditional)"}, {"alias": "pubs", "title": "Pubs"}], "rating": 4.0, "coordinates": {"latitude": 45.5228303, "longitude": -122.683702}, "transactions": ["delivery"], "price": "$$", "location": {"address1": "1223 SW Stark St", "address2": "", "address3": "", "city": "Portland", "zip_code": "97205", "country": "US", "state": "OR", "display_address": ["1223 SW Stark St", "Portland, OR 97205"]}, "phone": "+15033842700", "display_phone": "(503) 384-2700", "distance": 1651.2058520065239}, {"id": "3MTg6H7vM-uWXTJV3dUfKg", "alias": "river-pig-saloon-portland", "name": "River Pig Saloon", "image_url": "https://s3-media3.fl.yelpcdn.com/bphoto/NZ4fbc3DRszZXLHckM8AfQ/o.jpg", "is_closed": false, "url": "https://www.yelp.com/biz/river-pig-saloon-portland?adjust_creative=a2JdNtFqB-C38ga_06BHvw&utm_campaign=yelp_api_v3&utm_medium=api_v3_business_search&utm_source=a2JdNtFqB-C38ga_06BHvw", "review_count": 303, "categories": [{"alias": "sportsbars", "title": "Sports Bars"}, {"alias": "cocktailbars", "title": "Cocktail Bars"}, {"alias": "tradamerican", "title": "American (Traditional)"}], "rating": 4.0, "coordinates": {"latitude": 45.5269051381257, "longitude": -122.684480851853}, "transactions": ["delivery", "pickup"], "price": "$$", "location": {"address1": "529 NW 13th Ave", "address2": "", "address3": "", "city": "Portland", "zip_code": "97209", "country": "US", "state": "OR", "display_address": ["529 NW 13th Ave", "Portland, OR 97209"]}, "phone": "+19712668897", "display_phone": "(971) 266-8897", "distance": 1485.2341799492244}, {"id": "tjCT7EyHjDxnB5NCjxCnRg", "alias": "bar-rione-portland", "name": "Bar Rione", "image_url": "https://s3-media3.fl.yelpcdn.com/bphoto/Zt-lws_GCOcgLPyfmjaohQ/o.jpg", "is_closed": false, "url": "https://www.yelp.com/biz/bar-rione-portland?adjust_creative=a2JdNtFqB-C38ga_06BHvw&utm_campaign=yelp_api_v3&utm_medium=api_v3_business_search&utm_source=a2JdNtFqB-C38ga_06BHvw", "review_count": 38, "categories": [{"alias": "cocktailbars", "title": "Cocktail Bars"}, {"alias": "wine_bars", "title": "Wine Bars"}, {"alias": "italian", "title": "Italian"}], "rating": 4.5, "coordinates": {"latitude": 45.5288065968576, "longitude": -122.683302310764}, "transactions": ["delivery"], "price": "$$", "location": {"address1": "804 NW 12th Ave", "address2": "", "address3": null, "city": "Portland", "zip_code": "97209", "country": "US", "state": "OR", "display_address": ["804 NW 12th Ave", "Portland, OR 97209"]}, "phone": "+15039541014", "display_phone": "(503) 954-1014", "distance": 1314.8858151940394}, {"id": "ngxT_wePbMQVs_v_R8j0Zg", "alias": "the-independent-sports-bar-and-grill-portland", "name": "The Independent Sports Bar & Grill", "image_url": "https://s3-media1.fl.yelpcdn.com/bphoto/f37HPyvDcc9kXVUA4lOagw/o.jpg", "is_closed": false, "url": "https://www.yelp.com/biz/the-independent-sports-bar-and-grill-portland?adjust_creative=a2JdNtFqB-C38ga_06BHvw&utm_campaign=yelp_api_v3&utm_medium=api_v3_business_search&utm_source=a2JdNtFqB-C38ga_06BHvw", "review_count": 170, "categories": [{"alias": "sportsbars", "title": "Sports Bars"}, {"alias": "burgers", "title": "Burgers"}, {"alias": "tradamerican", "title": "American (Traditional)"}], "rating": 4.0, "coordinates": {"latitude": 45.52229, "longitude": -122.6784}, "transactions": ["delivery"], "price": "$$", "location": {"address1": "225 SW Broadway", "address2": "Ste 100", "address3": null, "city": "Portland", "zip_code": "97205", "country": "US", "state": "OR", "display_address": ["225 SW Broadway", "Ste 100", "Portland, OR 97205"]}, "phone": "+15032066745", "display_phone": "(503) 206-6745", "distance": 1386.2553762550335}, {"id": "G96eAh4n0ksknavhExYr6A", "alias": "clyde-common-portland", "name": "Clyde Common", "image_url": "https://s3-media2.fl.yelpcdn.com/bphoto/8-EwSKJvvojAV1Gb9W7rKQ/o.jpg", "is_closed": false, "url": "https://www.yelp.com/biz/clyde-common-portland?adjust_creative=a2JdNtFqB-C38ga_06BHvw&utm_campaign=yelp_api_v3&utm_medium=api_v3_business_search&utm_source=a2JdNtFqB-C38ga_06BHvw", "review_count": 1177, "categories": [{"alias": "newamerican", "title": "American (New)"}, {"alias": "modern_european", "title": "Modern European"}, {"alias": "cocktailbars", "title": "Cocktail Bars"}], "rating": 3.5, "coordinates": {"latitude": 45.52201, "longitude": -122.68161}, "transactions": ["delivery"], "price": "$$", "location": {"address1": "1014 SW Stark St", "address2": "", "address3": "", "city": "Portland", "zip_code": "97205", "country": "US", "state": "OR", "display_address": ["1014 SW Stark St", "Portland, OR 97205"]}, "phone": "+15032283333", "display_phone": "(503) 228-3333", "distance": 1584.0210450109118}, {"id": "Uo-eT1lomU6FoJBiuXEVaw", "alias": "goose-hollow-inn-portland", "name": "Goose Hollow Inn", "image_url": "https://s3-media4.fl.yelpcdn.com/bphoto/UkGt0_s0HlG6QbL6HeuAxw/o.jpg", "is_closed": false, "url": "https://www.yelp.com/biz/goose-hollow-inn-portland?adjust_creative=a2JdNtFqB-C38ga_06BHvw&utm_campaign=yelp_api_v3&utm_medium=api_v3_business_search&utm_source=a2JdNtFqB-C38ga_06BHvw", "review_count": 239, "categories": [{"alias": "gastropubs", "title": "Gastropubs"}, {"alias": "pubs", "title": "Pubs"}], "rating": 4.0, "coordinates": {"latitude": 45.518256, "longitude": -122.693835}, "transactions": [], "price": "$$", "location": {"address1": "1927 SW Jefferson St", "address2": "", "address3": "", "city": "Portland", "zip_code": "97201", "country": "US", "state": "OR", "display_address": ["1927 SW Jefferson St", "Portland, OR 97201"]}, "phone": "+15032287010", "display_phone": "(503) 228-7010", "distance": 2589.0551314693225}, {"id": "3QDW8CmqhCEvcSLPGNj6qg", "alias": "the-richmond-bar-portland", "name": "The Richmond Bar", "image_url": "https://s3-media1.fl.yelpcdn.com/bphoto/3geP1Tf0sQyNMRAUpotPgw/o.jpg", "is_closed": false, "url": "https://www.yelp.com/biz/the-richmond-bar-portland?adjust_creative=a2JdNtFqB-C38ga_06BHvw&utm_campaign=yelp_api_v3&utm_medium=api_v3_business_search&utm_source=a2JdNtFqB-C38ga_06BHvw", "review_count": 126, "categories": [{"alias": "tradamerican", "title": "American (Traditional)"}, {"alias": "gastropubs", "title": "Gastropubs"}, {"alias": "cocktailbars", "title": "Cocktail Bars"}], "rating": 4.0, "coordinates": {"latitude": 45.5048469, "longitude": -122.6325174}, "transactions": ["delivery"], "price": "$$", "location": {"address1": "3203 SE Division St", "address2": "", "address3": "", "city": "Portland", "zip_code": "97202", "country": "US", "state": "OR", "display_address": ["3203 SE Division St", "Portland, OR 97202"]}, "phone": "+15032083075", "display_phone": "(503) 208-3075", "distance": 3996.625402264263}, {"id": "_qAq7GI1d1l6WZnURSvJOw", "alias": "bar-west-portland-4", "name": "Bar West", "image_url": "https://s3-media2.fl.yelpcdn.com/bphoto/zYULKVxxGD9SDHYRa9xycw/o.jpg", "is_closed": false, "url": "https://www.yelp.com/biz/bar-west-portland-4?adjust_creative=a2JdNtFqB-C38ga_06BHvw&utm_campaign=yelp_api_v3&utm_medium=api_v3_business_search&utm_source=a2JdNtFqB-C38ga_06BHvw", "review_count": 39, "categories": [{"alias": "venues", "title": "Venues & Event Spaces"}, {"alias": "cocktailbars", "title": "Cocktail Bars"}, {"alias": "newamerican", "title": "American (New)"}], "rating": 4.5, "coordinates": {"latitude": 45.53178, "longitude": -122.69494}, "transactions": ["delivery", "pickup"], "location": {"address1": "1221 NW 21st Ave", "address2": null, "address3": "", "city": "Portland", "zip_code": "97209", "country": "US", "state": "OR", "display_address": ["1221 NW 21st Ave", "Portland, OR 97209"]}, "phone": "+15032082852", "display_phone": "(503) 208-2852", "distance": 2208.013550509183}, {"id": "Dp02QQnvsRqljTaq3OkC5w", "alias": "emerald-line-portland", "name": "Emerald Line", "image_url": "https://s3-media4.fl.yelpcdn.com/bphoto/0CrSQhFpq7Sw36RHn0LRYg/o.jpg", "is_closed": false, "url": "https://www.yelp.com/biz/emerald-line-portland?adjust_creative=a2JdNtFqB-C38ga_06BHvw&utm_campaign=yelp_api_v3&utm_medium=api_v3_business_search&utm_source=a2JdNtFqB-C38ga_06BHvw", "review_count": 21, "categories": [{"alias": "tradamerican", "title": "American (Traditional)"}, {"alias": "cocktailbars", "title": "Cocktail Bars"}], "rating": 4.5, "coordinates": {"latitude": 45.535929, "longitude": -122.687338}, "transactions": ["delivery"], "price": "$$", "location": {"address1": "1800 NW 16th Ave", "address2": "", "address3": "", "city": "Portland", "zip_code": "97209", "country": "US", "state": "OR", "display_address": ["1800 NW 16th Ave", "Portland, OR 97209"]}, "phone": "+15032416559", "display_phone": "(503) 241-6559", "distance": 1678.3754435347084}, {"id": "CvB_uHuU7v4MMDSxj9NQ2Q", "alias": "the-solo-club-portland", "name": "The Solo Club", "image_url": "https://s3-media2.fl.yelpcdn.com/bphoto/k8nK4d4IbkS_rTQBRQPlYA/o.jpg", "is_closed": false, "url": "https://www.yelp.com/biz/the-solo-club-portland?adjust_creative=a2JdNtFqB-C38ga_06BHvw&utm_campaign=yelp_api_v3&utm_medium=api_v3_business_search&utm_source=a2JdNtFqB-C38ga_06BHvw", "review_count": 91, "categories": [{"alias": "cocktailbars", "title": "Cocktail Bars"}, {"alias": "tapasmallplates", "title": "Tapas/Small Plates"}, {"alias": "venues", "title": "Venues & Event Spaces"}], "rating": 4.0, "coordinates": {"latitude": 45.5340015, "longitude": -122.695113}, "transactions": ["delivery"], "price": "$$", "location": {"address1": "2110 NW Raleigh St", "address2": "", "address3": null, "city": "Portland", "zip_code": "97210", "country": "US", "state": "OR", "display_address": ["2110 NW Raleigh St", "Portland, OR 97210"]}, "phone": "+19712549806", "display_phone": "(971) 254-9806", "distance": 2240.5178323384457}, {"id": "Z_QJ3-8J4-U5xCW8NjfpBQ", "alias": "pips-and-bounce-portland-3", "name": "Pips & Bounce", "image_url": "https://s3-media2.fl.yelpcdn.com/bphoto/Hl09rkE9H7QwJCCTlccvZg/o.jpg", "is_closed": false, "url": "https://www.yelp.com/biz/pips-and-bounce-portland-3?adjust_creative=a2JdNtFqB-C38ga_06BHvw&utm_campaign=yelp_api_v3&utm_medium=api_v3_business_search&utm_source=a2JdNtFqB-C38ga_06BHvw", "review_count": 154, "categories": [{"alias": "tradamerican", "title": "American (Traditional)"}, {"alias": "cocktailbars", "title": "Cocktail Bars"}, {"alias": "social_clubs", "title": "Social Clubs"}], "rating": 4.0, "coordinates": {"latitude": 45.5165908240956, "longitude": -122.65724695582}, "transactions": ["delivery"], "price": "$$", "location": {"address1": "833 SE Belmont St", "address2": null, "address3": "", "city": "Portland", "zip_code": "97214", "country": "US", "state": "OR", "display_address": ["833 SE Belmont St", "Portland, OR 97214"]}, "phone": "+15039284664", "display_phone": "(503) 928-4664", "distance": 1829.9840358288511}, {"id": "Ir1GUgWHVsXpJeRTfk0HTQ", "alias": "carlitas-portland", "name": "Carlita's", "image_url": "https://s3-media2.fl.yelpcdn.com/bphoto/GqN_0hZn9H2ziemDhsTK1w/o.jpg", "is_closed": false, "url": "https://www.yelp.com/biz/carlitas-portland?adjust_creative=a2JdNtFqB-C38ga_06BHvw&utm_campaign=yelp_api_v3&utm_medium=api_v3_business_search&utm_source=a2JdNtFqB-C38ga_06BHvw", "review_count": 157, "categories": [{"alias": "tacos", "title": "Tacos"}, {"alias": "whiskeybars", "title": "Whiskey Bars"}, {"alias": "cocktailbars", "title": "Cocktail Bars"}], "rating": 4.0, "coordinates": {"latitude": 45.53172, "longitude": -122.68295}, "transactions": ["delivery", "pickup"], "price": "$$", "location": {"address1": "1101 NW Northrup St", "address2": null, "address3": "", "city": "Portland", "zip_code": "97209", "country": "US", "state": "OR", "display_address": ["1101 NW Northrup St", "Portland, OR 97209"]}, "phone": "+19713526991", "display_phone": "(971) 352-6991", "distance": 1254.3290182923754}, {"id": "6hfUwWzvJvT-rJ7JnMdblg", "alias": "church-portland", "name": "Church", "image_url": "https://s3-media2.fl.yelpcdn.com/bphoto/ydfnWOteTQygWuyec3gVJg/o.jpg", "is_closed": false, "url": "https://www.yelp.com/biz/church-portland?adjust_creative=a2JdNtFqB-C38ga_06BHvw&utm_campaign=yelp_api_v3&utm_medium=api_v3_business_search&utm_source=a2JdNtFqB-C38ga_06BHvw", "review_count": 278, "categories": [{"alias": "cocktailbars", "title": "Cocktail Bars"}, {"alias": "newamerican", "title": "American (New)"}], "rating": 4.0, "coordinates": {"latitude": 45.5282227, "longitude": -122.6390847}, "transactions": ["delivery", "pickup"], "price": "$$", "location": {"address1": "2600 NE Sandy Blvd", "address2": "", "address3": "", "city": "Portland", "zip_code": "97232", "country": "US", "state": "OR", "display_address": ["2600 NE Sandy Blvd", "Portland, OR 97232"]}, "phone": "+15032068962", "display_phone": "(503) 206-8962", "distance": 2182.4187275113936}, {"id": "ytmTmC6gJfXX9lVcXtP1Qg", "alias": "captain-ankenys-pizza-and-pub-portland-2", "name": "Captain Ankeny's Pizza & Pub", "image_url": "https://s3-media1.fl.yelpcdn.com/bphoto/ULfnRAJPYllL2BAYvXIFQQ/o.jpg", "is_closed": false, "url": "https://www.yelp.com/biz/captain-ankenys-pizza-and-pub-portland-2?adjust_creative=a2JdNtFqB-C38ga_06BHvw&utm_campaign=yelp_api_v3&utm_medium=api_v3_business_search&utm_source=a2JdNtFqB-C38ga_06BHvw", "review_count": 44, "categories": [{"alias": "pubs", "title": "Pubs"}, {"alias": "pizza", "title": "Pizza"}], "rating": 4.5, "coordinates": {"latitude": 45.52094, "longitude": -122.6722}, "transactions": ["delivery", "pickup"], "price": "$", "location": {"address1": "116 SW Pine St", "address2": null, "address3": "", "city": "Portland", "zip_code": "97204", "country": "US", "state": "OR", "display_address": ["116 SW Pine St", "Portland, OR 97204"]}, "phone": "+15032436844", "display_phone": "(503) 243-6844", "distance": 1260.3689592949631}, {"id": "mZqCfSBWFc7N0wz-bmOnCA", "alias": "brix-tavern-portland", "name": "Brix Tavern", "image_url": "https://s3-media1.fl.yelpcdn.com/bphoto/PxJis1L4SmOrYbr1-uSNkA/o.jpg", "is_closed": false, "url": "https://www.yelp.com/biz/brix-tavern-portland?adjust_creative=a2JdNtFqB-C38ga_06BHvw&utm_campaign=yelp_api_v3&utm_medium=api_v3_business_search&utm_source=a2JdNtFqB-C38ga_06BHvw", "review_count": 944, "categories": [{"alias": "sportsbars", "title": "Sports Bars"}, {"alias": "tradamerican", "title": "American (Traditional)"}, {"alias": "breakfast_brunch", "title": "Breakfast & Brunch"}], "rating": 3.5, "coordinates": {"latitude": 45.52697, "longitude": -122.68501}, "transactions": ["delivery"], "price": "$$", "location": {"address1": "1338 NW Hoyt St", "address2": "", "address3": "", "city": "Portland", "zip_code": "97209", "country": "US", "state": "OR", "display_address": ["1338 NW Hoyt St", "Portland, OR 97209"]}, "phone": "+15039435995", "display_phone": "(503) 943-5995", "distance": 1520.442651402463}, {"id": "jQW_ENC22SqL6bh6J-9mrA", "alias": "paddys-bar-and-grill-portland", "name": "Paddy's Bar & Grill", "image_url": "https://s3-media3.fl.yelpcdn.com/bphoto/JR6_WA7M5IcO3uw_UM8jyQ/o.jpg", "is_closed": false, "url": "https://www.yelp.com/biz/paddys-bar-and-grill-portland?adjust_creative=a2JdNtFqB-C38ga_06BHvw&utm_campaign=yelp_api_v3&utm_medium=api_v3_business_search&utm_source=a2JdNtFqB-C38ga_06BHvw", "review_count": 308, "categories": [{"alias": "pubs", "title": "Pubs"}, {"alias": "irish", "title": "Irish"}, {"alias": "irish_pubs", "title": "Irish Pub"}], "rating": 3.5, "coordinates": {"latitude": 45.5171026, "longitude": -122.673545}, "transactions": ["delivery", "pickup"], "price": "$$", "location": {"address1": "65 SW Yamhill St", "address2": "", "address3": "", "city": "Portland", "zip_code": "97204", "country": "US", "state": "OR", "display_address": ["65 SW Yamhill St", "Portland, OR 97204"]}, "phone": "+15032245626", "display_phone": "(503) 224-5626", "distance": 1705.8248652177165}, {"id": "2yuMreGLJA58xic_gyGA5Q", "alias": "montelupo-italian-market-portland", "name": "Montelupo Italian Market", "image_url": "https://s3-media1.fl.yelpcdn.com/bphoto/sm2FWq5Uql3uoCKx4HoX5g/o.jpg", "is_closed": false, "url": "https://www.yelp.com/biz/montelupo-italian-market-portland?adjust_creative=a2JdNtFqB-C38ga_06BHvw&utm_campaign=yelp_api_v3&utm_medium=api_v3_business_search&utm_source=a2JdNtFqB-C38ga_06BHvw", "review_count": 54, "categories": [{"alias": "italian", "title": "Italian"}, {"alias": "salad", "title": "Salad"}, {"alias": "cocktailbars", "title": "Cocktail Bars"}], "rating": 4.0, "coordinates": {"latitude": 45.525659, "longitude": -122.637082}, "transactions": ["delivery", "pickup"], "location": {"address1": "344 NE 28th Ave", "address2": "", "address3": null, "city": "Portland", "zip_code": "97232", "country": "US", "state": "OR", "display_address": ["344 NE 28th Ave", "Portland, OR 97232"]}, "phone": "+15037195650", "display_phone": "(503) 719-5650", "distance": 2399.481238734256}, {"id": "5HA3j3RnK6aDpTa0CVOITw", "alias": "cliff-s-pdx-portland", "name": "Cliffs PDX", "image_url": "https://s3-media4.fl.yelpcdn.com/bphoto/A8IeNDM6IWF49gKQrXbgbA/o.jpg", "is_closed": false, "url": "https://www.yelp.com/biz/cliff-s-pdx-portland?adjust_creative=a2JdNtFqB-C38ga_06BHvw&utm_campaign=yelp_api_v3&utm_medium=api_v3_business_search&utm_source=a2JdNtFqB-C38ga_06BHvw", "review_count": 16, "categories": [{"alias": "divebars", "title": "Dive Bars"}, {"alias": "cocktailbars", "title": "Cocktail Bars"}, {"alias": "newamerican", "title": "American (New)"}], "rating": 5.0, "coordinates": {"latitude": 45.54081, "longitude": -122.66348}, "transactions": ["delivery"], "location": {"address1": "128 NE Russell St", "address2": null, "address3": "", "city": "Portland", "zip_code": "97212", "country": "US", "state": "OR", "display_address": ["128 NE Russell St", "Portland, OR 97212"]}, "phone": "+15033278234", "display_phone": "(503) 327-8234", "distance": 1043.6678182530775}, {"id": "jTodvww7b24mffT5yzozow", "alias": "either-or-portland-3", "name": "Either/Or", "image_url": "https://s3-media2.fl.yelpcdn.com/bphoto/4j6D3SmLifzyihLIn3FuTQ/o.jpg", "is_closed": false, "url": "https://www.yelp.com/biz/either-or-portland-3?adjust_creative=a2JdNtFqB-C38ga_06BHvw&utm_campaign=yelp_api_v3&utm_medium=api_v3_business_search&utm_source=a2JdNtFqB-C38ga_06BHvw", "review_count": 60, "categories": [{"alias": "coffee", "title": "Coffee & Tea"}, {"alias": "breakfast_brunch", "title": "Breakfast & Brunch"}, {"alias": "wine_bars", "title": "Wine Bars"}], "rating": 4.0, "coordinates": {"latitude": 45.552271876089, "longitude": -122.667035098519}, "transactions": ["delivery", "pickup"], "price": "$$", "location": {"address1": "4003 N Williams Ave", "address2": "", "address3": null, "city": "Portland", "zip_code": "97227", "country": "US", "state": "OR", "display_address": ["4003 N Williams Ave", "Portland, OR 97227"]}, "phone": "", "display_phone": "", "distance": 2291.334481687137}, {"id": "UZUjgF7XW7WkvyUb8_qCiA", "alias": "the-matador-portland-5", "name": "The Matador", "image_url": "https://s3-media2.fl.yelpcdn.com/bphoto/3MG9SVzS5LVFqN5ur7xCKA/o.jpg", "is_closed": false, "url": "https://www.yelp.com/biz/the-matador-portland-5?adjust_creative=a2JdNtFqB-C38ga_06BHvw&utm_campaign=yelp_api_v3&utm_medium=api_v3_business_search&utm_source=a2JdNtFqB-C38ga_06BHvw", "review_count": 724, "categories": [{"alias": "mexican", "title": "Mexican"}, {"alias": "cocktailbars", "title": "Cocktail Bars"}], "rating": 3.5, "coordinates": {"latitude": 45.5332606, "longitude": -122.6985499}, "transactions": ["delivery", "pickup"], "price": "$$", "location": {"address1": "1438 NW 23rd Ave", "address2": "", "address3": "", "city": "Portland", "zip_code": "97210", "country": "US", "state": "OR", "display_address": ["1438 NW 23rd Ave", "Portland, OR 97210"]}, "phone": "+15032282855", "display_phone": "(503) 228-2855", "distance": 2489.7531793324556}, {"id": "HIWEC4MLGRsusGE4z790Jw", "alias": "north-45-portland", "name": "North 45", "image_url": "https://s3-media1.fl.yelpcdn.com/bphoto/tvW7kSqrF0RP2gS5R_0LHw/o.jpg", "is_closed": false, "url": "https://www.yelp.com/biz/north-45-portland?adjust_creative=a2JdNtFqB-C38ga_06BHvw&utm_campaign=yelp_api_v3&utm_medium=api_v3_business_search&utm_source=a2JdNtFqB-C38ga_06BHvw", "review_count": 310, "categories": [{"alias": "newamerican", "title": "American (New)"}, {"alias": "pubs", "title": "Pubs"}, {"alias": "gastropubs", "title": "Gastropubs"}], "rating": 3.5, "coordinates": {"latitude": 45.5266466, "longitude": -122.6945208}, "transactions": ["delivery"], "price": "$$", "location": {"address1": "517 NW 21st Ave", "address2": "", "address3": "", "city": "Portland", "zip_code": "97209", "country": "US", "state": "OR", "display_address": ["517 NW 21st Ave", "Portland, OR 97209"]}, "phone": "+15032486317", "display_phone": "(503) 248-6317", "distance": 2240.393635825712}, {"id": "WWlkufMDXMmgOjnD_s1Wfg", "alias": "the-matador-portland-6", "name": "The Matador", "image_url": "https://s3-media4.fl.yelpcdn.com/bphoto/q2msY8GdDIm_SVJIMFK3eg/o.jpg", "is_closed": false, "url": "https://www.yelp.com/biz/the-matador-portland-6?adjust_creative=a2JdNtFqB-C38ga_06BHvw&utm_campaign=yelp_api_v3&utm_medium=api_v3_business_search&utm_source=a2JdNtFqB-C38ga_06BHvw", "review_count": 474, "categories": [{"alias": "mexican", "title": "Mexican"}, {"alias": "cocktailbars", "title": "Cocktail Bars"}], "rating": 3.5, "coordinates": {"latitude": 45.5226289, "longitude": -122.6408777}, "transactions": ["delivery", "pickup"], "price": "$$", "location": {"address1": "2424 E Burnside St", "address2": "", "address3": "", "city": "Portland", "zip_code": "97214", "country": "US", "state": "OR", "display_address": ["2424 E Burnside St", "Portland, OR 97214"]}, "phone": "+15037195757", "display_phone": "(503) 719-5757", "distance": 2246.3344757271616}, {"id": "VqRcFCE-UBaFoCrfkCdgdQ", "alias": "urban-cr챗perie-portland-2", "name": "Urban Cr챗perie", "image_url": "https://s3-media2.fl.yelpcdn.com/bphoto/zD08yxfqu0yWPRloAhSEOQ/o.jpg", "is_closed": false, "url": "https://www.yelp.com/biz/urban-cr%C3%AAperie-portland-2?adjust_creative=a2JdNtFqB-C38ga_06BHvw&utm_campaign=yelp_api_v3&utm_medium=api_v3_business_search&utm_source=a2JdNtFqB-C38ga_06BHvw", "review_count": 22, "categories": [{"alias": "creperies", "title": "Creperies"}, {"alias": "wine_bars", "title": "Wine Bars"}, {"alias": "beerbar", "title": "Beer Bar"}], "rating": 4.5, "coordinates": {"latitude": 45.520471, "longitude": -122.684587}, "transactions": ["delivery", "pickup"], "location": {"address1": "1216 SW Morrison St", "address2": null, "address3": null, "city": "Portland", "zip_code": "97205", "country": "US", "state": "OR", "display_address": ["1216 SW Morrison St", "Portland, OR 97205"]}, "phone": "+15039541492", "display_phone": "(503) 954-1492", "distance": 1871.6555741798056}, {"id": "Aw7k9hYGOp2eNNO9SJXqag", "alias": "lightning-will-bar-and-grill-portland", "name": "Lightning Will Bar & Grill", "image_url": "https://s3-media2.fl.yelpcdn.com/bphoto/T6KcmE9Ddqs52d8FcyIxDA/o.jpg", "is_closed": false, "url": "https://www.yelp.com/biz/lightning-will-bar-and-grill-portland?adjust_creative=a2JdNtFqB-C38ga_06BHvw&utm_campaign=yelp_api_v3&utm_medium=api_v3_business_search&utm_source=a2JdNtFqB-C38ga_06BHvw", "review_count": 108, "categories": [{"alias": "sportsbars", "title": "Sports Bars"}, {"alias": "gastropubs", "title": "Gastropubs"}, {"alias": "tradamerican", "title": "American (Traditional)"}], "rating": 4.0, "coordinates": {"latitude": 45.5251727092775, "longitude": -122.694566890153}, "transactions": ["pickup", "delivery"], "price": "$$", "location": {"address1": "305 NW 21st Ave", "address2": "", "address3": "", "city": "Portland", "zip_code": "97209", "country": "US", "state": "OR", "display_address": ["305 NW 21st Ave", "Portland, OR 97209"]}, "phone": "+15033278203", "display_phone": "(503) 327-8203", "distance": 2290.178895756856}, {"id": "2k5PqCQYqnMe4736FHm7dw", "alias": "jolly-roger-portland-4", "name": "Jolly Roger", "image_url": "https://s3-media4.fl.yelpcdn.com/bphoto/-n0dGGo3fmfWOqGALZGEfg/o.jpg", "is_closed": false, "url": "https://www.yelp.com/biz/jolly-roger-portland-4?adjust_creative=a2JdNtFqB-C38ga_06BHvw&utm_campaign=yelp_api_v3&utm_medium=api_v3_business_search&utm_source=a2JdNtFqB-C38ga_06BHvw", "review_count": 110, "categories": [{"alias": "divebars", "title": "Dive Bars"}, {"alias": "sportsbars", "title": "Sports Bars"}, {"alias": "tradamerican", "title": "American (Traditional)"}], "rating": 4.0, "coordinates": {"latitude": 45.5134369590906, "longitude": -122.653405666351}, "transactions": ["delivery"], "price": "$", "location": {"address1": "1340 S E 12th Ave", "address2": "", "address3": "", "city": "Portland", "zip_code": "97214", "country": "US", "state": "OR", "display_address": ["1340 S E 12th Ave", "Portland, OR 97214"]}, "phone": "+15032328060", "display_phone": "(503) 232-8060", "distance": 2275.182756799248}, {"id": "1ZAhyqiIyWdFS20OB2xM8w", "alias": "cafe-nell-portland-2", "name": "Cafe Nell", "image_url": "https://s3-media1.fl.yelpcdn.com/bphoto/QokVEs_wDZJBP0T01zSEgA/o.jpg", "is_closed": false, "url": "https://www.yelp.com/biz/cafe-nell-portland-2?adjust_creative=a2JdNtFqB-C38ga_06BHvw&utm_campaign=yelp_api_v3&utm_medium=api_v3_business_search&utm_source=a2JdNtFqB-C38ga_06BHvw", "review_count": 528, "categories": [{"alias": "newamerican", "title": "American (New)"}, {"alias": "cocktailbars", "title": "Cocktail Bars"}, {"alias": "wine_bars", "title": "Wine Bars"}], "rating": 3.5, "coordinates": {"latitude": 45.52934, "longitude": -122.69232}, "transactions": ["delivery"], "price": "$$", "location": {"address1": "1987 NW Kearney St", "address2": "", "address3": "", "city": "Portland", "zip_code": "97209", "country": "US", "state": "OR", "display_address": ["1987 NW Kearney St", "Portland, OR 97209"]}, "phone": "+15032956487", "display_phone": "(503) 295-6487", "distance": 2015.2263989252233}, {"id": "PK03oAYGXfjy9w5MEme_cw", "alias": "d처ttir-portland-4", "name": "D처ttir", "image_url": "https://s3-media2.fl.yelpcdn.com/bphoto/mCHFXB_ezAJONTaYfptwyg/o.jpg", "is_closed": false, "url": "https://www.yelp.com/biz/d%C3%B3ttir-portland-4?adjust_creative=a2JdNtFqB-C38ga_06BHvw&utm_campaign=yelp_api_v3&utm_medium=api_v3_business_search&utm_source=a2JdNtFqB-C38ga_06BHvw", "review_count": 23, "categories": [{"alias": "scandinavian", "title": "Scandinavian"}, {"alias": "breakfast_brunch", "title": "Breakfast & Brunch"}, {"alias": "cocktailbars", "title": "Cocktail Bars"}], "rating": 4.5, "coordinates": {"latitude": 45.52382, "longitude": -122.6615582}, "transactions": [], "price": "$$", "location": {"address1": "100 NE Mlk Blvd", "address2": "", "address3": "Kex", "city": "Portland", "zip_code": "97232", "country": "US", "state": "OR", "display_address": ["100 NE Mlk Blvd", "Kex", "Portland, OR 97232"]}, "phone": "+19713462992", "display_phone": "(971) 346-2992", "distance": 959.018527063996}, {"id": "5z_6Kx3648C4tfBzD0FgRw", "alias": "swank-restaurant-portland-2", "name": "Swank Restaurant", "image_url": "https://s3-media2.fl.yelpcdn.com/bphoto/J7YBRfiqX8vwgI-t56E5PA/o.jpg", "is_closed": false, "url": "https://www.yelp.com/biz/swank-restaurant-portland-2?adjust_creative=a2JdNtFqB-C38ga_06BHvw&utm_campaign=yelp_api_v3&utm_medium=api_v3_business_search&utm_source=a2JdNtFqB-C38ga_06BHvw", "review_count": 226, "categories": [{"alias": "newamerican", "title": "American (New)"}, {"alias": "cocktailbars", "title": "Cocktail Bars"}, {"alias": "whiskeybars", "title": "Whiskey Bars"}], "rating": 3.5, "coordinates": {"latitude": 45.5181701604944, "longitude": -122.681707081818}, "transactions": [], "price": "$$", "location": {"address1": "808 SW Taylor Ave", "address2": "", "address3": "Inside the Paramount Hotel", "city": "Portland", "zip_code": "97205", "country": "US", "state": "OR", "display_address": ["808 SW Taylor Ave", "Inside the Paramount Hotel", "Portland, OR 97205"]}, "phone": "+15039435844", "display_phone": "(503) 943-5844", "distance": 1903.9798835452052}, {"id": "mHJIdc6XfImpI5qeWmeRxQ", "alias": "the-firkin-tavern-portland", "name": "The Firkin Tavern", "image_url": "https://s3-media3.fl.yelpcdn.com/bphoto/X712mbV34oTqeplGGfHTqw/o.jpg", "is_closed": false, "url": "https://www.yelp.com/biz/the-firkin-tavern-portland?adjust_creative=a2JdNtFqB-C38ga_06BHvw&utm_campaign=yelp_api_v3&utm_medium=api_v3_business_search&utm_source=a2JdNtFqB-C38ga_06BHvw", "review_count": 57, "categories": [{"alias": "pubs", "title": "Pubs"}, {"alias": "pizza", "title": "Pizza"}, {"alias": "divebars", "title": "Dive Bars"}], "rating": 4.0, "coordinates": {"latitude": 45.50884, "longitude": -122.65495}, "transactions": [], "price": "$", "location": {"address1": "1937 SE 11th Ave", "address2": "", "address3": "", "city": "Portland", "zip_code": "97214", "country": "US", "state": "OR", "display_address": ["1937 SE 11th Ave", "Portland, OR 97214"]}, "phone": "+15032067552", "display_phone": "(503) 206-7552", "distance": 2700.376450631693}, {"id": "FznRWr68zgIV-SkOGNveow", "alias": "bar-diane-portland", "name": "Bar Diane", "image_url": "https://s3-media2.fl.yelpcdn.com/bphoto/fEasPIjE9IXevjvW5cTdwA/o.jpg", "is_closed": false, "url": "https://www.yelp.com/biz/bar-diane-portland?adjust_creative=a2JdNtFqB-C38ga_06BHvw&utm_campaign=yelp_api_v3&utm_medium=api_v3_business_search&utm_source=a2JdNtFqB-C38ga_06BHvw", "review_count": 23, "categories": [{"alias": "wine_bars", "title": "Wine Bars"}, {"alias": "cocktailbars", "title": "Cocktail Bars"}, {"alias": "newamerican", "title": "American (New)"}], "rating": 4.5, "coordinates": {"latitude": 45.52763, "longitude": -122.694909}, "transactions": [], "location": {"address1": "2112 NW Irving St", "address2": "Ste 105", "address3": null, "city": "Portland", "zip_code": "97210", "country": "US", "state": "OR", "display_address": ["2112 NW Irving St", "Ste 105", "Portland, OR 97210"]}, "phone": "+19712551387", "display_phone": "(971) 255-1387", "distance": 2245.2812695604794}, {"id": "5fBj4YiqxXFTg3oxIQmwpQ", "alias": "r-and-r-bar-portland", "name": "R&R Bar", "image_url": "https://s3-media2.fl.yelpcdn.com/bphoto/6SfBQMMO6Lja4pc7PyINbA/o.jpg", "is_closed": false, "url": "https://www.yelp.com/biz/r-and-r-bar-portland?adjust_creative=a2JdNtFqB-C38ga_06BHvw&utm_campaign=yelp_api_v3&utm_medium=api_v3_business_search&utm_source=a2JdNtFqB-C38ga_06BHvw", "review_count": 27, "categories": [{"alias": "cocktailbars", "title": "Cocktail Bars"}, {"alias": "tapasmallplates", "title": "Tapas/Small Plates"}], "rating": 4.5, "coordinates": {"latitude": 45.52798, "longitude": -122.694272}, "transactions": ["delivery"], "location": {"address1": "716 NW 21st Ave", "address2": "", "address3": null, "city": "Portland", "zip_code": "97209", "country": "US", "state": "OR", "display_address": ["716 NW 21st Ave", "Portland, OR 97209"]}, "phone": "+15033842219", "display_phone": "(503) 384-2219", "distance": 2189.0574624957667}, {"id": "h4UJ4qFKp_D6KGHQWKyHIQ", "alias": "ok-omens-portland", "name": "Ok Omens", "image_url": "https://s3-media2.fl.yelpcdn.com/bphoto/R-Qv2WMK0FivRlTlj_e5QA/o.jpg", "is_closed": false, "url": "https://www.yelp.com/biz/ok-omens-portland?adjust_creative=a2JdNtFqB-C38ga_06BHvw&utm_campaign=yelp_api_v3&utm_medium=api_v3_business_search&utm_source=a2JdNtFqB-C38ga_06BHvw", "review_count": 59, "categories": [{"alias": "wine_bars", "title": "Wine Bars"}, {"alias": "tradamerican", "title": "American (Traditional)"}], "rating": 4.0, "coordinates": {"latitude": 45.5120620826845, "longitude": -122.647305804245}, "transactions": ["delivery"], "price": "$$", "location": {"address1": "1758 SE Hawthorne Blvd", "address2": "", "address3": null, "city": "Portland", "zip_code": "97214", "country": "US", "state": "OR", "display_address": ["1758 SE Hawthorne Blvd", "Portland, OR 97214"]}, "phone": "+15032319939", "display_phone": "(503) 231-9939", "distance": 2650.933157378432}, {"id": "GtVsVznFezaZFSdLCKE-uQ", "alias": "claudias-sports-pub-portland", "name": "Claudia's Sports Pub", "image_url": "https://s3-media2.fl.yelpcdn.com/bphoto/Ru0Qsb1kIY0oji8kjlxX_w/o.jpg", "is_closed": false, "url": "https://www.yelp.com/biz/claudias-sports-pub-portland?adjust_creative=a2JdNtFqB-C38ga_06BHvw&utm_campaign=yelp_api_v3&utm_medium=api_v3_business_search&utm_source=a2JdNtFqB-C38ga_06BHvw", "review_count": 110, "categories": [{"alias": "sportsbars", "title": "Sports Bars"}, {"alias": "tradamerican", "title": "American (Traditional)"}, {"alias": "pizza", "title": "Pizza"}], "rating": 3.5, "coordinates": {"latitude": 45.51184, "longitude": -122.63446}, "transactions": ["delivery"], "price": "$", "location": {"address1": "3006 SE Hawthorne Blvd", "address2": "", "address3": "", "city": "Portland", "zip_code": "97214", "country": "US", "state": "OR", "display_address": ["3006 SE Hawthorne Blvd", "Portland, OR 97214"]}, "phone": "+15032321744", "display_phone": "(503) 232-1744", "distance": 3329.176090196601}, {"id": "-Eu-BXVKSvzQXngtlCJeGg", "alias": "capitol-portland-2", "name": "Capitol", "image_url": "https://s3-media3.fl.yelpcdn.com/bphoto/uRdoblb4V0oPnFIHdGGRlw/o.jpg", "is_closed": false, "url": "https://www.yelp.com/biz/capitol-portland-2?adjust_creative=a2JdNtFqB-C38ga_06BHvw&utm_campaign=yelp_api_v3&utm_medium=api_v3_business_search&utm_source=a2JdNtFqB-C38ga_06BHvw", "review_count": 108, "categories": [{"alias": "karaoke", "title": "Karaoke"}, {"alias": "cocktailbars", "title": "Cocktail Bars"}, {"alias": "burgers", "title": "Burgers"}], "rating": 3.5, "coordinates": {"latitude": 45.5349439500545, "longitude": -122.650669306803}, "transactions": ["delivery"], "price": "$$", "location": {"address1": "1440 NE Broadway St", "address2": "", "address3": null, "city": "Portland", "zip_code": "97232", "country": "US", "state": "OR", "display_address": ["1440 NE Broadway St", "Portland, OR 97232"]}, "phone": "+15415958601", "display_phone": "(541) 595-8601", "distance": 1298.2653430092919}, {"id": "7j2ENXLI1aCH2LEg2IhGJw", "alias": "portland-sports-bar-and-grill-portland", "name": "Portland Sports Bar and Grill", "image_url": "https://s3-media4.fl.yelpcdn.com/bphoto/uk6tjb28EespuT5oj2sk0g/o.jpg", "is_closed": false, "url": "https://www.yelp.com/biz/portland-sports-bar-and-grill-portland?adjust_creative=a2JdNtFqB-C38ga_06BHvw&utm_campaign=yelp_api_v3&utm_medium=api_v3_business_search&utm_source=a2JdNtFqB-C38ga_06BHvw", "review_count": 148, "categories": [{"alias": "sportsbars", "title": "Sports Bars"}, {"alias": "tradamerican", "title": "American (Traditional)"}, {"alias": "cocktailbars", "title": "Cocktail Bars"}], "rating": 3.5, "coordinates": {"latitude": 45.5090853708553, "longitude": -122.67356179892}, "transactions": ["delivery", "pickup"], "price": "$$", "location": {"address1": "1811 SW River Dr", "address2": "Ste 200", "address3": "", "city": "Portland", "zip_code": "97201", "country": "US", "state": "OR", "display_address": ["1811 SW River Dr", "Ste 200", "Portland, OR 97201"]}, "phone": "+15032222027", "display_phone": "(503) 222-2027", "distance": 2567.7751722266094}, {"id": "2wq-PoxDXDbilIckzimSIA", "alias": "hostel-cafe-portland", "name": "Hostel Cafe", "image_url": "https://s3-media3.fl.yelpcdn.com/bphoto/sNmGMdki871G95HWFYWV1A/o.jpg", "is_closed": false, "url": "https://www.yelp.com/biz/hostel-cafe-portland?adjust_creative=a2JdNtFqB-C38ga_06BHvw&utm_campaign=yelp_api_v3&utm_medium=api_v3_business_search&utm_source=a2JdNtFqB-C38ga_06BHvw", "review_count": 45, "categories": [{"alias": "breakfast_brunch", "title": "Breakfast & Brunch"}, {"alias": "burgers", "title": "Burgers"}, {"alias": "pubs", "title": "Pubs"}], "rating": 4.0, "coordinates": {"latitude": 45.5262427, "longitude": -122.6896112}, "transactions": ["delivery", "pickup"], "price": "$$", "location": {"address1": "1810 NW Glisan St", "address2": null, "address3": "", "city": "Portland", "zip_code": "97209", "country": "US", "state": "OR", "display_address": ["1810 NW Glisan St", "Portland, OR 97209"]}, "phone": "+15034178143", "display_phone": "(503) 417-8143", "distance": 1884.1171212724303}, {"id": "PK7y_PrT118FX6KasLdU7w", "alias": "enoteca-nostrana-portland-4", "name": "Enoteca Nostrana", "image_url": "https://s3-media2.fl.yelpcdn.com/bphoto/g1QlyNsXLRCd21MhN7aBOw/o.jpg", "is_closed": false, "url": "https://www.yelp.com/biz/enoteca-nostrana-portland-4?adjust_creative=a2JdNtFqB-C38ga_06BHvw&utm_campaign=yelp_api_v3&utm_medium=api_v3_business_search&utm_source=a2JdNtFqB-C38ga_06BHvw", "review_count": 24, "categories": [{"alias": "wine_bars", "title": "Wine Bars"}, {"alias": "italian", "title": "Italian"}], "rating": 4.5, "coordinates": {"latitude": 45.517637, "longitude": -122.651306}, "transactions": [], "location": {"address1": "1401 SE Morrison St", "address2": "Ste 105", "address3": null, "city": "Portland", "zip_code": "97214", "country": "US", "state": "OR", "display_address": ["1401 SE Morrison St", "Ste 105", "Portland, OR 97214"]}, "phone": "+15032367006", "display_phone": "(503) 236-7006", "distance": 1966.1697432516883}, {"id": "Uo6k2_14sdUhVJF9YxnMcg", "alias": "pizza-schmizza-pub-and-grub-portland-7", "name": "Pizza Schmizza Pub & Grub", "image_url": "https://s3-media4.fl.yelpcdn.com/bphoto/-3-Q_BMksT6xIZzy_MevxQ/o.jpg", "is_closed": false, "url": "https://www.yelp.com/biz/pizza-schmizza-pub-and-grub-portland-7?adjust_creative=a2JdNtFqB-C38ga_06BHvw&utm_campaign=yelp_api_v3&utm_medium=api_v3_business_search&utm_source=a2JdNtFqB-C38ga_06BHvw", "review_count": 171, "categories": [{"alias": "pizza", "title": "Pizza"}, {"alias": "sportsbars", "title": "Sports Bars"}], "rating": 3.5, "coordinates": {"latitude": 45.5113638902712, "longitude": -122.680685633181}, "transactions": ["delivery", "pickup"], "price": "$", "location": {"address1": "415 SW Montgomery St", "address2": "", "address3": "", "city": "Portland", "zip_code": "97201", "country": "US", "state": "OR", "display_address": ["415 SW Montgomery St", "Portland, OR 97201"]}, "phone": "+15034738119", "display_phone": "(503) 473-8119", "distance": 2507.901658497641}, {"id": "exi2Sq6n3Fy2SueIdk4HQg", "alias": "pizza-schmizza-pub-and-grub-portland-9", "name": "Pizza Schmizza Pub & Grub", "image_url": "https://s3-media4.fl.yelpcdn.com/bphoto/VPRQ2_iczN04vuia0uDlAw/o.jpg", "is_closed": false, "url": "https://www.yelp.com/biz/pizza-schmizza-pub-and-grub-portland-9?adjust_creative=a2JdNtFqB-C38ga_06BHvw&utm_campaign=yelp_api_v3&utm_medium=api_v3_business_search&utm_source=a2JdNtFqB-C38ga_06BHvw", "review_count": 104, "categories": [{"alias": "pizza", "title": "Pizza"}, {"alias": "sportsbars", "title": "Sports Bars"}], "rating": 3.5, "coordinates": {"latitude": 45.526414000969, "longitude": -122.68201039232}, "transactions": ["delivery", "pickup"], "price": "$", "location": {"address1": "1036 NW Glisan St", "address2": "", "address3": "", "city": "Portland", "zip_code": "97209", "country": "US", "state": "OR", "display_address": ["1036 NW Glisan St", "Portland, OR 97209"]}, "phone": "+15034775501", "display_phone": "(503) 477-5501", "distance": 1330.3017358616103}, {"id": "x4McROA7kn1ULCGegQtUSg", "alias": "mox-boarding-house-portland-portland", "name": "Mox Boarding House - Portland", "image_url": "https://s3-media4.fl.yelpcdn.com/bphoto/5vFPA5vFMCJ491LUq04PTg/o.jpg", "is_closed": false, "url": "https://www.yelp.com/biz/mox-boarding-house-portland-portland?adjust_creative=a2JdNtFqB-C38ga_06BHvw&utm_campaign=yelp_api_v3&utm_medium=api_v3_business_search&utm_source=a2JdNtFqB-C38ga_06BHvw", "review_count": 20, "categories": [{"alias": "tabletopgames", "title": "Tabletop Games"}, {"alias": "newamerican", "title": "American (New)"}, {"alias": "cocktailbars", "title": "Cocktail Bars"}], "rating": 4.5, "coordinates": {"latitude": 45.52267, "longitude": -122.69049}, "transactions": [], "location": {"address1": "1938 W Burnside St", "address2": null, "address3": "", "city": "Portland", "zip_code": "97209", "country": "US", "state": "OR", "display_address": ["1938 W Burnside St", "Portland, OR 97209"]}, "phone": "+15035060669", "display_phone": "(503) 506-0669", "distance": 2124.974316466929}, {"id": "Cvp_pMf7cdhczhIrHp5N-w", "alias": "the-sudra-portland-3", "name": "The Sudra", "image_url": "https://s3-media2.fl.yelpcdn.com/bphoto/ofpCNUGBDfQeX0zZCwHDNQ/o.jpg", "is_closed": false, "url": "https://www.yelp.com/biz/the-sudra-portland-3?adjust_creative=a2JdNtFqB-C38ga_06BHvw&utm_campaign=yelp_api_v3&utm_medium=api_v3_business_search&utm_source=a2JdNtFqB-C38ga_06BHvw", "review_count": 17, "categories": [{"alias": "indpak", "title": "Indian"}, {"alias": "cocktailbars", "title": "Cocktail Bars"}], "rating": 4.5, "coordinates": {"latitude": 45.5476951, "longitude": -122.6757826}, "transactions": ["delivery", "pickup"], "location": {"address1": "906 N Fremont St", "address2": null, "address3": "", "city": "Portland", "zip_code": "97227", "country": "US", "state": "OR", "display_address": ["906 N Fremont St", "Portland, OR 97227"]}, "phone": "+15037194279", "display_phone": "(503) 719-4279", "distance": 1919.7017616982494}, {"id": "ny_gxQalP_5miTZMAyXryA", "alias": "sungari-pearl-portland-2", "name": "Sungari Pearl", "image_url": "https://s3-media3.fl.yelpcdn.com/bphoto/P2WKUBrFQNxGaOdbm0518g/o.jpg", "is_closed": false, "url": "https://www.yelp.com/biz/sungari-pearl-portland-2?adjust_creative=a2JdNtFqB-C38ga_06BHvw&utm_campaign=yelp_api_v3&utm_medium=api_v3_business_search&utm_source=a2JdNtFqB-C38ga_06BHvw", "review_count": 235, "categories": [{"alias": "chinese", "title": "Chinese"}, {"alias": "wine_bars", "title": "Wine Bars"}, {"alias": "seafood", "title": "Seafood"}], "rating": 3.5, "coordinates": {"latitude": 45.53044, "longitude": -122.68291}, "transactions": ["delivery", "pickup"], "price": "$$", "location": {"address1": "1105 NW Lovejoy St", "address2": "", "address3": "", "city": "Portland", "zip_code": "97209", "country": "US", "state": "OR", "display_address": ["1105 NW Lovejoy St", "Portland, OR 97209"]}, "phone": "+19712227327", "display_phone": "(971) 222-7327", "distance": 1254.736602385863}, {"id": "fEAd4szY_SaZ1RSH1gcb7A", "alias": "angel-face-portland", "name": "Angel Face", "image_url": "https://s3-media1.fl.yelpcdn.com/bphoto/nf2WB9qEEcqSspAgLRe1cA/o.jpg", "is_closed": false, "url": "https://www.yelp.com/biz/angel-face-portland?adjust_creative=a2JdNtFqB-C38ga_06BHvw&utm_campaign=yelp_api_v3&utm_medium=api_v3_business_search&utm_source=a2JdNtFqB-C38ga_06BHvw", "review_count": 89, "categories": [{"alias": "french", "title": "French"}, {"alias": "cocktailbars", "title": "Cocktail Bars"}], "rating": 3.5, "coordinates": {"latitude": 45.5231176, "longitude": -122.63724}, "transactions": ["delivery"], "price": "$$", "location": {"address1": "14 NE 28th Ave", "address2": "", "address3": "", "city": "Portland", "zip_code": "97232", "country": "US", "state": "OR", "display_address": ["14 NE 28th Ave", "Portland, OR 97232"]}, "phone": "+15032323555", "display_phone": "(503) 232-3555", "distance": 2481.6528465451065}, {"id": "ufu1amE5i3n6xWw0z2SOuw", "alias": "quality-bar-portland-2", "name": "Quality Bar", "image_url": "https://s3-media4.fl.yelpcdn.com/bphoto/NQu-TDhigzSx-AvKeJOQgw/o.jpg", "is_closed": false, "url": "https://www.yelp.com/biz/quality-bar-portland-2?adjust_creative=a2JdNtFqB-C38ga_06BHvw&utm_campaign=yelp_api_v3&utm_medium=api_v3_business_search&utm_source=a2JdNtFqB-C38ga_06BHvw", "review_count": 70, "categories": [{"alias": "cocktailbars", "title": "Cocktail Bars"}, {"alias": "pizza", "title": "Pizza"}], "rating": 3.5, "coordinates": {"latitude": 45.52285, "longitude": -122.68079}, "transactions": ["delivery"], "price": "$$", "location": {"address1": "931 Sw Oak St", "address2": "", "address3": "", "city": "Portland", "zip_code": "97205", "country": "US", "state": "OR", "display_address": ["931 Sw Oak St", "Portland, OR 97205"]}, "phone": "+15039726793", "display_phone": "(503) 972-6793", "distance": 1470.4303183260379}, {"id": "_ezLVbMQ49iLn8RtWeV1aA", "alias": "lovely-rita-portland", "name": "Lovely Rita", "image_url": "https://s3-media3.fl.yelpcdn.com/bphoto/E7esgVTnAax3TeZMu-J69g/o.jpg", "is_closed": false, "url": "https://www.yelp.com/biz/lovely-rita-portland?adjust_creative=a2JdNtFqB-C38ga_06BHvw&utm_campaign=yelp_api_v3&utm_medium=api_v3_business_search&utm_source=a2JdNtFqB-C38ga_06BHvw", "review_count": 12, "categories": [{"alias": "modern_european", "title": "Modern European"}, {"alias": "breakfast_brunch", "title": "Breakfast & Brunch"}, {"alias": "cocktailbars", "title": "Cocktail Bars"}], "rating": 5.0, "coordinates": {"latitude": 45.52335, "longitude": -122.67466}, "transactions": ["delivery"], "location": {"address1": "15 NW 4th Ave", "address2": "", "address3": null, "city": "Portland", "zip_code": "97209", "country": "US", "state": "OR", "display_address": ["15 NW 4th Ave", "Portland, OR 97209"]}, "phone": "+15037700500", "display_phone": "(503) 770-0500", "distance": 1104.6007924409482}, {"id": "7gNnLMMaol-rzYveud383w", "alias": "marathon-taverna-portland", "name": "Marathon Taverna", "image_url": "https://s3-media2.fl.yelpcdn.com/bphoto/sIXH9RoD6lI2UVUlj00t6A/o.jpg", "is_closed": false, "url": "https://www.yelp.com/biz/marathon-taverna-portland?adjust_creative=a2JdNtFqB-C38ga_06BHvw&utm_campaign=yelp_api_v3&utm_medium=api_v3_business_search&utm_source=a2JdNtFqB-C38ga_06BHvw", "review_count": 159, "categories": [{"alias": "pubs", "title": "Pubs"}, {"alias": "sportsbars", "title": "Sports Bars"}, {"alias": "tradamerican", "title": "American (Traditional)"}], "rating": 3.5, "coordinates": {"latitude": 45.52311, "longitude": -122.6889}, "transactions": ["delivery"], "price": "$", "location": {"address1": "1735 W Burnside St", "address2": "", "address3": "", "city": "Portland", "zip_code": "97209", "country": "US", "state": "OR", "display_address": ["1735 W Burnside St", "Portland, OR 97209"]}, "phone": "+15032241341", "display_phone": "(503) 224-1341", "distance": 1989.3431792560452}, {"id": "WZ0xS17srbcpK5fdsTHOjw", "alias": "sukis-bar-and-grill-portland", "name": "Suki's Bar and Grill", "image_url": "https://s3-media1.fl.yelpcdn.com/bphoto/bzkVkoga2QiSZeZTUUeDvA/o.jpg", "is_closed": false, "url": "https://www.yelp.com/biz/sukis-bar-and-grill-portland?adjust_creative=a2JdNtFqB-C38ga_06BHvw&utm_campaign=yelp_api_v3&utm_medium=api_v3_business_search&utm_source=a2JdNtFqB-C38ga_06BHvw", "review_count": 181, "categories": [{"alias": "karaoke", "title": "Karaoke"}, {"alias": "tradamerican", "title": "American (Traditional)"}, {"alias": "sportsbars", "title": "Sports Bars"}], "rating": 3.5, "coordinates": {"latitude": 45.5057456821407, "longitude": -122.682189840942}, "transactions": ["delivery", "pickup"], "price": "$", "location": {"address1": "2401 SW 4th Ave", "address2": "", "address3": "", "city": "Portland", "zip_code": "97201", "country": "US", "state": "OR", "display_address": ["2401 SW 4th Ave", "Portland, OR 97201"]}, "phone": "+15032261181", "display_phone": "(503) 226-1181", "distance": 3125.7662116230513}, {"id": "ML9aL4XLvRe61faySt08hQ", "alias": "life-of-riley-tavern-portland", "name": "Life Of Riley Tavern", "image_url": "https://s3-media4.fl.yelpcdn.com/bphoto/acAC4Y8Mjc39-DIfIWWo_Q/o.jpg", "is_closed": false, "url": "https://www.yelp.com/biz/life-of-riley-tavern-portland?adjust_creative=a2JdNtFqB-C38ga_06BHvw&utm_campaign=yelp_api_v3&utm_medium=api_v3_business_search&utm_source=a2JdNtFqB-C38ga_06BHvw", "review_count": 261, "categories": [{"alias": "burgers", "title": "Burgers"}, {"alias": "sandwiches", "title": "Sandwiches"}, {"alias": "pubs", "title": "Pubs"}], "rating": 3.5, "coordinates": {"latitude": 45.52527, "longitude": -122.68097}, "transactions": ["delivery"], "price": "$$", "location": {"address1": "300 NW 10th Ave", "address2": "", "address3": "", "city": "Portland", "zip_code": "97209", "country": "US", "state": "OR", "display_address": ["300 NW 10th Ave", "Portland, OR 97209"]}, "phone": "+15032241680", "display_phone": "(503) 224-1680", "distance": 1319.9389893554326}, {"id": "b8ay1vj5RLHcRUZ9DFJApQ", "alias": "la-calaca-comelona-portland", "name": "La Calaca Comelona", "image_url": "https://s3-media4.fl.yelpcdn.com/bphoto/V7pO5FkRYPjUJ65yMurlDQ/o.jpg", "is_closed": false, "url": "https://www.yelp.com/biz/la-calaca-comelona-portland?adjust_creative=a2JdNtFqB-C38ga_06BHvw&utm_campaign=yelp_api_v3&utm_medium=api_v3_business_search&utm_source=a2JdNtFqB-C38ga_06BHvw", "review_count": 179, "categories": [{"alias": "mexican", "title": "Mexican"}, {"alias": "cocktailbars", "title": "Cocktail Bars"}], "rating": 3.5, "coordinates": {"latitude": 45.516307, "longitude": -122.642235}, "transactions": ["delivery"], "price": "$$", "location": {"address1": "2304 SE Belmont St", "address2": "", "address3": "", "city": "Portland", "zip_code": "97214", "country": "US", "state": "OR", "display_address": ["2304 SE Belmont St", "Portland, OR 97214"]}, "phone": "+15032399675", "display_phone": "(503) 239-9675", "distance": 2557.316510433561}, {"id": "bT977T9uVR0vRjcctL9cWQ", "alias": "spirit-of-77-portland", "name": "Spirit of '77", "image_url": "https://s3-media4.fl.yelpcdn.com/bphoto/rS1zlUx8BRz1wOZaiGdihw/o.jpg", "is_closed": false, "url": "https://www.yelp.com/biz/spirit-of-77-portland?adjust_creative=a2JdNtFqB-C38ga_06BHvw&utm_campaign=yelp_api_v3&utm_medium=api_v3_business_search&utm_source=a2JdNtFqB-C38ga_06BHvw", "review_count": 232, "categories": [{"alias": "sportsbars", "title": "Sports Bars"}, {"alias": "tradamerican", "title": "American (Traditional)"}], "rating": 3.5, "coordinates": {"latitude": 45.5268251838248, "longitude": -122.661516666412}, "transactions": ["delivery", "pickup"], "price": "$$", "location": {"address1": "500 NE Martin Luther King Jr Blvd", "address2": "", "address3": "", "city": "Portland", "zip_code": "97232", "country": "US", "state": "OR", "display_address": ["500 NE Martin Luther King Jr Blvd", "Portland, OR 97232"]}, "phone": "+15032329977", "display_phone": "(503) 232-9977", "distance": 671.4282856479293}, {"id": "1mRnn_8kiyHvwx7luHVkRA", "alias": "erizo-portland", "name": "Erizo", "image_url": "https://s3-media3.fl.yelpcdn.com/bphoto/WMcqgjMdAEQMObaVqle1uA/o.jpg", "is_closed": false, "url": "https://www.yelp.com/biz/erizo-portland?adjust_creative=a2JdNtFqB-C38ga_06BHvw&utm_campaign=yelp_api_v3&utm_medium=api_v3_business_search&utm_source=a2JdNtFqB-C38ga_06BHvw", "review_count": 23, "categories": [{"alias": "seafood", "title": "Seafood"}, {"alias": "wine_bars", "title": "Wine Bars"}], "rating": 4.0, "coordinates": {"latitude": 45.52114, "longitude": -122.65697}, "transactions": ["delivery"], "location": {"address1": "215 SE 9th Ave", "address2": "", "address3": null, "city": "Portland", "zip_code": "97214", "country": "US", "state": "OR", "display_address": ["215 SE 9th Ave", "Portland, OR 97214"]}, "phone": "+15037543609", "display_phone": "(503) 754-3609", "distance": 1380.1338838776808}, {"id": "yQzkwO4WsVXwgSN3G0HWSg", "alias": "cheerful-bullpen-portland", "name": "Cheerful Bullpen", "image_url": "https://s3-media2.fl.yelpcdn.com/bphoto/VunFV2cyaV6NFJSHfKSaHg/o.jpg", "is_closed": false, "url": "https://www.yelp.com/biz/cheerful-bullpen-portland?adjust_creative=a2JdNtFqB-C38ga_06BHvw&utm_campaign=yelp_api_v3&utm_medium=api_v3_business_search&utm_source=a2JdNtFqB-C38ga_06BHvw", "review_count": 104, "categories": [{"alias": "divebars", "title": "Dive Bars"}, {"alias": "tradamerican", "title": "American (Traditional)"}, {"alias": "sportsbars", "title": "Sports Bars"}], "rating": 3.5, "coordinates": {"latitude": 45.520647, "longitude": -122.69053}, "transactions": ["delivery"], "price": "$", "location": {"address1": "1730 SW Taylor St", "address2": "", "address3": "", "city": "Portland", "zip_code": "97205", "country": "US", "state": "OR", "display_address": ["1730 SW Taylor St", "Portland, OR 97205"]}, "phone": "+15032223063", "display_phone": "(503) 222-3063", "distance": 2226.487569142225}, {"id": "LLOhpVC1VJfganA8IPbEBw", "alias": "marthas-portland-2", "name": "Marthas", "image_url": "https://s3-media2.fl.yelpcdn.com/bphoto/ZuwOsFKiAilaKAVEbXI9dg/o.jpg", "is_closed": false, "url": "https://www.yelp.com/biz/marthas-portland-2?adjust_creative=a2JdNtFqB-C38ga_06BHvw&utm_campaign=yelp_api_v3&utm_medium=api_v3_business_search&utm_source=a2JdNtFqB-C38ga_06BHvw", "review_count": 34, "categories": [{"alias": "cocktailbars", "title": "Cocktail Bars"}, {"alias": "sandwiches", "title": "Sandwiches"}, {"alias": "pizza", "title": "Pizza"}], "rating": 4.0, "coordinates": {"latitude": 45.5189560840813, "longitude": -122.65208604033}, "transactions": ["delivery"], "price": "$", "location": {"address1": "1300 SE Stark St", "address2": "", "address3": "", "city": "Portland", "zip_code": "97214", "country": "US", "state": "OR", "display_address": ["1300 SE Stark St", "Portland, OR 97214"]}, "phone": "+19718085090", "display_phone": "(971) 808-5090", "distance": 1813.2611198292645}, {"id": "mZJbFf3Ad0IEAHm6zCylhA", "alias": "daisy-cafe-portland", "name": "Daisy Cafe", "image_url": "https://s3-media2.fl.yelpcdn.com/bphoto/Odo75-yK_DmxS4UXAuyaJA/o.jpg", "is_closed": false, "url": "https://www.yelp.com/biz/daisy-cafe-portland?adjust_creative=a2JdNtFqB-C38ga_06BHvw&utm_campaign=yelp_api_v3&utm_medium=api_v3_business_search&utm_source=a2JdNtFqB-C38ga_06BHvw", "review_count": 22, "categories": [{"alias": "breakfast_brunch", "title": "Breakfast & Brunch"}, {"alias": "cocktailbars", "title": "Cocktail Bars"}, {"alias": "sandwiches", "title": "Sandwiches"}], "rating": 4.0, "coordinates": {"latitude": 45.55565, "longitude": -122.65042}, "transactions": [], "price": "$$", "location": {"address1": "1465 NE Prescott St", "address2": "Ste F", "address3": null, "city": "Portland", "zip_code": "97211", "country": "US", "state": "OR", "display_address": ["1465 NE Prescott St", "Ste F", "Portland, OR 97211"]}, "phone": "+15038948125", "display_phone": "(503) 894-8125", "distance": 2960.54006444675}, {"id": "fTCxV9crgQKqzvf8yI9MoA", "alias": "pizza-schmizza-pub-and-grub-portland-8", "name": "Pizza Schmizza Pub & Grub", "image_url": "https://s3-media2.fl.yelpcdn.com/bphoto/xEkUGA96QAddKnHmLl9vEw/o.jpg", "is_closed": false, "url": "https://www.yelp.com/biz/pizza-schmizza-pub-and-grub-portland-8?adjust_creative=a2JdNtFqB-C38ga_06BHvw&utm_campaign=yelp_api_v3&utm_medium=api_v3_business_search&utm_source=a2JdNtFqB-C38ga_06BHvw", "review_count": 106, "categories": [{"alias": "pizza", "title": "Pizza"}, {"alias": "sportsbars", "title": "Sports Bars"}], "rating": 3.5, "coordinates": {"latitude": 45.52537, "longitude": -122.69407}, "transactions": ["delivery", "pickup"], "price": "$", "location": {"address1": "320 NW 21st Ave", "address2": null, "address3": "", "city": "Portland", "zip_code": "97209", "country": "US", "state": "OR", "display_address": ["320 NW 21st Ave", "Portland, OR 97209"]}, "phone": "+15036885394", "display_phone": "(503) 688-5394", "distance": 2253.0358424062356}, {"id": "Qkkl8gAssXi9mrxEpyWSmw", "alias": "urban-steel-kitchen-and-bar-portland", "name": "Urban Steel Kitchen & Bar", "image_url": "https://s3-media3.fl.yelpcdn.com/bphoto/n2AOMCDgGyfa57-wsTFt_A/o.jpg", "is_closed": false, "url": "https://www.yelp.com/biz/urban-steel-kitchen-and-bar-portland?adjust_creative=a2JdNtFqB-C38ga_06BHvw&utm_campaign=yelp_api_v3&utm_medium=api_v3_business_search&utm_source=a2JdNtFqB-C38ga_06BHvw", "review_count": 10, "categories": [{"alias": "newamerican", "title": "American (New)"}, {"alias": "cocktailbars", "title": "Cocktail Bars"}, {"alias": "whiskeybars", "title": "Whiskey Bars"}], "rating": 4.5, "coordinates": {"latitude": 45.536682, "longitude": -122.7011994}, "transactions": [], "location": {"address1": "2426 NW Vaughn St", "address2": null, "address3": "", "city": "Portland", "zip_code": "97210", "country": "US", "state": "OR", "display_address": ["2426 NW Vaughn St", "Portland, OR 97210"]}, "phone": "+15035353785", "display_phone": "(503) 535-3785", "distance": 2746.9314191630406}, {"id": "qjX2hiSGaFRdntCuV_9NgA", "alias": "kingston-sports-bar-and-grill-portland", "name": "Kingston Sports Bar & Grill", "image_url": "https://s3-media1.fl.yelpcdn.com/bphoto/FTuyzRUSxgx6WP1RITvodA/o.jpg", "is_closed": false, "url": "https://www.yelp.com/biz/kingston-sports-bar-and-grill-portland?adjust_creative=a2JdNtFqB-C38ga_06BHvw&utm_campaign=yelp_api_v3&utm_medium=api_v3_business_search&utm_source=a2JdNtFqB-C38ga_06BHvw", "review_count": 97, "categories": [{"alias": "sportsbars", "title": "Sports Bars"}, {"alias": "tradamerican", "title": "American (Traditional)"}, {"alias": "sandwiches", "title": "Sandwiches"}], "rating": 3.5, "coordinates": {"latitude": 45.52302, "longitude": -122.69285}, "transactions": ["delivery"], "price": "$", "location": {"address1": "2021 SW Morrison St", "address2": "", "address3": "", "city": "Portland", "zip_code": "97205", "country": "US", "state": "OR", "display_address": ["2021 SW Morrison St", "Portland, OR 97205"]}, "phone": "+15032242115", "display_phone": "(503) 224-2115", "distance": 2244.7679952172543}, {"id": "iZqgzrxxYWW9tOwOytVwDA", "alias": "mad-greek-deli-portland-2", "name": "Mad Greek Deli", "image_url": "https://s3-media1.fl.yelpcdn.com/bphoto/b81494qcTTVmcwmVVW2vYw/o.jpg", "is_closed": false, "url": "https://www.yelp.com/biz/mad-greek-deli-portland-2?adjust_creative=a2JdNtFqB-C38ga_06BHvw&utm_campaign=yelp_api_v3&utm_medium=api_v3_business_search&utm_source=a2JdNtFqB-C38ga_06BHvw", "review_count": 210, "categories": [{"alias": "greek", "title": "Greek"}, {"alias": "delis", "title": "Delis"}, {"alias": "sportsbars", "title": "Sports Bars"}], "rating": 3.0, "coordinates": {"latitude": 45.52265, "longitude": -122.64773}, "transactions": ["delivery", "pickup"], "price": "$", "location": {"address1": "1740 E Burnside St", "address2": "", "address3": "", "city": "Portland", "zip_code": "97214", "country": "US", "state": "OR", "display_address": ["1740 E Burnside St", "Portland, OR 97214"]}, "phone": "+15032320274", "display_phone": "(503) 232-0274", "distance": 1783.5881112821057}, {"id": "vVdD8heYO10aErcB-QZ3Lg", "alias": "broadway-grill-and-brewery-portland-2", "name": "Broadway Grill & Brewery", "image_url": "https://s3-media1.fl.yelpcdn.com/bphoto/zsDQPzxI0pZpLDUWDcQ9Xw/o.jpg", "is_closed": false, "url": "https://www.yelp.com/biz/broadway-grill-and-brewery-portland-2?adjust_creative=a2JdNtFqB-C38ga_06BHvw&utm_campaign=yelp_api_v3&utm_medium=api_v3_business_search&utm_source=a2JdNtFqB-C38ga_06BHvw", "review_count": 194, "categories": [{"alias": "tradamerican", "title": "American (Traditional)"}, {"alias": "sportsbars", "title": "Sports Bars"}, {"alias": "pubs", "title": "Pubs"}], "rating": 3.0, "coordinates": {"latitude": 45.5349840223789, "longitude": -122.648245096207}, "transactions": ["delivery", "pickup"], "price": "$$", "location": {"address1": "1700 NE Broadway St", "address2": null, "address3": "", "city": "Portland", "zip_code": "97232", "country": "US", "state": "OR", "display_address": ["1700 NE Broadway St", "Portland, OR 97232"]}, "phone": "+15032844460", "display_phone": "(503) 284-4460", "distance": 1481.5520143679853}, {"id": "Ql8BrqRcvm5Yqyg-pEQ0Vw", "alias": "the-lounge-at-gildas-portland", "name": "The Lounge At Gilda's", "image_url": "https://s3-media1.fl.yelpcdn.com/bphoto/FDdEq3d2ENQdqs-yBLs8sQ/o.jpg", "is_closed": false, "url": "https://www.yelp.com/biz/the-lounge-at-gildas-portland?adjust_creative=a2JdNtFqB-C38ga_06BHvw&utm_campaign=yelp_api_v3&utm_medium=api_v3_business_search&utm_source=a2JdNtFqB-C38ga_06BHvw", "review_count": 18, "categories": [{"alias": "cocktailbars", "title": "Cocktail Bars"}, {"alias": "italian", "title": "Italian"}], "rating": 4.0, "coordinates": {"latitude": 45.5217419564724, "longitude": -122.688309252262}, "transactions": [], "price": "$$", "location": {"address1": "1601 SW Morrison St", "address2": "", "address3": "", "city": "Portland", "zip_code": "97205", "country": "US", "state": "OR", "display_address": ["1601 SW Morrison St", "Portland, OR 97205"]}, "phone": "+15036885066", "display_phone": "(503) 688-5066", "distance": 2007.0343295544385}, {"id": "wdOO-3KV54Mq8mz_iN3uJA", "alias": "jackknife-portland", "name": "Jackknife", "image_url": "https://s3-media2.fl.yelpcdn.com/bphoto/o2J3uJ0bvJVBbtftK27k9Q/o.jpg", "is_closed": false, "url": "https://www.yelp.com/biz/jackknife-portland?adjust_creative=a2JdNtFqB-C38ga_06BHvw&utm_campaign=yelp_api_v3&utm_medium=api_v3_business_search&utm_source=a2JdNtFqB-C38ga_06BHvw", "review_count": 233, "categories": [{"alias": "newamerican", "title": "American (New)"}, {"alias": "cocktailbars", "title": "Cocktail Bars"}], "rating": 3.0, "coordinates": {"latitude": 45.520637, "longitude": -122.682787}, "transactions": ["delivery", "pickup"], "price": "$$", "location": {"address1": "614 SW 11th Ave", "address2": "", "address3": "", "city": "Portland", "zip_code": "97205", "country": "US", "state": "OR", "display_address": ["614 SW 11th Ave", "Portland, OR 97205"]}, "phone": "+15033842347", "display_phone": "(503) 384-2347", "distance": 1755.3358555788798}, {"id": "utP6xr4j6mXEw4VuB16hZw", "alias": "rusty-nail-pizza-and-pub-portland", "name": "Rusty Nail Pizza and Pub", "image_url": "https://s3-media2.fl.yelpcdn.com/bphoto/KgHwOH7c7nMKWVCVoFC8nw/o.jpg", "is_closed": false, "url": "https://www.yelp.com/biz/rusty-nail-pizza-and-pub-portland?adjust_creative=a2JdNtFqB-C38ga_06BHvw&utm_campaign=yelp_api_v3&utm_medium=api_v3_business_search&utm_source=a2JdNtFqB-C38ga_06BHvw", "review_count": 17, "categories": [{"alias": "pizza", "title": "Pizza"}, {"alias": "pubs", "title": "Pubs"}, {"alias": "italian", "title": "Italian"}], "rating": 4.0, "coordinates": {"latitude": 45.52828, "longitude": -122.67303}, "transactions": ["delivery", "pickup"], "price": "$", "location": {"address1": "600 NW Naito Pkwy", "address2": "Ste C", "address3": null, "city": "Portland", "zip_code": "97209", "country": "US", "state": "OR", "display_address": ["600 NW Naito Pkwy", "Ste C", "Portland, OR 97209"]}, "phone": "+15032953095", "display_phone": "(503) 295-3095", "distance": 619.6612426231579}, {"id": "7O3rMVJ07cbtrYzoHhLR-A", "alias": "buffalo-wild-wings-portland-4", "name": "Buffalo Wild Wings", "image_url": "https://s3-media3.fl.yelpcdn.com/bphoto/DNmYlCULwUn5m7a1j7vzSA/o.jpg", "is_closed": false, "url": "https://www.yelp.com/biz/buffalo-wild-wings-portland-4?adjust_creative=a2JdNtFqB-C38ga_06BHvw&utm_campaign=yelp_api_v3&utm_medium=api_v3_business_search&utm_source=a2JdNtFqB-C38ga_06BHvw", "review_count": 271, "categories": [{"alias": "tradamerican", "title": "American (Traditional)"}, {"alias": "sportsbars", "title": "Sports Bars"}, {"alias": "chicken_wings", "title": "Chicken Wings"}], "rating": 3.0, "coordinates": {"latitude": 45.5185331, "longitude": -122.6761788}, "transactions": ["delivery"], "price": "$$", "location": {"address1": "327 SW Morrison St", "address2": "", "address3": "", "city": "Portland", "zip_code": "97204", "country": "US", "state": "OR", "display_address": ["327 SW Morrison St", "Portland, OR 97204"]}, "phone": "+15032241309", "display_phone": "(503) 224-1309", "distance": 1637.6521030985132}, {"id": "XH5_9a6pTk86sdXCV2dlpw", "alias": "silver-dollar-pizza-company-portland", "name": "Silver Dollar Pizza Company", "image_url": "https://s3-media2.fl.yelpcdn.com/bphoto/xxqXUpAknGpw2hl5izyyjw/o.jpg", "is_closed": false, "url": "https://www.yelp.com/biz/silver-dollar-pizza-company-portland?adjust_creative=a2JdNtFqB-C38ga_06BHvw&utm_campaign=yelp_api_v3&utm_medium=api_v3_business_search&utm_source=a2JdNtFqB-C38ga_06BHvw", "review_count": 107, "categories": [{"alias": "pizza", "title": "Pizza"}, {"alias": "sportsbars", "title": "Sports Bars"}], "rating": 3.0, "coordinates": {"latitude": 45.52644, "longitude": -122.69473}, "transactions": ["delivery", "pickup"], "price": "$", "location": {"address1": "501 NW 21st Ave", "address2": "", "address3": "", "city": "Portland", "zip_code": "97209", "country": "US", "state": "OR", "display_address": ["501 NW 21st Ave", "Portland, OR 97209"]}, "phone": "+15032271103", "display_phone": "(503) 227-1103", "distance": 2261.2327202715524}, {"id": "SxonYBIknYmynmeJjXArjw", "alias": "gol-portland", "name": "Gol", "image_url": "https://s3-media3.fl.yelpcdn.com/bphoto/Bu83pIaz0rf-624iXnjeig/o.jpg", "is_closed": false, "url": "https://www.yelp.com/biz/gol-portland?adjust_creative=a2JdNtFqB-C38ga_06BHvw&utm_campaign=yelp_api_v3&utm_medium=api_v3_business_search&utm_source=a2JdNtFqB-C38ga_06BHvw", "review_count": 8, "categories": [{"alias": "sportsbars", "title": "Sports Bars"}, {"alias": "latin", "title": "Latin American"}, {"alias": "football", "title": "Soccer"}], "rating": 4.5, "coordinates": {"latitude": 45.51232, "longitude": -122.64775}, "transactions": ["delivery", "pickup"], "location": {"address1": "1739 SE Hawthorne Blvd", "address2": null, "address3": "", "city": "Portland", "zip_code": "97214", "country": "US", "state": "OR", "display_address": ["1739 SE Hawthorne Blvd", "Portland, OR 97214"]}, "phone": "+15032065664", "display_phone": "(503) 206-5664", "distance": 2609.576823993118}, {"id": "eclgq5hlm4BxiYeGUPURrg", "alias": "nightingale-portland", "name": "Nightingale", "image_url": "https://s3-media4.fl.yelpcdn.com/bphoto/69Qk67gJQlB-iG-PTMs6fw/o.jpg", "is_closed": false, "url": "https://www.yelp.com/biz/nightingale-portland?adjust_creative=a2JdNtFqB-C38ga_06BHvw&utm_campaign=yelp_api_v3&utm_medium=api_v3_business_search&utm_source=a2JdNtFqB-C38ga_06BHvw", "review_count": 7, "categories": [{"alias": "mexican", "title": "Mexican"}, {"alias": "cocktailbars", "title": "Cocktail Bars"}], "rating": 4.5, "coordinates": {"latitude": 45.52325, "longitude": -122.63701}, "transactions": [], "location": {"address1": "18 NE 28th Ave", "address2": null, "address3": null, "city": "Portland", "zip_code": "97232", "country": "US", "state": "OR", "display_address": ["18 NE 28th Ave", "Portland, OR 97232"]}, "phone": "+19712549017", "display_phone": "(971) 254-9017", "distance": 2491.5405390256883}, {"id": "8KvWLxjNN9lVw2lY1xJG7w", "alias": "opal-portland-5", "name": "Opal", "image_url": "https://s3-media4.fl.yelpcdn.com/bphoto/6BRHaPQRiBd82Cceu7hlDg/o.jpg", "is_closed": false, "url": "https://www.yelp.com/biz/opal-portland-5?adjust_creative=a2JdNtFqB-C38ga_06BHvw&utm_campaign=yelp_api_v3&utm_medium=api_v3_business_search&utm_source=a2JdNtFqB-C38ga_06BHvw", "review_count": 32, "categories": [{"alias": "cocktailbars", "title": "Cocktail Bars"}, {"alias": "newamerican", "title": "American (New)"}, {"alias": "breakfast_brunch", "title": "Breakfast & Brunch"}], "rating": 3.0, "coordinates": {"latitude": 45.5201134, "longitude": -122.6800882}, "transactions": ["delivery"], "price": "$$", "location": {"address1": "750 SW Alder St", "address2": "", "address3": null, "city": "Portland", "zip_code": "97205", "country": "US", "state": "OR", "display_address": ["750 SW Alder St", "Portland, OR 97205"]}, "phone": "+15032949000", "display_phone": "(503) 294-9000", "distance": 1656.3799598582302}, {"id": "8cBHlU_EinqyAld1aAeNPA", "alias": "buffalo-wild-wings-portland-3", "name": "Buffalo Wild Wings", "image_url": "https://s3-media2.fl.yelpcdn.com/bphoto/MF-QCcBZ56fNTedgyuSsGA/o.jpg", "is_closed": false, "url": "https://www.yelp.com/biz/buffalo-wild-wings-portland-3?adjust_creative=a2JdNtFqB-C38ga_06BHvw&utm_campaign=yelp_api_v3&utm_medium=api_v3_business_search&utm_source=a2JdNtFqB-C38ga_06BHvw", "review_count": 112, "categories": [{"alias": "tradamerican", "title": "American (Traditional)"}, {"alias": "sportsbars", "title": "Sports Bars"}, {"alias": "chicken_wings", "title": "Chicken Wings"}], "rating": 2.5, "coordinates": {"latitude": 45.5346529249594, "longitude": -122.652912139893}, "transactions": ["delivery", "pickup"], "price": "$$", "location": {"address1": "1200 NE Broadway St", "address2": "Ste 20", "address3": "", "city": "Portland", "zip_code": "97232", "country": "US", "state": "OR", "display_address": ["1200 NE Broadway St", "Ste 20", "Portland, OR 97232"]}, "phone": "+15034328179", "display_phone": "(503) 432-8179", "distance": 1121.6540755670235}, {"id": "jeCCdvg-DwoWqdiIwks8eg", "alias": "raven-s-manor-portland", "name": "Ravens Manor", "image_url": "https://s3-media3.fl.yelpcdn.com/bphoto/ZpwamjSrKxIf0rEliPW7Bg/o.jpg", "is_closed": false, "url": "https://www.yelp.com/biz/raven-s-manor-portland?adjust_creative=a2JdNtFqB-C38ga_06BHvw&utm_campaign=yelp_api_v3&utm_medium=api_v3_business_search&utm_source=a2JdNtFqB-C38ga_06BHvw", "review_count": 6, "categories": [{"alias": "cocktailbars", "title": "Cocktail Bars"}, {"alias": "themedcafes", "title": "Themed Cafes"}], "rating": 4.5, "coordinates": {"latitude": 45.52085614796835, "longitude": -122.672195013046}, "transactions": [], "location": {"address1": "235 SW 1st Ave", "address2": "", "address3": null, "city": "Portland", "zip_code": "97204", "country": "US", "state": "OR", "display_address": ["235 SW 1st Ave", "Portland, OR 97204"]}, "phone": "+19713196182", "display_phone": "(971) 319-6182", "distance": 1276.9178476300942}, {"id": "WMUCB1_ZDBmvZ5inptTCjg", "alias": "pizza-schmizza-pub-and-grub-portland-6", "name": "Pizza Schmizza Pub & Grub", "image_url": "https://s3-media1.fl.yelpcdn.com/bphoto/JX05Vy1_fuwfv9dDXqqHLg/o.jpg", "is_closed": false, "url": "https://www.yelp.com/biz/pizza-schmizza-pub-and-grub-portland-6?adjust_creative=a2JdNtFqB-C38ga_06BHvw&utm_campaign=yelp_api_v3&utm_medium=api_v3_business_search&utm_source=a2JdNtFqB-C38ga_06BHvw", "review_count": 80, "categories": [{"alias": "pizza", "title": "Pizza"}, {"alias": "sportsbars", "title": "Sports Bars"}], "rating": 2.5, "coordinates": {"latitude": 45.534896, "longitude": -122.658907}, "transactions": ["delivery"], "price": "$", "location": {"address1": "628 NE Broadway", "address2": "", "address3": "", "city": "Portland", "zip_code": "97232", "country": "US", "state": "OR", "display_address": ["628 NE Broadway", "Portland, OR 97232"]}, "phone": "+15035179981", "display_phone": "(503) 517-9981", "distance": 704.7224300783196}, {"id": "RqvoPzqXdPcXyhD6rbo5RQ", "alias": "the-aimsir-distilling-company-portland", "name": "The Aimsir Distilling Company", "image_url": "https://s3-media4.fl.yelpcdn.com/bphoto/MGq9sUJl-qesVfORkYe-FA/o.jpg", "is_closed": false, "url": "https://www.yelp.com/biz/the-aimsir-distilling-company-portland?adjust_creative=a2JdNtFqB-C38ga_06BHvw&utm_campaign=yelp_api_v3&utm_medium=api_v3_business_search&utm_source=a2JdNtFqB-C38ga_06BHvw", "review_count": 3, "categories": [{"alias": "distilleries", "title": "Distilleries"}, {"alias": "newamerican", "title": "American (New)"}, {"alias": "cocktailbars", "title": "Cocktail Bars"}], "rating": 5.0, "coordinates": {"latitude": 45.52883, "longitude": -122.64399}, "transactions": [], "location": {"address1": "2117 NE Oregon St Suite 202 Portland Or 97232", "address2": null, "address3": "", "city": "Portland", "zip_code": "97232", "country": "US", "state": "OR", "display_address": ["2117 NE Oregon St Suite 202 Portland Or 97232", "Portland, OR 97232"]}, "phone": "+19712131085", "display_phone": "(971) 213-1085", "distance": 1796.3836797171125}, {"id": "8KbqLn01Y-eSMqhOCUaTsw", "alias": "lobby-by-lechon-portland", "name": "Lobby By Lechon", "image_url": "https://s3-media1.fl.yelpcdn.com/bphoto/IWLs5u-19ffJHNdxhK7rTw/o.jpg", "is_closed": false, "url": "https://www.yelp.com/biz/lobby-by-lechon-portland?adjust_creative=a2JdNtFqB-C38ga_06BHvw&utm_campaign=yelp_api_v3&utm_medium=api_v3_business_search&utm_source=a2JdNtFqB-C38ga_06BHvw", "review_count": 4, "categories": [{"alias": "cocktailbars", "title": "Cocktail Bars"}, {"alias": "tapasmallplates", "title": "Tapas/Small Plates"}], "rating": 4.5, "coordinates": {"latitude": 45.5208981882449, "longitude": -122.671454994849}, "transactions": [], "location": {"address1": "50 SW Pine St", "address2": "Ste 101", "address3": null, "city": "Portland", "zip_code": "97204", "country": "US", "state": "OR", "display_address": ["50 SW Pine St", "Ste 101", "Portland, OR 97204"]}, "phone": "+15039461909", "display_phone": "(503) 946-1909", "distance": 1254.1827053132301}, {"id": "B5kUG27On-uVAzCkaNw1UQ", "alias": "migration-brewing-burger-shack-portland-2", "name": "Migration Brewing Burger Shack", "image_url": "https://s3-media1.fl.yelpcdn.com/bphoto/crcVy1NfN_s_QcMOErI6mw/o.jpg", "is_closed": false, "url": "https://www.yelp.com/biz/migration-brewing-burger-shack-portland-2?adjust_creative=a2JdNtFqB-C38ga_06BHvw&utm_campaign=yelp_api_v3&utm_medium=api_v3_business_search&utm_source=a2JdNtFqB-C38ga_06BHvw", "review_count": 13, "categories": [{"alias": "burgers", "title": "Burgers"}, {"alias": "pubs", "title": "Pubs"}], "rating": 3.0, "coordinates": {"latitude": 45.5329062925852, "longitude": -122.654018551111}, "transactions": ["delivery"], "location": {"address1": "2201 Lloyd Ctr", "address2": "", "address3": null, "city": "Portland", "zip_code": "97232", "country": "US", "state": "OR", "display_address": ["2201 Lloyd Ctr", "Portland, OR 97232"]}, "phone": "+15032067347", "display_phone": "(503) 206-7347", "distance": 994.8131922906932}, {"id": "VHt_e4WQra2SG6J891u1iw", "alias": "h-bar-portland", "name": "H Bar", "image_url": "https://s3-media3.fl.yelpcdn.com/bphoto/Shsy_fLVIKX1IMzwMSEwnQ/o.jpg", "is_closed": false, "url": "https://www.yelp.com/biz/h-bar-portland?adjust_creative=a2JdNtFqB-C38ga_06BHvw&utm_campaign=yelp_api_v3&utm_medium=api_v3_business_search&utm_source=a2JdNtFqB-C38ga_06BHvw", "review_count": 1, "categories": [{"alias": "tapasmallplates", "title": "Tapas/Small Plates"}, {"alias": "cocktailbars", "title": "Cocktail Bars"}, {"alias": "korean", "title": "Korean"}], "rating": 5.0, "coordinates": {"latitude": 45.5074391, "longitude": -122.6739058}, "transactions": [], "location": {"address1": "2080 SW River Dr", "address2": "", "address3": "Hyatt House Portland/Downtown", "city": "Portland", "zip_code": "97201", "country": "US", "state": "OR", "display_address": ["2080 SW River Dr", "Hyatt House Portland/Downtown", "Portland, OR 97201"]}, "phone": "", "display_phone": "", "distance": 2752.4164349997563}, {"id": "t0sszulG73ArLGVh4DnoTQ", "alias": "lady-of-the-mountain-portland-2", "name": "Lady of the Mountain", "image_url": "https://s3-media2.fl.yelpcdn.com/bphoto/RSUBkQgmYtJ-PDZAnDaMcQ/o.jpg", "is_closed": false, "url": "https://www.yelp.com/biz/lady-of-the-mountain-portland-2?adjust_creative=a2JdNtFqB-C38ga_06BHvw&utm_campaign=yelp_api_v3&utm_medium=api_v3_business_search&utm_source=a2JdNtFqB-C38ga_06BHvw", "review_count": 1, "categories": [{"alias": "cocktailbars", "title": "Cocktail Bars"}, {"alias": "breakfast_brunch", "title": "Breakfast & Brunch"}], "rating": 5.0, "coordinates": {"latitude": 45.523817, "longitude": -122.661405}, "transactions": [], "location": {"address1": "100 NE Martin Luther King Jr Blvd", "address2": "", "address3": null, "city": "Portland", "zip_code": "97232", "country": "US", "state": "OR", "display_address": ["100 NE Martin Luther King Jr Blvd", "Portland, OR 97232"]}, "phone": "+19713462992", "display_phone": "(971) 346-2992", "distance": 959.1095810030909}, {"id": "LcdqVu5urY55PNnWEwLNXQ", "alias": "boxwood-cafe-portland", "name": "Boxwood Cafe", "image_url": "https://s3-media1.fl.yelpcdn.com/bphoto/ErmnUIZYammr95ouZJyjvA/o.jpg", "is_closed": false, "url": "https://www.yelp.com/biz/boxwood-cafe-portland?adjust_creative=a2JdNtFqB-C38ga_06BHvw&utm_campaign=yelp_api_v3&utm_medium=api_v3_business_search&utm_source=a2JdNtFqB-C38ga_06BHvw", "review_count": 1, "categories": [{"alias": "wine_bars", "title": "Wine Bars"}, {"alias": "breakfast_brunch", "title": "Breakfast & Brunch"}, {"alias": "pizza", "title": "Pizza"}], "rating": 4.0, "coordinates": {"latitude": 45.53371, "longitude": -122.66443}, "transactions": [], "location": {"address1": "1441 NE 2nd Ave", "address2": "", "address3": null, "city": "Portland", "zip_code": "97232", "country": "US", "state": "OR", "display_address": ["1441 NE 2nd Ave", "Portland, OR 97232"]}, "phone": "", "display_phone": "", "distance": 282.4635726725131}], "absolute total": 144, "total": 144}