{"league": "MLS", "team": "Real Salt Lake", "stadium": "Rio Tinto Stadium", "stadium latitude": 40.582923, "stadium longitude": -111.893156, "radius": "3000 meters", "city": "Sandy", "state": "Utah", "businesses": [{"id": "6sYL0H_J0U-FhsPJA5jGIw", "alias": "slackwater-sandy", "name": "Slackwater", "image_url": "https://s3-media2.fl.yelpcdn.com/bphoto/zMtpFgSDgKURRcTjfvfNDw/o.jpg", "is_closed": false, "url": "https://www.yelp.com/biz/slackwater-sandy?adjust_creative=a2JdNtFqB-C38ga_06BHvw&utm_campaign=yelp_api_v3&utm_medium=api_v3_business_search&utm_source=a2JdNtFqB-C38ga_06BHvw", "review_count": 383, "categories": [{"alias": "pizza", "title": "Pizza"}, {"alias": "beerbar", "title": "Beer Bar"}, {"alias": "pubs", "title": "Pubs"}], "rating": 4.5, "coordinates": {"latitude": 40.564504, "longitude": -111.892005}, "transactions": ["restaurant_reservation", "delivery"], "price": "$$", "location": {"address1": "10290 State St", "address2": "", "address3": null, "city": "Sandy", "zip_code": "84070", "country": "US", "state": "UT", "display_address": ["10290 State St", "Sandy, UT 84070"]}, "phone": "+18019305147", "display_phone": "(801) 930-5147", "distance": 2058.640928495224}, {"id": "2xPX6SM1vIlX1YZAiwX3gQ", "alias": "so-grill-korean-bbq-and-sushi-sandy-2", "name": "So Grill Korean BBQ and Sushi", "image_url": "https://s3-media2.fl.yelpcdn.com/bphoto/6Xpy6Ym6LvRVoHJW7T83Vg/o.jpg", "is_closed": false, "url": "https://www.yelp.com/biz/so-grill-korean-bbq-and-sushi-sandy-2?adjust_creative=a2JdNtFqB-C38ga_06BHvw&utm_campaign=yelp_api_v3&utm_medium=api_v3_business_search&utm_source=a2JdNtFqB-C38ga_06BHvw", "review_count": 121, "categories": [{"alias": "korean", "title": "Korean"}, {"alias": "sushi", "title": "Sushi Bars"}, {"alias": "cocktailbars", "title": "Cocktail Bars"}], "rating": 4.0, "coordinates": {"latitude": 40.587823, "longitude": -111.894581}, "transactions": ["delivery", "pickup"], "price": "$$", "location": {"address1": "109 W 9000th S", "address2": "", "address3": null, "city": "Sandy", "zip_code": "84070", "country": "US", "state": "UT", "display_address": ["109 W 9000th S", "Sandy, UT 84070"]}, "phone": "+18015660721", "display_phone": "(801) 566-0721", "distance": 557.9847102170769}, {"id": "v7gT3CvhRsdKLYMXlcaWrA", "alias": "a-bar-named-sue-on-state-midvale", "name": "A Bar Named Sue On State", "image_url": "https://s3-media2.fl.yelpcdn.com/bphoto/sK7nrVtSX_j1dPUcyKmCKw/o.jpg", "is_closed": false, "url": "https://www.yelp.com/biz/a-bar-named-sue-on-state-midvale?adjust_creative=a2JdNtFqB-C38ga_06BHvw&utm_campaign=yelp_api_v3&utm_medium=api_v3_business_search&utm_source=a2JdNtFqB-C38ga_06BHvw", "review_count": 72, "categories": [{"alias": "sportsbars", "title": "Sports Bars"}, {"alias": "burgers", "title": "Burgers"}], "rating": 3.5, "coordinates": {"latitude": 40.603802, "longitude": -111.891234}, "transactions": ["delivery"], "price": "$$", "location": {"address1": "8136 S State St", "address2": "", "address3": "", "city": "Midvale", "zip_code": "84047", "country": "US", "state": "UT", "display_address": ["8136 S State St", "Midvale, UT 84047"]}, "phone": "+18015663222", "display_phone": "(801) 566-3222", "distance": 2327.301328616147}, {"id": "lDHozV5T1I0p4uA0m0u3Kw", "alias": "legends-pub-and-grill-southtown-sandy-3", "name": "Legends Pub & Grill Southtown", "image_url": "https://s3-media2.fl.yelpcdn.com/bphoto/5CJ0Wj0blY7sk6oNEiRjWQ/o.jpg", "is_closed": false, "url": "https://www.yelp.com/biz/legends-pub-and-grill-southtown-sandy-3?adjust_creative=a2JdNtFqB-C38ga_06BHvw&utm_campaign=yelp_api_v3&utm_medium=api_v3_business_search&utm_source=a2JdNtFqB-C38ga_06BHvw", "review_count": 22, "categories": [{"alias": "pubs", "title": "Pubs"}, {"alias": "burgers", "title": "Burgers"}, {"alias": "tradamerican", "title": "American (Traditional)"}], "rating": 4.0, "coordinates": {"latitude": 40.558136722, "longitude": -111.8952852}, "transactions": ["delivery"], "location": {"address1": "10631 S Holliday Park Dr", "address2": null, "address3": "", "city": "Sandy", "zip_code": "84070", "country": "US", "state": "UT", "display_address": ["10631 S Holliday Park Dr", "Sandy, UT 84070"]}, "phone": "+18016791749", "display_phone": "(801) 679-1749", "distance": 2761.966570332075}, {"id": "tdU66MVCWoiUydaOtqpZWg", "alias": "legends-sports-pub-sandy", "name": "Legends Sports Pub", "image_url": "https://s3-media3.fl.yelpcdn.com/bphoto/7P4NzkempTGXqbhhwpYFAg/o.jpg", "is_closed": false, "url": "https://www.yelp.com/biz/legends-sports-pub-sandy?adjust_creative=a2JdNtFqB-C38ga_06BHvw&utm_campaign=yelp_api_v3&utm_medium=api_v3_business_search&utm_source=a2JdNtFqB-C38ga_06BHvw", "review_count": 31, "categories": [{"alias": "pizza", "title": "Pizza"}, {"alias": "burgers", "title": "Burgers"}, {"alias": "pubs", "title": "Pubs"}], "rating": 3.5, "coordinates": {"latitude": 40.558112, "longitude": -111.895277}, "transactions": [], "price": "$$", "location": {"address1": "10631 Holiday Park Dr", "address2": "", "address3": null, "city": "Sandy", "zip_code": "84070", "country": "US", "state": "UT", "display_address": ["10631 Holiday Park Dr", "Sandy, UT 84070"]}, "phone": "", "display_phone": "", "distance": 2766.851222282142}, {"id": "cIBNyfJ1TB-iJCT__3j5UQ", "alias": "bout-time-pub-and-grub-sandy", "name": "Bout Time Pub & Grub", "image_url": "", "is_closed": false, "url": "https://www.yelp.com/biz/bout-time-pub-and-grub-sandy?adjust_creative=a2JdNtFqB-C38ga_06BHvw&utm_campaign=yelp_api_v3&utm_medium=api_v3_business_search&utm_source=a2JdNtFqB-C38ga_06BHvw", "review_count": 1, "categories": [{"alias": "sportsbars", "title": "Sports Bars"}, {"alias": "pubs", "title": "Pubs"}, {"alias": "newamerican", "title": "American (New)"}], "rating": 2.0, "coordinates": {"latitude": 40.5587351, "longitude": -111.8916576}, "transactions": [], "location": {"address1": "31 W 10600 S", "address2": "Ste 35", "address3": "", "city": "Sandy", "zip_code": "84070", "country": "US", "state": "UT", "display_address": ["31 W 10600 S", "Ste 35", "Sandy, UT 84070"]}, "phone": "+13852757056", "display_phone": "(385) 275-7056", "distance": 2708.2610402108985}], "absolute total": 6, "total": 6}