{"league": "NBA", "team": "San Antonio Spurs", "stadium": "AT&T Center", "stadium latitude": 29.426944, "stadium longitude": -98.4375, "radius": "3000 meters", "city": "San Antonio", "state": "Texas", "businesses": [{"id": "oQjuMrN6jRORGc5OTFwE-Q", "alias": "cerveceria-88-san-antonio", "name": "Cerveceria 88", "image_url": "https://s3-media3.fl.yelpcdn.com/bphoto/Gsvzx25w74CMAwW4aUBn4g/o.jpg", "is_closed": false, "url": "https://www.yelp.com/biz/cerveceria-88-san-antonio?adjust_creative=a2JdNtFqB-C38ga_06BHvw&utm_campaign=yelp_api_v3&utm_medium=api_v3_business_search&utm_source=a2JdNtFqB-C38ga_06BHvw", "review_count": 13, "categories": [{"alias": "tacos", "title": "Tacos"}, {"alias": "chicken_wings", "title": "Chicken Wings"}, {"alias": "cocktailbars", "title": "Cocktail Bars"}], "rating": 3.5, "coordinates": {"latitude": 29.439271, "longitude": -98.462246}, "transactions": ["delivery"], "location": {"address1": "2119 I-35", "address2": null, "address3": "", "city": "San Antonio", "zip_code": "78208", "country": "US", "state": "TX", "display_address": ["2119 I-35", "San Antonio, TX 78208"]}, "phone": "+12108881481", "display_phone": "(210) 888-1481", "distance": 2765.731461251243}, {"id": "a9AB_uyVS6prQVNgbQWh6A", "alias": "la-gloria-at-the-at-and-t-center-san-antonio", "name": "La Gloria at the AT&T Center", "image_url": "https://s3-media2.fl.yelpcdn.com/bphoto/6I1F-1RIM7LUpSBlmzASYw/o.jpg", "is_closed": false, "url": "https://www.yelp.com/biz/la-gloria-at-the-at-and-t-center-san-antonio?adjust_creative=a2JdNtFqB-C38ga_06BHvw&utm_campaign=yelp_api_v3&utm_medium=api_v3_business_search&utm_source=a2JdNtFqB-C38ga_06BHvw", "review_count": 6, "categories": [{"alias": "tacos", "title": "Tacos"}, {"alias": "cocktailbars", "title": "Cocktail Bars"}], "rating": 3.0, "coordinates": {"latitude": 29.427072459261, "longitude": -98.4374436736107}, "transactions": [], "location": {"address1": "1 Att Center Pkwy", "address2": "", "address3": null, "city": "San Antonio", "zip_code": "78219", "country": "US", "state": "TX", "display_address": ["1 Att Center Pkwy", "San Antonio, TX 78219"]}, "phone": "", "display_phone": "", "distance": 15.290233836281537}], "absolute total": 2, "total": 2}