{"league": "MLS", "team": "Sporting Kansas City", "stadium": "Children's Mercy Park", "stadium latitude": 39.1214, "stadium longitude": -94.821, "radius": "3000 meters", "city": "Kansas City", "state": "Kansas", "businesses": [{"id": "7hmP2KnYnbh86mBabKV8iw", "alias": "dannys-bar-and-grill-kansas-city", "name": "Danny's Bar & Grill", "image_url": "https://s3-media2.fl.yelpcdn.com/bphoto/RQ0kH-I2BdhMvfM7zQta6Q/o.jpg", "is_closed": false, "url": "https://www.yelp.com/biz/dannys-bar-and-grill-kansas-city?adjust_creative=a2JdNtFqB-C38ga_06BHvw&utm_campaign=yelp_api_v3&utm_medium=api_v3_business_search&utm_source=a2JdNtFqB-C38ga_06BHvw", "review_count": 77, "categories": [{"alias": "tradamerican", "title": "American (Traditional)"}, {"alias": "sportsbars", "title": "Sports Bars"}, {"alias": "sandwiches", "title": "Sandwiches"}], "rating": 3.0, "coordinates": {"latitude": 39.129818, "longitude": -94.83403}, "transactions": ["delivery"], "price": "$$", "location": {"address1": "10940 Parallel Pkwy", "address2": "Ste Q", "address3": "", "city": "Kansas City", "zip_code": "66109", "country": "US", "state": "KS", "display_address": ["10940 Parallel Pkwy", "Ste Q", "Kansas City, KS 66109"]}, "phone": "+19133280247", "display_phone": "(913) 328-0247", "distance": 1462.7026410014873}, {"id": "CDb3432e98gvSsYkqmoXig", "alias": "turn-2-sports-bar-and-restaurant-kansas-city-2", "name": "Turn 2 Sports Bar & Restaurant", "image_url": "https://s3-media3.fl.yelpcdn.com/bphoto/Fm2QSpkq0Vd1nDktDd-8Ww/o.jpg", "is_closed": false, "url": "https://www.yelp.com/biz/turn-2-sports-bar-and-restaurant-kansas-city-2?adjust_creative=a2JdNtFqB-C38ga_06BHvw&utm_campaign=yelp_api_v3&utm_medium=api_v3_business_search&utm_source=a2JdNtFqB-C38ga_06BHvw", "review_count": 31, "categories": [{"alias": "sportsbars", "title": "Sports Bars"}, {"alias": "newamerican", "title": "American (New)"}], "rating": 3.0, "coordinates": {"latitude": 39.1119320682069, "longitude": -94.8276168412485}, "transactions": ["delivery"], "price": "$$", "location": {"address1": "777 Hollywood Casino Blvd", "address2": "", "address3": "", "city": "Kansas City", "zip_code": "66111", "country": "US", "state": "KS", "display_address": ["777 Hollywood Casino Blvd", "Kansas City, KS 66111"]}, "phone": "+19132879768", "display_phone": "(913) 287-9768", "distance": 1197.5904487147059}, {"id": "Da9P6KsDOzNdU91zaGtdRg", "alias": "hooters-kansas-city", "name": "Hooters", "image_url": "https://s3-media1.fl.yelpcdn.com/bphoto/yTyt0x5GuJbQcclqjMf8rw/o.jpg", "is_closed": false, "url": "https://www.yelp.com/biz/hooters-kansas-city?adjust_creative=a2JdNtFqB-C38ga_06BHvw&utm_campaign=yelp_api_v3&utm_medium=api_v3_business_search&utm_source=a2JdNtFqB-C38ga_06BHvw", "review_count": 49, "categories": [{"alias": "sportsbars", "title": "Sports Bars"}, {"alias": "tradamerican", "title": "American (Traditional)"}, {"alias": "chicken_wings", "title": "Chicken Wings"}], "rating": 2.0, "coordinates": {"latitude": 39.1242233184704, "longitude": -94.8283904393888}, "transactions": ["pickup", "delivery"], "price": "$$", "location": {"address1": "1712 Village West Pkwy", "address2": null, "address3": null, "city": "Kansas City", "zip_code": "66111", "country": "US", "state": "KS", "display_address": ["1712 Village West Pkwy", "Kansas City, KS 66111"]}, "phone": "+19137884668", "display_phone": "(913) 788-4668", "distance": 710.6364081264064}, {"id": "vN_zqzEbDaMlbjqOPJyxJw", "alias": "applebees-grill-bar-kansas-city-2", "name": "Applebee's Grill + Bar", "image_url": "https://s3-media4.fl.yelpcdn.com/bphoto/IxaeZpQcGE-jbqCQkEefQw/o.jpg", "is_closed": false, "url": "https://www.yelp.com/biz/applebees-grill-bar-kansas-city-2?adjust_creative=a2JdNtFqB-C38ga_06BHvw&utm_campaign=yelp_api_v3&utm_medium=api_v3_business_search&utm_source=a2JdNtFqB-C38ga_06BHvw", "review_count": 61, "categories": [{"alias": "tradamerican", "title": "American (Traditional)"}, {"alias": "sportsbars", "title": "Sports Bars"}, {"alias": "burgers", "title": "Burgers"}], "rating": 2.0, "coordinates": {"latitude": 39.1233, "longitude": -94.8251}, "transactions": [], "price": "$$", "location": {"address1": "1700 Village West Pkwy", "address2": "", "address3": "", "city": "Kansas City", "zip_code": "66109", "country": "US", "state": "KS", "display_address": ["1700 Village West Pkwy", "Kansas City, KS 66109"]}, "phone": "+19137889421", "display_phone": "(913) 788-9421", "distance": 411.9819248134568}], "absolute total": 4, "total": 4}