{"league": "MLS", "team": "Toronto FC", "stadium": "BMO Field", "stadium latitude": 43.632778, "stadium longitude": -79.418611, "radius": "3000 meters", "city": "Toronto", "state": "Ontario", "businesses": [{"id": "zEwQJl9haP5BYIl0peOpGA", "alias": "sugo-toronto", "name": "Sugo", "image_url": "https://s3-media2.fl.yelpcdn.com/bphoto/5Fykw9wrpkmmK4kth_a26w/o.jpg", "is_closed": false, "url": "https://www.yelp.com/biz/sugo-toronto?adjust_creative=a2JdNtFqB-C38ga_06BHvw&utm_campaign=yelp_api_v3&utm_medium=api_v3_business_search&utm_source=a2JdNtFqB-C38ga_06BHvw", "review_count": 188, "categories": [{"alias": "italian", "title": "Italian"}, {"alias": "sandwiches", "title": "Sandwiches"}, {"alias": "cocktailbars", "title": "Cocktail Bars"}], "rating": 4.5, "coordinates": {"latitude": 43.65831, "longitude": -79.44223}, "transactions": [], "price": "$$", "location": {"address1": "1279 Bloor Street  W", "address2": "", "address3": null, "city": "Toronto", "zip_code": "M6H 3Y2", "country": "CA", "state": "ON", "display_address": ["1279 Bloor Street  W", "Toronto, ON M6H 3Y2", "Canada"]}, "phone": "+14165351717", "display_phone": "+1 416-535-1717", "distance": 3408.733604186165}, {"id": "Da6eZFThE9xanUAGNpZxAg", "alias": "nuit-social-toronto-2", "name": "Nuit Social", "image_url": "https://s3-media2.fl.yelpcdn.com/bphoto/VYWHduhGX642nBUYc2G13g/o.jpg", "is_closed": false, "url": "https://www.yelp.com/biz/nuit-social-toronto-2?adjust_creative=a2JdNtFqB-C38ga_06BHvw&utm_campaign=yelp_api_v3&utm_medium=api_v3_business_search&utm_source=a2JdNtFqB-C38ga_06BHvw", "review_count": 207, "categories": [{"alias": "cocktailbars", "title": "Cocktail Bars"}, {"alias": "modern_european", "title": "Modern European"}, {"alias": "newcanadian", "title": "Canadian (New)"}], "rating": 4.5, "coordinates": {"latitude": 43.64303, "longitude": -79.42542}, "transactions": [], "price": "$$", "location": {"address1": "1168 Queen Street W", "address2": "", "address3": "", "city": "Toronto", "zip_code": "M6J 1J5", "country": "CA", "state": "ON", "display_address": ["1168 Queen Street W", "Toronto, ON M6J 1J5", "Canada"]}, "phone": "+16473506848", "display_phone": "+1 647-350-6848", "distance": 1257.697985002608}, {"id": "jOqh0eVjqtUOpZ9AZgSazA", "alias": "grey-gardens-toronto", "name": "Grey Gardens", "image_url": "https://s3-media2.fl.yelpcdn.com/bphoto/zppuNZ_XTk7i4Kz9ZESSoA/o.jpg", "is_closed": false, "url": "https://www.yelp.com/biz/grey-gardens-toronto?adjust_creative=a2JdNtFqB-C38ga_06BHvw&utm_campaign=yelp_api_v3&utm_medium=api_v3_business_search&utm_source=a2JdNtFqB-C38ga_06BHvw", "review_count": 95, "categories": [{"alias": "wine_bars", "title": "Wine Bars"}, {"alias": "newcanadian", "title": "Canadian (New)"}], "rating": 4.5, "coordinates": {"latitude": 43.6537999, "longitude": -79.40143}, "transactions": [], "price": "$$$", "location": {"address1": "199 Augusta Avenue", "address2": "", "address3": null, "city": "Toronto", "zip_code": "M5T 2L4", "country": "CA", "state": "ON", "display_address": ["199 Augusta Avenue", "Toronto, ON M5T 2L4", "Canada"]}, "phone": "+16473511552", "display_phone": "+1 647-351-1552", "distance": 2714.423140884122}, {"id": "imDp2s4TANwV39FfYXTAEA", "alias": "bar-sybanne-toronto", "name": "Bar Sybanne", "image_url": "https://s3-media3.fl.yelpcdn.com/bphoto/xa0k4J6Owp_ySuKDnJPxCQ/o.jpg", "is_closed": false, "url": "https://www.yelp.com/biz/bar-sybanne-toronto?adjust_creative=a2JdNtFqB-C38ga_06BHvw&utm_campaign=yelp_api_v3&utm_medium=api_v3_business_search&utm_source=a2JdNtFqB-C38ga_06BHvw", "review_count": 81, "categories": [{"alias": "mediterranean", "title": "Mediterranean"}, {"alias": "cocktailbars", "title": "Cocktail Bars"}, {"alias": "beerbar", "title": "Beer Bar"}], "rating": 4.5, "coordinates": {"latitude": 43.64913, "longitude": -79.42028}, "transactions": [], "price": "$$$", "location": {"address1": "229 Ossington Avenue", "address2": null, "address3": "", "city": "Toronto", "zip_code": "M6J 2Z8", "country": "CA", "state": "ON", "display_address": ["229 Ossington Avenue", "Toronto, ON M6J 2Z8", "Canada"]}, "phone": "+16473509229", "display_phone": "+1 647-350-9229", "distance": 1822.1618455276293}, {"id": "41o1FUbCYKJv2djtnlkzlg", "alias": "bar-raval-toronto", "name": "Bar Raval", "image_url": "https://s3-media4.fl.yelpcdn.com/bphoto/vSHLfEfdrQkJJi7mRk4VFw/o.jpg", "is_closed": false, "url": "https://www.yelp.com/biz/bar-raval-toronto?adjust_creative=a2JdNtFqB-C38ga_06BHvw&utm_campaign=yelp_api_v3&utm_medium=api_v3_business_search&utm_source=a2JdNtFqB-C38ga_06BHvw", "review_count": 274, "categories": [{"alias": "spanish", "title": "Spanish"}, {"alias": "tapasmallplates", "title": "Tapas/Small Plates"}, {"alias": "cocktailbars", "title": "Cocktail Bars"}], "rating": 4.0, "coordinates": {"latitude": 43.6558432, "longitude": -79.4099433}, "transactions": [], "price": "$$$", "location": {"address1": "505 College Street", "address2": "", "address3": "", "city": "Toronto", "zip_code": "M6G 2J3", "country": "CA", "state": "ON", "display_address": ["505 College Street", "Toronto, ON M6G 2J3", "Canada"]}, "phone": "+16473448001", "display_phone": "+1 647-344-8001", "distance": 2657.869692971854}, {"id": "FfJD4vO-iYUL2Kr0WWzNYg", "alias": "the-caledonian-toronto", "name": "The Caledonian", "image_url": "https://s3-media3.fl.yelpcdn.com/bphoto/BoBESiM7jwST0FiKN7TagA/o.jpg", "is_closed": false, "url": "https://www.yelp.com/biz/the-caledonian-toronto?adjust_creative=a2JdNtFqB-C38ga_06BHvw&utm_campaign=yelp_api_v3&utm_medium=api_v3_business_search&utm_source=a2JdNtFqB-C38ga_06BHvw", "review_count": 139, "categories": [{"alias": "pubs", "title": "Pubs"}, {"alias": "scottish", "title": "Scottish"}, {"alias": "whiskeybars", "title": "Whiskey Bars"}], "rating": 4.5, "coordinates": {"latitude": 43.65439, "longitude": -79.42355}, "transactions": [], "price": "$$", "location": {"address1": "856 College Street", "address2": "", "address3": "", "city": "Toronto", "zip_code": "M6H 1A2", "country": "CA", "state": "ON", "display_address": ["856 College Street", "Toronto, ON M6H 1A2", "Canada"]}, "phone": "+14165777472", "display_phone": "+1 416-577-7472", "distance": 2437.589671039219}, {"id": "4m_hApwQ054v3ue_OxFmGw", "alias": "patria-toronto", "name": "Patria", "image_url": "https://s3-media1.fl.yelpcdn.com/bphoto/mmysDgd5Dgn_RQKbiIyaiQ/o.jpg", "is_closed": false, "url": "https://www.yelp.com/biz/patria-toronto?adjust_creative=a2JdNtFqB-C38ga_06BHvw&utm_campaign=yelp_api_v3&utm_medium=api_v3_business_search&utm_source=a2JdNtFqB-C38ga_06BHvw", "review_count": 489, "categories": [{"alias": "spanish", "title": "Spanish"}, {"alias": "wine_bars", "title": "Wine Bars"}, {"alias": "tapas", "title": "Tapas Bars"}], "rating": 4.0, "coordinates": {"latitude": 43.6455399, "longitude": -79.39641}, "transactions": [], "price": "$$$", "location": {"address1": "480 King Street W", "address2": "", "address3": "", "city": "Toronto", "zip_code": "M5V 1L7", "country": "CA", "state": "ON", "display_address": ["480 King Street W", "Toronto, ON M5V 1L7", "Canada"]}, "phone": "+14163670505", "display_phone": "+1 416-367-0505", "distance": 2287.4507133724014}, {"id": "ZdaZwXC0FByDY3EwNELphw", "alias": "union-toronto-3", "name": "Union", "image_url": "https://s3-media3.fl.yelpcdn.com/bphoto/ZkoufqJYxiiIyCjpC4Bs2Q/o.jpg", "is_closed": false, "url": "https://www.yelp.com/biz/union-toronto-3?adjust_creative=a2JdNtFqB-C38ga_06BHvw&utm_campaign=yelp_api_v3&utm_medium=api_v3_business_search&utm_source=a2JdNtFqB-C38ga_06BHvw", "review_count": 214, "categories": [{"alias": "french", "title": "French"}, {"alias": "wine_bars", "title": "Wine Bars"}], "rating": 4.0, "coordinates": {"latitude": 43.64577, "longitude": -79.41974}, "transactions": [], "price": "$$$", "location": {"address1": "72A Ossington Avenue", "address2": "", "address3": "", "city": "Toronto", "zip_code": "M6J 2Y7", "country": "CA", "state": "ON", "display_address": ["72A Ossington Avenue", "Toronto, ON M6J 2Y7", "Canada"]}, "phone": "+14168500093", "display_phone": "+1 416-850-0093", "distance": 1452.657728082923}, {"id": "ydM0qCPG1cTZvAguCi2ucA", "alias": "rhum-corner-toronto", "name": "Rhum Corner", "image_url": "https://s3-media1.fl.yelpcdn.com/bphoto/A-Ju6gRfIWXUkvhjqq8ksA/o.jpg", "is_closed": false, "url": "https://www.yelp.com/biz/rhum-corner-toronto?adjust_creative=a2JdNtFqB-C38ga_06BHvw&utm_campaign=yelp_api_v3&utm_medium=api_v3_business_search&utm_source=a2JdNtFqB-C38ga_06BHvw", "review_count": 121, "categories": [{"alias": "caribbean", "title": "Caribbean"}, {"alias": "salad", "title": "Salad"}, {"alias": "cocktailbars", "title": "Cocktail Bars"}], "rating": 4.0, "coordinates": {"latitude": 43.6508775, "longitude": -79.4131316}, "transactions": [], "price": "$$", "location": {"address1": "926 Dundas Street W", "address2": "", "address3": "", "city": "Toronto", "zip_code": "M6J 1W3", "country": "CA", "state": "ON", "display_address": ["926 Dundas Street W", "Toronto, ON M6J 1W3", "Canada"]}, "phone": "+16473469356", "display_phone": "+1 647-346-9356", "distance": 2060.302724998214}, {"id": "yY3jNsrpCyKTqQuRuLV8gw", "alias": "cactus-club-cafe-toronto", "name": "Cactus Club Cafe", "image_url": "https://s3-media2.fl.yelpcdn.com/bphoto/dCfq3XGhw28HsQ2y09vq7w/o.jpg", "is_closed": false, "url": "https://www.yelp.com/biz/cactus-club-cafe-toronto?adjust_creative=a2JdNtFqB-C38ga_06BHvw&utm_campaign=yelp_api_v3&utm_medium=api_v3_business_search&utm_source=a2JdNtFqB-C38ga_06BHvw", "review_count": 521, "categories": [{"alias": "cocktailbars", "title": "Cocktail Bars"}, {"alias": "newcanadian", "title": "Canadian (New)"}], "rating": 4.0, "coordinates": {"latitude": 43.64950420768667, "longitude": -79.38251803088575}, "transactions": [], "price": "$$$", "location": {"address1": "77 Adelaide Street W", "address2": "", "address3": "", "city": "Toronto", "zip_code": "M5H 1P9", "country": "CA", "state": "ON", "display_address": ["77 Adelaide Street W", "Toronto, ON M5H 1P9", "Canada"]}, "phone": "+16477482025", "display_phone": "+1 647-748-2025", "distance": 3448.834129072834}, {"id": "exysqt4RqxkF9I8Z2NEUsQ", "alias": "king-taps-toronto", "name": "King Taps", "image_url": "https://s3-media1.fl.yelpcdn.com/bphoto/JRiO55G5umt5lsgvujj5FA/o.jpg", "is_closed": false, "url": "https://www.yelp.com/biz/king-taps-toronto?adjust_creative=a2JdNtFqB-C38ga_06BHvw&utm_campaign=yelp_api_v3&utm_medium=api_v3_business_search&utm_source=a2JdNtFqB-C38ga_06BHvw", "review_count": 297, "categories": [{"alias": "newcanadian", "title": "Canadian (New)"}, {"alias": "fooddeliveryservices", "title": "Food Delivery Services"}, {"alias": "cocktailbars", "title": "Cocktail Bars"}], "rating": 4.0, "coordinates": {"latitude": 43.6486379269, "longitude": -79.3817439}, "transactions": [], "price": "$$", "location": {"address1": "100 King Street W", "address2": "", "address3": null, "city": "Toronto", "zip_code": "M5X 1A9", "country": "CA", "state": "ON", "display_address": ["100 King Street W", "Toronto, ON M5X 1A9", "Canada"]}, "phone": "+16473612025", "display_phone": "+1 647-361-2025", "distance": 3451.2726636987463}, {"id": "qaNt4vtVdge_S68DVjw5Jg", "alias": "the-queen-and-beaver-public-house-toronto", "name": "The Queen And Beaver Public House", "image_url": "https://s3-media4.fl.yelpcdn.com/bphoto/lBy6hXN8EmBdWARQcGkZ5w/o.jpg", "is_closed": false, "url": "https://www.yelp.com/biz/the-queen-and-beaver-public-house-toronto?adjust_creative=a2JdNtFqB-C38ga_06BHvw&utm_campaign=yelp_api_v3&utm_medium=api_v3_business_search&utm_source=a2JdNtFqB-C38ga_06BHvw", "review_count": 381, "categories": [{"alias": "pubs", "title": "Pubs"}, {"alias": "british", "title": "British"}], "rating": 4.0, "coordinates": {"latitude": 43.65734, "longitude": -79.38334}, "transactions": [], "price": "$$", "location": {"address1": "35 Elm Street", "address2": "", "address3": "", "city": "Toronto", "zip_code": "M5G 1H1", "country": "CA", "state": "ON", "display_address": ["35 Elm Street", "Toronto, ON M5G 1H1", "Canada"]}, "phone": "+16473472712", "display_phone": "+1 647-347-2712", "distance": 3940.298862763076}, {"id": "_5izyrn1qV0uyec65UsdIA", "alias": "local-public-eatery-liberty-village-toronto", "name": "LOCAL Public Eatery - Liberty Village", "image_url": "https://s3-media1.fl.yelpcdn.com/bphoto/armEd6iumllyytYGrfrtbg/o.jpg", "is_closed": false, "url": "https://www.yelp.com/biz/local-public-eatery-liberty-village-toronto?adjust_creative=a2JdNtFqB-C38ga_06BHvw&utm_campaign=yelp_api_v3&utm_medium=api_v3_business_search&utm_source=a2JdNtFqB-C38ga_06BHvw", "review_count": 266, "categories": [{"alias": "sportsbars", "title": "Sports Bars"}, {"alias": "breakfast_brunch", "title": "Breakfast & Brunch"}, {"alias": "tradamerican", "title": "American (Traditional)"}], "rating": 4.0, "coordinates": {"latitude": 43.6384689262493, "longitude": -79.4192124903202}, "transactions": [], "price": "$$", "location": {"address1": "171 E Liberty Street", "address2": "Unit 100", "address3": "", "city": "Toronto", "zip_code": "M6K 3P6", "country": "CA", "state": "ON", "display_address": ["171 E Liberty Street", "Unit 100", "Toronto, ON M6K 3P6", "Canada"]}, "phone": "+14169018351", "display_phone": "+1 416-901-8351", "distance": 634.6501128914568}, {"id": "oc8204pyvf9ixdA4JzzaLA", "alias": "the-good-son-toronto-5", "name": "The Good Son", "image_url": "https://s3-media2.fl.yelpcdn.com/bphoto/jrIilmo28E14DSrqEj58WA/o.jpg", "is_closed": false, "url": "https://www.yelp.com/biz/the-good-son-toronto-5?adjust_creative=a2JdNtFqB-C38ga_06BHvw&utm_campaign=yelp_api_v3&utm_medium=api_v3_business_search&utm_source=a2JdNtFqB-C38ga_06BHvw", "review_count": 183, "categories": [{"alias": "pizza", "title": "Pizza"}, {"alias": "cocktailbars", "title": "Cocktail Bars"}], "rating": 4.0, "coordinates": {"latitude": 43.6436501, "longitude": -79.4227676}, "transactions": [], "price": "$$$", "location": {"address1": "1096 Queen Street W", "address2": "", "address3": "", "city": "Toronto", "zip_code": "M6J 1H9", "country": "CA", "state": "ON", "display_address": ["1096 Queen Street W", "Toronto, ON M6J 1H9", "Canada"]}, "phone": "+14165510589", "display_phone": "+1 416-551-0589", "distance": 1243.8318211346677}, {"id": "Z5kjUEm1A18l864gb3XA8A", "alias": "town-crier-pub-toronto", "name": "Town Crier Pub", "image_url": "https://s3-media1.fl.yelpcdn.com/bphoto/fhck54-vYv7NhkJFFOrAGw/o.jpg", "is_closed": false, "url": "https://www.yelp.com/biz/town-crier-pub-toronto?adjust_creative=a2JdNtFqB-C38ga_06BHvw&utm_campaign=yelp_api_v3&utm_medium=api_v3_business_search&utm_source=a2JdNtFqB-C38ga_06BHvw", "review_count": 207, "categories": [{"alias": "pubs", "title": "Pubs"}, {"alias": "german", "title": "German"}], "rating": 4.0, "coordinates": {"latitude": 43.648038, "longitude": -79.39009253558704}, "transactions": [], "price": "$$", "location": {"address1": "115 John Street", "address2": "", "address3": null, "city": "Toronto", "zip_code": "M5V 2E2", "country": "CA", "state": "ON", "display_address": ["115 John Street", "Toronto, ON M5V 2E2", "Canada"]}, "phone": "+14162049588", "display_phone": "+1 416-204-9588", "distance": 2854.0717012901014}, {"id": "5AC2yQzEe3iRGrsJ0at-8g", "alias": "reverie-at-the-park-toronto-3", "name": "Reverie at The Park", "image_url": "https://s3-media2.fl.yelpcdn.com/bphoto/ALcP2De8uAxiBvm-67LpYg/o.jpg", "is_closed": false, "url": "https://www.yelp.com/biz/reverie-at-the-park-toronto-3?adjust_creative=a2JdNtFqB-C38ga_06BHvw&utm_campaign=yelp_api_v3&utm_medium=api_v3_business_search&utm_source=a2JdNtFqB-C38ga_06BHvw", "review_count": 34, "categories": [{"alias": "cocktailbars", "title": "Cocktail Bars"}, {"alias": "newcanadian", "title": "Canadian (New)"}], "rating": 4.5, "coordinates": {"latitude": 43.65515, "longitude": -79.41274}, "transactions": [], "price": "$$$", "location": {"address1": "569 College Street", "address2": null, "address3": "", "city": "Toronto", "zip_code": "M6G 1B2", "country": "CA", "state": "ON", "display_address": ["569 College Street", "Toronto, ON M6G 1B2", "Canada"]}, "phone": "+14165338841", "display_phone": "+1 416-533-8841", "distance": 2541.528712579073}, {"id": "XmfiEDGV1V1mqeEP7SurTg", "alias": "ufficio-toronto", "name": "Ufficio", "image_url": "https://s3-media2.fl.yelpcdn.com/bphoto/NHqXeqRViKMnpIC9ZtdXsA/o.jpg", "is_closed": false, "url": "https://www.yelp.com/biz/ufficio-toronto?adjust_creative=a2JdNtFqB-C38ga_06BHvw&utm_campaign=yelp_api_v3&utm_medium=api_v3_business_search&utm_source=a2JdNtFqB-C38ga_06BHvw", "review_count": 90, "categories": [{"alias": "seafood", "title": "Seafood"}, {"alias": "cocktailbars", "title": "Cocktail Bars"}], "rating": 4.0, "coordinates": {"latitude": 43.64956, "longitude": -79.4231}, "transactions": [], "price": "$$$", "location": {"address1": "1214 Dundas Street W", "address2": "", "address3": "", "city": "Toronto", "zip_code": "M6J 3B1", "country": "CA", "state": "ON", "display_address": ["1214 Dundas Street W", "Toronto, ON M6J 3B1", "Canada"]}, "phone": "+14165358888", "display_phone": "+1 416-535-8888", "distance": 1895.1999105088357}, {"id": "AQJPI5rnkb7pBnBMWtSjvw", "alias": "the-shore-club-toronto-toronto", "name": "The Shore Club - Toronto", "image_url": "https://s3-media2.fl.yelpcdn.com/bphoto/fdziq--poAeU3wXIe5iAmw/o.jpg", "is_closed": false, "url": "https://www.yelp.com/biz/the-shore-club-toronto-toronto?adjust_creative=a2JdNtFqB-C38ga_06BHvw&utm_campaign=yelp_api_v3&utm_medium=api_v3_business_search&utm_source=a2JdNtFqB-C38ga_06BHvw", "review_count": 187, "categories": [{"alias": "seafood", "title": "Seafood"}, {"alias": "steak", "title": "Steakhouses"}, {"alias": "cocktailbars", "title": "Cocktail Bars"}], "rating": 4.0, "coordinates": {"latitude": 43.6456057670746, "longitude": -79.3865740299225}, "transactions": [], "price": "$$$", "location": {"address1": "155 Wellington Street W", "address2": "", "address3": "", "city": "Toronto", "zip_code": "M5V 3H1", "country": "CA", "state": "ON", "display_address": ["155 Wellington Street W", "Toronto, ON M5V 3H1", "Canada"]}, "phone": "+14163513311", "display_phone": "+1 416-351-3311", "distance": 2946.3538158989004}, {"id": "J4_q5iMukg-UnnLnT6ZwAA", "alias": "northern-belle-toronto", "name": "Northern Belle", "image_url": "https://s3-media1.fl.yelpcdn.com/bphoto/arG4e0DVIrnzdHf73FcQqA/o.jpg", "is_closed": false, "url": "https://www.yelp.com/biz/northern-belle-toronto?adjust_creative=a2JdNtFqB-C38ga_06BHvw&utm_campaign=yelp_api_v3&utm_medium=api_v3_business_search&utm_source=a2JdNtFqB-C38ga_06BHvw", "review_count": 36, "categories": [{"alias": "coffee", "title": "Coffee & Tea"}, {"alias": "cafes", "title": "Cafes"}, {"alias": "cocktailbars", "title": "Cocktail Bars"}], "rating": 4.5, "coordinates": {"latitude": 43.65081, "longitude": -79.41258}, "transactions": [], "price": "$$", "location": {"address1": "913 Dundas Street W", "address2": "", "address3": "", "city": "Toronto", "zip_code": "M6J 1W1", "country": "CA", "state": "ON", "display_address": ["913 Dundas Street W", "Toronto, ON M6J 1W1", "Canada"]}, "phone": "+14168238969", "display_phone": "+1 416-823-8969", "distance": 2060.399921180205}, {"id": "Q4RSmF0s-AkaegrLFCLEbg", "alias": "donatello-restaurant-toronto", "name": "Donatello Restaurant", "image_url": "https://s3-media2.fl.yelpcdn.com/bphoto/mgG7W3MH6l1OHE4z59aZwg/o.jpg", "is_closed": false, "url": "https://www.yelp.com/biz/donatello-restaurant-toronto?adjust_creative=a2JdNtFqB-C38ga_06BHvw&utm_campaign=yelp_api_v3&utm_medium=api_v3_business_search&utm_source=a2JdNtFqB-C38ga_06BHvw", "review_count": 149, "categories": [{"alias": "italian", "title": "Italian"}, {"alias": "seafood", "title": "Seafood"}, {"alias": "wine_bars", "title": "Wine Bars"}], "rating": 4.0, "coordinates": {"latitude": 43.657425, "longitude": -79.383474}, "transactions": [], "price": "$$$", "location": {"address1": "37 Elm Street", "address2": "", "address3": "", "city": "Toronto", "zip_code": "M5G 1H1", "country": "CA", "state": "ON", "display_address": ["37 Elm Street", "Toronto, ON M5G 1H1", "Canada"]}, "phone": "+14165955001", "display_phone": "+1 416-595-5001", "distance": 3937.55761432322}, {"id": "QFPS9JBNdOOHVP0C3pSslw", "alias": "earls-kitchen-bar-toronto", "name": "Earls Kitchen + Bar", "image_url": "https://s3-media1.fl.yelpcdn.com/bphoto/d5lDPc9Tu-K2qeIvhsqFfw/o.jpg", "is_closed": false, "url": "https://www.yelp.com/biz/earls-kitchen-bar-toronto?adjust_creative=a2JdNtFqB-C38ga_06BHvw&utm_campaign=yelp_api_v3&utm_medium=api_v3_business_search&utm_source=a2JdNtFqB-C38ga_06BHvw", "review_count": 428, "categories": [{"alias": "newcanadian", "title": "Canadian (New)"}, {"alias": "cocktailbars", "title": "Cocktail Bars"}], "rating": 3.5, "coordinates": {"latitude": 43.6480134620711, "longitude": -79.3839246431072}, "transactions": [], "price": "$$", "location": {"address1": "150 King Street West", "address2": "Unit 100", "address3": "", "city": "Toronto", "zip_code": "V5H 1J9", "country": "CA", "state": "ON", "display_address": ["150 King Street West", "Unit 100", "Toronto, ON V5H 1J9", "Canada"]}, "phone": "+14169160227", "display_phone": "+1 416-916-0227", "distance": 3265.097360251341}, {"id": "T4iG8nhlu3uVnRzRn6660w", "alias": "the-dock-ellis-toronto", "name": "The Dock Ellis", "image_url": "https://s3-media2.fl.yelpcdn.com/bphoto/AXOZguhOd_jb43NiWsmmBw/o.jpg", "is_closed": false, "url": "https://www.yelp.com/biz/the-dock-ellis-toronto?adjust_creative=a2JdNtFqB-C38ga_06BHvw&utm_campaign=yelp_api_v3&utm_medium=api_v3_business_search&utm_source=a2JdNtFqB-C38ga_06BHvw", "review_count": 50, "categories": [{"alias": "sportsbars", "title": "Sports Bars"}, {"alias": "sandwiches", "title": "Sandwiches"}], "rating": 4.0, "coordinates": {"latitude": 43.6494701, "longitude": -79.4253287}, "transactions": [], "price": "$$", "location": {"address1": "1280 Dundas Street W", "address2": "", "address3": "", "city": "Toronto", "zip_code": "M6J 1X7", "country": "CA", "state": "ON", "display_address": ["1280 Dundas Street W", "Toronto, ON M6J 1X7", "Canada"]}, "phone": "+14167928472", "display_phone": "+1 416-792-8472", "distance": 1933.1907459577494}, {"id": "Kal1hFMTEzdXYpa5MNzUPw", "alias": "spin-toronto-toronto", "name": "SPIN Toronto", "image_url": "https://s3-media3.fl.yelpcdn.com/bphoto/Yz5F4GRreD__GlIt9Mh6aQ/o.jpg", "is_closed": false, "url": "https://www.yelp.com/biz/spin-toronto-toronto?adjust_creative=a2JdNtFqB-C38ga_06BHvw&utm_campaign=yelp_api_v3&utm_medium=api_v3_business_search&utm_source=a2JdNtFqB-C38ga_06BHvw", "review_count": 131, "categories": [{"alias": "cocktailbars", "title": "Cocktail Bars"}, {"alias": "sports_clubs", "title": "Sports Clubs"}, {"alias": "tradamerican", "title": "American (Traditional)"}], "rating": 4.0, "coordinates": {"latitude": 43.6447886395145, "longitude": -79.3963426351547}, "transactions": [], "price": "$$", "location": {"address1": "461 King St W", "address2": "Lower Level", "address3": "", "city": "Toronto", "zip_code": "M5V 1K4", "country": "CA", "state": "ON", "display_address": ["461 King St W", "Lower Level", "Toronto, ON M5V 1K4", "Canada"]}, "phone": "+14165997746", "display_phone": "+1 416-599-7746", "distance": 2234.9105364409224}, {"id": "dizdLoOk0GMaSS_qQAuklQ", "alias": "the-fifth-and-terrace-toronto-4", "name": "The Fifth & Terrace", "image_url": "https://s3-media1.fl.yelpcdn.com/bphoto/3C0XEgzmdNpuDf8bxgGDaA/o.jpg", "is_closed": false, "url": "https://www.yelp.com/biz/the-fifth-and-terrace-toronto-4?adjust_creative=a2JdNtFqB-C38ga_06BHvw&utm_campaign=yelp_api_v3&utm_medium=api_v3_business_search&utm_source=a2JdNtFqB-C38ga_06BHvw", "review_count": 57, "categories": [{"alias": "venues", "title": "Venues & Event Spaces"}, {"alias": "italian", "title": "Italian"}, {"alias": "cocktailbars", "title": "Cocktail Bars"}], "rating": 4.0, "coordinates": {"latitude": 43.6493079440937, "longitude": -79.3893122699059}, "transactions": [], "price": "$$$$", "location": {"address1": "225 Richmond Street W", "address2": "Suite 501b", "address3": "", "city": "Toronto", "zip_code": "M5V 1W2", "country": "CA", "state": "ON", "display_address": ["225 Richmond Street W", "Suite 501b", "Toronto, ON M5V 1W2", "Canada"]}, "phone": "+14169793005", "display_phone": "+1 416-979-3005", "distance": 2989.4642315474434}, {"id": "zcPzZJqpyOTEnBNRt8L68A", "alias": "old-york-bar-and-grill-toronto", "name": "Old York Bar & Grill", "image_url": "https://s3-media1.fl.yelpcdn.com/bphoto/CvSL4sk5y8MT6xB_A5xKlA/o.jpg", "is_closed": false, "url": "https://www.yelp.com/biz/old-york-bar-and-grill-toronto?adjust_creative=a2JdNtFqB-C38ga_06BHvw&utm_campaign=yelp_api_v3&utm_medium=api_v3_business_search&utm_source=a2JdNtFqB-C38ga_06BHvw", "review_count": 77, "categories": [{"alias": "pubs", "title": "Pubs"}, {"alias": "breakfast_brunch", "title": "Breakfast & Brunch"}], "rating": 4.0, "coordinates": {"latitude": 43.64192, "longitude": -79.40645}, "transactions": [], "price": "$$", "location": {"address1": "167 Niagara Street", "address2": "", "address3": "", "city": "Toronto", "zip_code": "M5V 1C9", "country": "CA", "state": "ON", "display_address": ["167 Niagara Street", "Toronto, ON M5V 1C9", "Canada"]}, "phone": "+14167039675", "display_phone": "+1 416-703-9675", "distance": 1404.8159221325534}, {"id": "4MQaqhBUJCpghGukSWNq7w", "alias": "loose-moose-toronto", "name": "Loose Moose", "image_url": "https://s3-media3.fl.yelpcdn.com/bphoto/w7g-goS2ynkuI8lji3lpIw/o.jpg", "is_closed": false, "url": "https://www.yelp.com/biz/loose-moose-toronto?adjust_creative=a2JdNtFqB-C38ga_06BHvw&utm_campaign=yelp_api_v3&utm_medium=api_v3_business_search&utm_source=a2JdNtFqB-C38ga_06BHvw", "review_count": 408, "categories": [{"alias": "sportsbars", "title": "Sports Bars"}, {"alias": "gastropubs", "title": "Gastropubs"}, {"alias": "newcanadian", "title": "Canadian (New)"}], "rating": 3.5, "coordinates": {"latitude": 43.64522, "longitude": -79.38385}, "transactions": [], "price": "$$", "location": {"address1": "146 Front Street West", "address2": "", "address3": "", "city": "Toronto", "zip_code": "M5J 1G2", "country": "CA", "state": "ON", "display_address": ["146 Front Street West", "Toronto, ON M5J 1G2", "Canada"]}, "phone": "+14169778840", "display_phone": "+1 416-977-8840", "distance": 3122.1689664293776}, {"id": "ojPrFPeJqqOKdA6O69HeiQ", "alias": "archive-toronto-2", "name": "Archive", "image_url": "https://s3-media2.fl.yelpcdn.com/bphoto/Md1AlqEwQZ4Xb5VfjpNTpA/o.jpg", "is_closed": false, "url": "https://www.yelp.com/biz/archive-toronto-2?adjust_creative=a2JdNtFqB-C38ga_06BHvw&utm_campaign=yelp_api_v3&utm_medium=api_v3_business_search&utm_source=a2JdNtFqB-C38ga_06BHvw", "review_count": 34, "categories": [{"alias": "wine_bars", "title": "Wine Bars"}, {"alias": "tapasmallplates", "title": "Tapas/Small Plates"}], "rating": 4.0, "coordinates": {"latitude": 43.65084, "longitude": -79.41243}, "transactions": [], "price": "$$", "location": {"address1": "909 Dundas Street W", "address2": "", "address3": "", "city": "Toronto", "zip_code": "M6J 1V9", "country": "CA", "state": "ON", "display_address": ["909 Dundas Street W", "Toronto, ON M6J 1V9", "Canada"]}, "phone": "+16477480909", "display_phone": "+1 647-748-0909", "distance": 2072.328136785725}, {"id": "6cz8xLR64Iuzpa4NNcFHqg", "alias": "king-rustic-toronto-2", "name": "King Rustic", "image_url": "https://s3-media2.fl.yelpcdn.com/bphoto/HglA9YvUcXkiOTdA1EJ-qw/o.jpg", "is_closed": false, "url": "https://www.yelp.com/biz/king-rustic-toronto-2?adjust_creative=a2JdNtFqB-C38ga_06BHvw&utm_campaign=yelp_api_v3&utm_medium=api_v3_business_search&utm_source=a2JdNtFqB-C38ga_06BHvw", "review_count": 55, "categories": [{"alias": "comfortfood", "title": "Comfort Food"}, {"alias": "seafood", "title": "Seafood"}, {"alias": "cocktailbars", "title": "Cocktail Bars"}], "rating": 4.0, "coordinates": {"latitude": 43.6418019534315, "longitude": -79.4121160358191}, "transactions": [], "price": "$$", "location": {"address1": "905 King Street W", "address2": "", "address3": "", "city": "Toronto", "zip_code": "M5V 1P5", "country": "CA", "state": "ON", "display_address": ["905 King Street W", "Toronto, ON M5V 1P5", "Canada"]}, "phone": "+14167925910", "display_phone": "+1 416-792-5910", "distance": 1131.3870158354864}, {"id": "7ppWunvrIURnEZi5nUB_7g", "alias": "baro-toronto-4", "name": "Baro", "image_url": "https://s3-media3.fl.yelpcdn.com/bphoto/wvfsESOG1IjzKIJzrONWag/o.jpg", "is_closed": false, "url": "https://www.yelp.com/biz/baro-toronto-4?adjust_creative=a2JdNtFqB-C38ga_06BHvw&utm_campaign=yelp_api_v3&utm_medium=api_v3_business_search&utm_source=a2JdNtFqB-C38ga_06BHvw", "review_count": 157, "categories": [{"alias": "cocktailbars", "title": "Cocktail Bars"}, {"alias": "chicken_wings", "title": "Chicken Wings"}, {"alias": "latin", "title": "Latin American"}], "rating": 3.5, "coordinates": {"latitude": 43.644906, "longitude": -79.39694}, "transactions": [], "price": "$$$", "location": {"address1": "485 King Street West", "address2": "", "address3": null, "city": "Toronto", "zip_code": "M5V 1K4", "country": "CA", "state": "ON", "display_address": ["485 King Street West", "Toronto, ON M5V 1K4", "Canada"]}, "phone": "+14163638388", "display_phone": "+1 416-363-8388", "distance": 2204.511527763687}, {"id": "FCMRBcvrwN01eT6WRaTC6A", "alias": "the-craft-brasserie-and-grille-toronto", "name": "The Craft Brasserie & Grille", "image_url": "https://s3-media4.fl.yelpcdn.com/bphoto/mHW8_cqNS2HA2XjTmCQoBg/o.jpg", "is_closed": false, "url": "https://www.yelp.com/biz/the-craft-brasserie-and-grille-toronto?adjust_creative=a2JdNtFqB-C38ga_06BHvw&utm_campaign=yelp_api_v3&utm_medium=api_v3_business_search&utm_source=a2JdNtFqB-C38ga_06BHvw", "review_count": 151, "categories": [{"alias": "brasseries", "title": "Brasseries"}, {"alias": "pubs", "title": "Pubs"}, {"alias": "tradamerican", "title": "American (Traditional)"}], "rating": 3.5, "coordinates": {"latitude": 43.6394076328957, "longitude": -79.4208196351823}, "transactions": [], "price": "$$", "location": {"address1": "107 Atlantic Avenue", "address2": "Suite 100", "address3": "", "city": "Toronto", "zip_code": "M6K 1Y2", "country": "CA", "state": "ON", "display_address": ["107 Atlantic Avenue", "Suite 100", "Toronto, ON M6K 1Y2", "Canada"]}, "phone": "+14165352337", "display_phone": "+1 416-535-2337", "distance": 758.3057097516249}, {"id": "VFGptZijOhBaLoSPzw3guw", "alias": "hello-123-toronto", "name": "Hello 123", "image_url": "https://s3-media1.fl.yelpcdn.com/bphoto/dZ4D3Zvs7GBjzAC_elKx2g/o.jpg", "is_closed": false, "url": "https://www.yelp.com/biz/hello-123-toronto?adjust_creative=a2JdNtFqB-C38ga_06BHvw&utm_campaign=yelp_api_v3&utm_medium=api_v3_business_search&utm_source=a2JdNtFqB-C38ga_06BHvw", "review_count": 93, "categories": [{"alias": "breakfast_brunch", "title": "Breakfast & Brunch"}, {"alias": "cocktailbars", "title": "Cocktail Bars"}], "rating": 3.5, "coordinates": {"latitude": 43.6433736, "longitude": -79.4234717}, "transactions": [], "price": "$$", "location": {"address1": "1122 Queen Street W", "address2": "", "address3": null, "city": "Toronto", "zip_code": "M6J 1H9", "country": "CA", "state": "ON", "display_address": ["1122 Queen Street W", "Toronto, ON M6J 1H9", "Canada"]}, "phone": "+14165323555", "display_phone": "+1 416-532-3555", "distance": 1241.410830713718}, {"id": "oKZPgeCOxnVSxudYcn1OtQ", "alias": "cibo-wine-bar-toronto-11", "name": "Cibo Wine Bar", "image_url": "https://s3-media3.fl.yelpcdn.com/bphoto/z05SHn1apMbthqzYptqPwA/o.jpg", "is_closed": false, "url": "https://www.yelp.com/biz/cibo-wine-bar-toronto-11?adjust_creative=a2JdNtFqB-C38ga_06BHvw&utm_campaign=yelp_api_v3&utm_medium=api_v3_business_search&utm_source=a2JdNtFqB-C38ga_06BHvw", "review_count": 319, "categories": [{"alias": "wine_bars", "title": "Wine Bars"}, {"alias": "italian", "title": "Italian"}], "rating": 3.5, "coordinates": {"latitude": 43.64521, "longitude": -79.39737}, "transactions": [], "price": "$$", "location": {"address1": "522 King Street W", "address2": "", "address3": "", "city": "Toronto", "zip_code": "M5V 1L7", "country": "CA", "state": "ON", "display_address": ["522 King Street W", "Toronto, ON M5V 1L7", "Canada"]}, "phone": "+14165043939", "display_phone": "+1 416-504-3939", "distance": 2198.389088466793}, {"id": "-bJ6Y5QmO8Uvc383xjC-OA", "alias": "the-monarch-tavern-toronto", "name": "The Monarch Tavern", "image_url": "https://s3-media2.fl.yelpcdn.com/bphoto/79rqG1agDGarWJskQwRl1g/o.jpg", "is_closed": false, "url": "https://www.yelp.com/biz/the-monarch-tavern-toronto?adjust_creative=a2JdNtFqB-C38ga_06BHvw&utm_campaign=yelp_api_v3&utm_medium=api_v3_business_search&utm_source=a2JdNtFqB-C38ga_06BHvw", "review_count": 39, "categories": [{"alias": "pubs", "title": "Pubs"}, {"alias": "sandwiches", "title": "Sandwiches"}, {"alias": "burgers", "title": "Burgers"}], "rating": 4.0, "coordinates": {"latitude": 43.65402, "longitude": -79.41363}, "transactions": [], "price": "$$", "location": {"address1": "12 Clinton Street", "address2": "", "address3": "", "city": "Toronto", "zip_code": "M6J 2N8", "country": "CA", "state": "ON", "display_address": ["12 Clinton Street", "Toronto, ON M6J 2N8", "Canada"]}, "phone": "+14165315833", "display_phone": "+1 416-531-5833", "distance": 2400.3291923645584}, {"id": "jCiovc2qHJ5L-_1gigLueQ", "alias": "weslodge-bar-and-grill-toronto", "name": "Weslodge Bar & Grill", "image_url": "https://s3-media4.fl.yelpcdn.com/bphoto/6sU9ZPkF99FocwISNq3PqA/o.jpg", "is_closed": false, "url": "https://www.yelp.com/biz/weslodge-bar-and-grill-toronto?adjust_creative=a2JdNtFqB-C38ga_06BHvw&utm_campaign=yelp_api_v3&utm_medium=api_v3_business_search&utm_source=a2JdNtFqB-C38ga_06BHvw", "review_count": 256, "categories": [{"alias": "newcanadian", "title": "Canadian (New)"}, {"alias": "cocktailbars", "title": "Cocktail Bars"}], "rating": 3.5, "coordinates": {"latitude": 43.64554, "longitude": -79.39641}, "transactions": [], "price": "$$$", "location": {"address1": "480 King Street W", "address2": "", "address3": "", "city": "Toronto", "zip_code": "M5V 1L7", "country": "CA", "state": "ON", "display_address": ["480 King Street W", "Toronto, ON M5V 1L7", "Canada"]}, "phone": "+16476600999", "display_phone": "+1 647-660-0999", "distance": 2287.4507133724014}, {"id": "W2NzlS8OJzGfDfr9oRz11Q", "alias": "drake-one-fifty-toronto", "name": "Drake One Fifty", "image_url": "https://s3-media3.fl.yelpcdn.com/bphoto/0wtbH7Z8F5ui7qfNHAZ2-Q/o.jpg", "is_closed": false, "url": "https://www.yelp.com/biz/drake-one-fifty-toronto?adjust_creative=a2JdNtFqB-C38ga_06BHvw&utm_campaign=yelp_api_v3&utm_medium=api_v3_business_search&utm_source=a2JdNtFqB-C38ga_06BHvw", "review_count": 239, "categories": [{"alias": "cocktailbars", "title": "Cocktail Bars"}, {"alias": "breakfast_brunch", "title": "Breakfast & Brunch"}, {"alias": "tradamerican", "title": "American (Traditional)"}], "rating": 3.5, "coordinates": {"latitude": 43.6493542, "longitude": -79.3846843}, "transactions": [], "price": "$$$", "location": {"address1": "150 York Street", "address2": "", "address3": "", "city": "Toronto", "zip_code": "M5H 3S5", "country": "CA", "state": "ON", "display_address": ["150 York Street", "Toronto, ON M5H 3S5", "Canada"]}, "phone": "+14163636150", "display_phone": "+1 416-363-6150", "distance": 3294.014251550379}, {"id": "C16ogi6ASv-sQW3SGScmNQ", "alias": "tutti-matti-restaurant-toronto", "name": "Tutti Matti Restaurant", "image_url": "https://s3-media1.fl.yelpcdn.com/bphoto/rdHNARZM0G2nH1K2lX0peA/o.jpg", "is_closed": false, "url": "https://www.yelp.com/biz/tutti-matti-restaurant-toronto?adjust_creative=a2JdNtFqB-C38ga_06BHvw&utm_campaign=yelp_api_v3&utm_medium=api_v3_business_search&utm_source=a2JdNtFqB-C38ga_06BHvw", "review_count": 94, "categories": [{"alias": "italian", "title": "Italian"}, {"alias": "wine_bars", "title": "Wine Bars"}, {"alias": "beerbar", "title": "Beer Bar"}], "rating": 3.5, "coordinates": {"latitude": 43.64728, "longitude": -79.39403}, "transactions": [], "price": "$$$", "location": {"address1": "364 Adelaide Street W", "address2": "", "address3": "", "city": "Toronto", "zip_code": "M5V 1R7", "country": "CA", "state": "ON", "display_address": ["364 Adelaide Street W", "Toronto, ON M5V 1R7", "Canada"]}, "phone": "+14165978839", "display_phone": "+1 416-597-8839", "distance": 2566.784804361534}, {"id": "2izBtfTAHSqhdT9Ym88iyg", "alias": "founder-toronto", "name": "Founder", "image_url": "https://s3-media3.fl.yelpcdn.com/bphoto/DFv-WG9h_Qg4U5GNOuTnRw/o.jpg", "is_closed": false, "url": "https://www.yelp.com/biz/founder-toronto?adjust_creative=a2JdNtFqB-C38ga_06BHvw&utm_campaign=yelp_api_v3&utm_medium=api_v3_business_search&utm_source=a2JdNtFqB-C38ga_06BHvw", "review_count": 19, "categories": [{"alias": "cocktailbars", "title": "Cocktail Bars"}, {"alias": "tapasmallplates", "title": "Tapas/Small Plates"}], "rating": 4.5, "coordinates": {"latitude": 43.6496799, "longitude": -79.42543}, "transactions": [], "location": {"address1": "1282 Dundas St. W", "address2": null, "address3": "", "city": "Toronto", "zip_code": "M6J 1X7", "country": "CA", "state": "ON", "display_address": ["1282 Dundas St. W", "Toronto, ON M6J 1X7", "Canada"]}, "phone": "+16473481282", "display_phone": "+1 647-348-1282", "distance": 1981.7407451925837}, {"id": "uIuJGLPWli4dbomvANcuiQ", "alias": "ovest-cucina-e-vineria-toronto-5", "name": "Ovest Cucina e Vineria", "image_url": "https://s3-media4.fl.yelpcdn.com/bphoto/tnxTXOWfwdVxo3q02pXPuA/o.jpg", "is_closed": false, "url": "https://www.yelp.com/biz/ovest-cucina-e-vineria-toronto-5?adjust_creative=a2JdNtFqB-C38ga_06BHvw&utm_campaign=yelp_api_v3&utm_medium=api_v3_business_search&utm_source=a2JdNtFqB-C38ga_06BHvw", "review_count": 67, "categories": [{"alias": "italian", "title": "Italian"}, {"alias": "wine_bars", "title": "Wine Bars"}], "rating": 4.0, "coordinates": {"latitude": 43.6434, "longitude": -79.406627}, "transactions": [], "price": "$$$", "location": {"address1": "788 King Street W", "address2": "", "address3": "", "city": "Toronto", "zip_code": "M5V 1N6", "country": "CA", "state": "ON", "display_address": ["788 King Street W", "Toronto, ON M5V 1N6", "Canada"]}, "phone": "+14162146161", "display_phone": "+1 416-214-6161", "distance": 1524.8187591908684}, {"id": "vO4rIXzsK3aWn1EZ4cHwXQ", "alias": "mother-tongue-toronto", "name": "Mother Tongue", "image_url": "https://s3-media4.fl.yelpcdn.com/bphoto/ylXkVjD5XuovlI9arddYmQ/o.jpg", "is_closed": false, "url": "https://www.yelp.com/biz/mother-tongue-toronto?adjust_creative=a2JdNtFqB-C38ga_06BHvw&utm_campaign=yelp_api_v3&utm_medium=api_v3_business_search&utm_source=a2JdNtFqB-C38ga_06BHvw", "review_count": 55, "categories": [{"alias": "cocktailbars", "title": "Cocktail Bars"}, {"alias": "asianfusion", "title": "Asian Fusion"}], "rating": 4.0, "coordinates": {"latitude": 43.64739, "longitude": -79.39327}, "transactions": [], "location": {"address1": "348 Adelaide Street W", "address2": "", "address3": null, "city": "Toronto", "zip_code": "M5W 1R7", "country": "CA", "state": "ON", "display_address": ["348 Adelaide Street W", "Toronto, ON M5W 1R7", "Canada"]}, "phone": "+16472435858", "display_phone": "+1 647-243-5858", "distance": 2603.8604798371402}, {"id": "vHzWmPWHN4J1hRR3W3AMQg", "alias": "salt-wine-bar-toronto", "name": "Salt Wine Bar", "image_url": "https://s3-media1.fl.yelpcdn.com/bphoto/-nITEGBjcHQYLSWmhW8B1Q/o.jpg", "is_closed": false, "url": "https://www.yelp.com/biz/salt-wine-bar-toronto?adjust_creative=a2JdNtFqB-C38ga_06BHvw&utm_campaign=yelp_api_v3&utm_medium=api_v3_business_search&utm_source=a2JdNtFqB-C38ga_06BHvw", "review_count": 100, "categories": [{"alias": "tapasmallplates", "title": "Tapas/Small Plates"}, {"alias": "wine_bars", "title": "Wine Bars"}], "rating": 3.5, "coordinates": {"latitude": 43.6490099, "longitude": -79.42033}, "transactions": [], "price": "$$$", "location": {"address1": "225 Ossington Ave", "address2": "", "address3": "", "city": "Toronto", "zip_code": "M6J 2Z8", "country": "CA", "state": "ON", "display_address": ["225 Ossington Ave", "Toronto, ON M6J 2Z8", "Canada"]}, "phone": "+14165337258", "display_phone": "+1 416-533-7258", "distance": 1807.6106626134535}, {"id": "CM7IDKFxV6p5FdptjXsr8A", "alias": "kellys-landing-toronto", "name": "Kellys Landing", "image_url": "https://s3-media3.fl.yelpcdn.com/bphoto/Xz4HIjOs52J07xrCVNDYgA/o.jpg", "is_closed": false, "url": "https://www.yelp.com/biz/kellys-landing-toronto?adjust_creative=a2JdNtFqB-C38ga_06BHvw&utm_campaign=yelp_api_v3&utm_medium=api_v3_business_search&utm_source=a2JdNtFqB-C38ga_06BHvw", "review_count": 144, "categories": [{"alias": "sportsbars", "title": "Sports Bars"}, {"alias": "tradamerican", "title": "American (Traditional)"}], "rating": 3.5, "coordinates": {"latitude": 43.6448899, "longitude": -79.38305}, "transactions": [], "price": "$$", "location": {"address1": "123 Front Street W", "address2": "", "address3": null, "city": "Toronto", "zip_code": "M5J 2M2", "country": "CA", "state": "ON", "display_address": ["123 Front Street W", "Toronto, ON M5J 2M2", "Canada"]}, "phone": "+16477761133", "display_phone": "+1 647-776-1133", "distance": 3139.6464331397824}, {"id": "C3rH8u6P3wFH95AH8SeNmw", "alias": "reds-wine-tavern-toronto-2", "name": "Reds Wine Tavern", "image_url": "https://s3-media2.fl.yelpcdn.com/bphoto/uJT7GfC-j5MwpYZNILj1kg/o.jpg", "is_closed": false, "url": "https://www.yelp.com/biz/reds-wine-tavern-toronto-2?adjust_creative=a2JdNtFqB-C38ga_06BHvw&utm_campaign=yelp_api_v3&utm_medium=api_v3_business_search&utm_source=a2JdNtFqB-C38ga_06BHvw", "review_count": 135, "categories": [{"alias": "wine_bars", "title": "Wine Bars"}, {"alias": "venues", "title": "Venues & Event Spaces"}, {"alias": "argentine", "title": "Argentine"}], "rating": 3.5, "coordinates": {"latitude": 43.6493899, "longitude": -79.38214}, "transactions": [], "price": "$$$", "location": {"address1": "77 Adelaide St.W.", "address2": "1st Canadian Pl", "address3": "", "city": "Toronto", "zip_code": "M5X 1B1", "country": "CA", "state": "ON", "display_address": ["77 Adelaide St.W.", "1st Canadian Pl", "Toronto, ON M5X 1B1", "Canada"]}, "phone": "+14168627337", "display_phone": "+1 416-862-7337", "distance": 3442.369568042135}, {"id": "sHnN3JliwVWvGX76Odmlbw", "alias": "local-kitchen-and-winebar-toronto", "name": "Local Kitchen & Winebar", "image_url": "https://s3-media1.fl.yelpcdn.com/bphoto/g-IRLww13xTcBzwmn0YhWg/o.jpg", "is_closed": false, "url": "https://www.yelp.com/biz/local-kitchen-and-winebar-toronto?adjust_creative=a2JdNtFqB-C38ga_06BHvw&utm_campaign=yelp_api_v3&utm_medium=api_v3_business_search&utm_source=a2JdNtFqB-C38ga_06BHvw", "review_count": 81, "categories": [{"alias": "wine_bars", "title": "Wine Bars"}, {"alias": "newcanadian", "title": "Canadian (New)"}, {"alias": "italian", "title": "Italian"}], "rating": 3.5, "coordinates": {"latitude": 43.6389877, "longitude": -79.4451285}, "transactions": [], "price": "$$$", "location": {"address1": "1710 Queen Street W", "address2": "", "address3": "", "city": "Toronto", "zip_code": "M6N", "country": "CA", "state": "ON", "display_address": ["1710 Queen Street W", "Toronto, ON M6N", "Canada"]}, "phone": "+14165346700", "display_phone": "+1 416-534-6700", "distance": 2242.9522710259434}, {"id": "_5XClj4E5VCIsEscbrrPKg", "alias": "lopan-toronto", "name": "LoPan", "image_url": "https://s3-media2.fl.yelpcdn.com/bphoto/fqmg2e5gaix2OWzjqoe6qQ/o.jpg", "is_closed": false, "url": "https://www.yelp.com/biz/lopan-toronto?adjust_creative=a2JdNtFqB-C38ga_06BHvw&utm_campaign=yelp_api_v3&utm_medium=api_v3_business_search&utm_source=a2JdNtFqB-C38ga_06BHvw", "review_count": 24, "categories": [{"alias": "cocktailbars", "title": "Cocktail Bars"}, {"alias": "chinese", "title": "Chinese"}, {"alias": "asianfusion", "title": "Asian Fusion"}], "rating": 4.0, "coordinates": {"latitude": 43.65574, "longitude": -79.4098}, "transactions": [], "price": "$$$", "location": {"address1": "503 College Street", "address2": "", "address3": "", "city": "Toronto", "zip_code": "M6G 1A5", "country": "CA", "state": "ON", "display_address": ["503 College Street", "Toronto, ON M6G 1A5", "Canada"]}, "phone": "+16473418882", "display_phone": "+1 647-341-8882", "distance": 2659.994388409628}, {"id": "4eqHtgdXEPG6V-Jzy0MhKw", "alias": "miss-things-toronto", "name": "Miss Things", "image_url": "https://s3-media2.fl.yelpcdn.com/bphoto/q8JUk48QNCw57gB18OQqNA/o.jpg", "is_closed": false, "url": "https://www.yelp.com/biz/miss-things-toronto?adjust_creative=a2JdNtFqB-C38ga_06BHvw&utm_campaign=yelp_api_v3&utm_medium=api_v3_business_search&utm_source=a2JdNtFqB-C38ga_06BHvw", "review_count": 140, "categories": [{"alias": "cocktailbars", "title": "Cocktail Bars"}, {"alias": "asianfusion", "title": "Asian Fusion"}, {"alias": "hawaiian", "title": "Hawaiian"}], "rating": 3.5, "coordinates": {"latitude": 43.6414601, "longitude": -79.431879}, "transactions": [], "price": "$$$", "location": {"address1": "1279 Queen Street W", "address2": "", "address3": "", "city": "Toronto", "zip_code": "M6K 1L6", "country": "CA", "state": "ON", "display_address": ["1279 Queen Street W", "Toronto, ON M6K 1L6", "Canada"]}, "phone": "+14165168677", "display_phone": "+1 416-516-8677", "distance": 1439.4664811674982}, {"id": "6hGEIpALyUhte4grCY8Hog", "alias": "the-opium-bar-toronto", "name": "The Opium Bar", "image_url": "https://s3-media4.fl.yelpcdn.com/bphoto/-YzYTLmmZlmN9VzhT3Y6rg/o.jpg", "is_closed": false, "url": "https://www.yelp.com/biz/the-opium-bar-toronto?adjust_creative=a2JdNtFqB-C38ga_06BHvw&utm_campaign=yelp_api_v3&utm_medium=api_v3_business_search&utm_source=a2JdNtFqB-C38ga_06BHvw", "review_count": 19, "categories": [{"alias": "whiskeybars", "title": "Whiskey Bars"}, {"alias": "asianfusion", "title": "Asian Fusion"}, {"alias": "cocktailbars", "title": "Cocktail Bars"}], "rating": 4.5, "coordinates": {"latitude": 43.64928, "longitude": -79.42628}, "transactions": [], "location": {"address1": "1321 Dundas Street West", "address2": null, "address3": "", "city": "Toronto", "zip_code": "M6J 1X8", "country": "CA", "state": "ON", "display_address": ["1321 Dundas Street West", "Toronto, ON M6J 1X8", "Canada"]}, "phone": "+16478289193", "display_phone": "+1 647-828-9193", "distance": 1947.899036615923}, {"id": "ylDeErfIN72xikRroqYQng", "alias": "death-and-taxes-free-house-toronto", "name": "Death & Taxes Free House", "image_url": "https://s3-media3.fl.yelpcdn.com/bphoto/hODPAHOkuppMkq7INqHwsQ/o.jpg", "is_closed": false, "url": "https://www.yelp.com/biz/death-and-taxes-free-house-toronto?adjust_creative=a2JdNtFqB-C38ga_06BHvw&utm_campaign=yelp_api_v3&utm_medium=api_v3_business_search&utm_source=a2JdNtFqB-C38ga_06BHvw", "review_count": 30, "categories": [{"alias": "tradamerican", "title": "American (Traditional)"}, {"alias": "cocktailbars", "title": "Cocktail Bars"}, {"alias": "pubs", "title": "Pubs"}], "rating": 4.0, "coordinates": {"latitude": 43.64311, "longitude": -79.42496}, "transactions": [], "price": "$$", "location": {"address1": "1154 Queen Street W", "address2": "", "address3": null, "city": "Toronto", "zip_code": "M6J 1J5", "country": "CA", "state": "ON", "display_address": ["1154 Queen Street W", "Toronto, ON M6J 1J5", "Canada"]}, "phone": "+14165162550", "display_phone": "+1 416-516-2550", "distance": 1261.334778446148}, {"id": "4SyAKQevPuB4punANp41-Q", "alias": "el-rey-mezcal-bar-toronto", "name": "El Rey Mezcal Bar", "image_url": "https://s3-media2.fl.yelpcdn.com/bphoto/Lxm-2rlbhqByXGcvouL9DQ/o.jpg", "is_closed": false, "url": "https://www.yelp.com/biz/el-rey-mezcal-bar-toronto?adjust_creative=a2JdNtFqB-C38ga_06BHvw&utm_campaign=yelp_api_v3&utm_medium=api_v3_business_search&utm_source=a2JdNtFqB-C38ga_06BHvw", "review_count": 64, "categories": [{"alias": "cocktailbars", "title": "Cocktail Bars"}, {"alias": "gastropubs", "title": "Gastropubs"}, {"alias": "mexican", "title": "Mexican"}], "rating": 3.5, "coordinates": {"latitude": 43.6528135234028, "longitude": -79.4000687706962}, "transactions": [], "price": "$$", "location": {"address1": "2A Kensington Avenue", "address2": "", "address3": "", "city": "Toronto", "zip_code": "M5T 2J7", "country": "CA", "state": "ON", "display_address": ["2A Kensington Avenue", "Toronto, ON M5T 2J7", "Canada"]}, "phone": "", "display_phone": "", "distance": 2681.317929581801}, {"id": "jhltlkydsSTEPN3QIVq1gA", "alias": "i-deal-coffee-toronto-10", "name": "I Deal Coffee", "image_url": "https://s3-media4.fl.yelpcdn.com/bphoto/S2i2GL0z4h0s9toHrpIWlQ/o.jpg", "is_closed": false, "url": "https://www.yelp.com/biz/i-deal-coffee-toronto-10?adjust_creative=a2JdNtFqB-C38ga_06BHvw&utm_campaign=yelp_api_v3&utm_medium=api_v3_business_search&utm_source=a2JdNtFqB-C38ga_06BHvw", "review_count": 60, "categories": [{"alias": "wine_bars", "title": "Wine Bars"}, {"alias": "coffeeroasteries", "title": "Coffee Roasteries"}, {"alias": "cafes", "title": "Cafes"}], "rating": 3.5, "coordinates": {"latitude": 43.6478601749969, "longitude": -79.420360496978}, "transactions": [], "price": "$", "location": {"address1": "162 Ossington Ave", "address2": "", "address3": "", "city": "Toronto", "zip_code": "M6J 2Z7", "country": "CA", "state": "ON", "display_address": ["162 Ossington Ave", "Toronto, ON M6J 2Z7", "Canada"]}, "phone": "+14163647700", "display_phone": "+1 416-364-7700", "distance": 1682.9581595325467}, {"id": "Dv0OHpQSL4hOGl2KAEVvlA", "alias": "jack-astors-bar-and-grill-front-street-toronto", "name": "Jack Astor's Bar & Grill Front Street", "image_url": "https://s3-media4.fl.yelpcdn.com/bphoto/pNCnV6I7X4S9JCLlw4xfiw/o.jpg", "is_closed": false, "url": "https://www.yelp.com/biz/jack-astors-bar-and-grill-front-street-toronto?adjust_creative=a2JdNtFqB-C38ga_06BHvw&utm_campaign=yelp_api_v3&utm_medium=api_v3_business_search&utm_source=a2JdNtFqB-C38ga_06BHvw", "review_count": 256, "categories": [{"alias": "newcanadian", "title": "Canadian (New)"}, {"alias": "sportsbars", "title": "Sports Bars"}, {"alias": "burgers", "title": "Burgers"}], "rating": 3.0, "coordinates": {"latitude": 43.64529, "longitude": -79.38378}, "transactions": [], "price": "$$", "location": {"address1": "144 Front Street West", "address2": "", "address3": "", "city": "Toronto", "zip_code": "M5J 2L7", "country": "CA", "state": "ON", "display_address": ["144 Front Street West", "Toronto, ON M5J 2L7", "Canada"]}, "phone": "+14165852121", "display_phone": "+1 416-585-2121", "distance": 3122.158766630542}, {"id": "85iLb_pekXGjUTmVZCj2Ug", "alias": "viaggio-toronto", "name": "Viaggio", "image_url": "https://s3-media2.fl.yelpcdn.com/bphoto/t1HCqpDaBdbgH1_XRkvq8Q/o.jpg", "is_closed": false, "url": "https://www.yelp.com/biz/viaggio-toronto?adjust_creative=a2JdNtFqB-C38ga_06BHvw&utm_campaign=yelp_api_v3&utm_medium=api_v3_business_search&utm_source=a2JdNtFqB-C38ga_06BHvw", "review_count": 12, "categories": [{"alias": "italian", "title": "Italian"}, {"alias": "venues", "title": "Venues & Event Spaces"}, {"alias": "cocktailbars", "title": "Cocktail Bars"}], "rating": 4.5, "coordinates": {"latitude": 43.6499275270851, "longitude": -79.4390283152461}, "transactions": [], "location": {"address1": "1727 Dundas St W", "address2": "", "address3": null, "city": "Toronto", "zip_code": "M6K 1V4", "country": "CA", "state": "ON", "display_address": ["1727 Dundas St W", "Toronto, ON M6K 1V4", "Canada"]}, "phone": "+14165198165", "display_phone": "+1 416-519-8165", "distance": 2517.085534364021}, {"id": "0gOE-DJOhWavRI6qQryGhA", "alias": "bar-wellington-toronto", "name": "Bar Wellington", "image_url": "https://s3-media4.fl.yelpcdn.com/bphoto/0j7svSmms8mFBad4nlgZDQ/o.jpg", "is_closed": false, "url": "https://www.yelp.com/biz/bar-wellington-toronto?adjust_creative=a2JdNtFqB-C38ga_06BHvw&utm_campaign=yelp_api_v3&utm_medium=api_v3_business_search&utm_source=a2JdNtFqB-C38ga_06BHvw", "review_count": 104, "categories": [{"alias": "pubs", "title": "Pubs"}, {"alias": "bistros", "title": "Bistros"}, {"alias": "cafes", "title": "Cafes"}], "rating": 3.5, "coordinates": {"latitude": 43.64335, "longitude": -79.3994}, "transactions": [], "price": "$$", "location": {"address1": "520 Wellington Street W", "address2": "", "address3": "", "city": "Toronto", "zip_code": "M5V 1E3", "country": "CA", "state": "ON", "display_address": ["520 Wellington Street W", "Toronto, ON M5V 1E3", "Canada"]}, "phone": "+14163418880", "display_phone": "+1 416-341-8880", "distance": 1938.6958447780755}, {"id": "0KVx4FX9trgpM6pzH2C8_A", "alias": "district-eatery-toronto", "name": "District Eatery", "image_url": "https://s3-media2.fl.yelpcdn.com/bphoto/ia3GX_giHdfh8f_MTHKleA/o.jpg", "is_closed": false, "url": "https://www.yelp.com/biz/district-eatery-toronto?adjust_creative=a2JdNtFqB-C38ga_06BHvw&utm_campaign=yelp_api_v3&utm_medium=api_v3_business_search&utm_source=a2JdNtFqB-C38ga_06BHvw", "review_count": 99, "categories": [{"alias": "cocktailbars", "title": "Cocktail Bars"}, {"alias": "tapasmallplates", "title": "Tapas/Small Plates"}, {"alias": "salad", "title": "Salad"}], "rating": 3.5, "coordinates": {"latitude": 43.64627, "longitude": -79.39028}, "transactions": [], "price": "$$", "location": {"address1": "303 King Street W", "address2": null, "address3": "", "city": "Toronto", "zip_code": "M5V 1J5", "country": "CA", "state": "ON", "display_address": ["303 King Street W", "Toronto, ON M5V 1J5", "Canada"]}, "phone": "+14169799799", "display_phone": "+1 416-979-9799", "distance": 2730.186840819716}, {"id": "2lHLb0Hi_UtGa1Bne-jZuA", "alias": "hugs-and-sarcasm-toronto", "name": "Hugs and Sarcasm", "image_url": "https://s3-media4.fl.yelpcdn.com/bphoto/QG7D3Mp2q0Uj-WjeMqd3Rw/o.jpg", "is_closed": false, "url": "https://www.yelp.com/biz/hugs-and-sarcasm-toronto?adjust_creative=a2JdNtFqB-C38ga_06BHvw&utm_campaign=yelp_api_v3&utm_medium=api_v3_business_search&utm_source=a2JdNtFqB-C38ga_06BHvw", "review_count": 29, "categories": [{"alias": "sportsbars", "title": "Sports Bars"}, {"alias": "newcanadian", "title": "Canadian (New)"}], "rating": 4.0, "coordinates": {"latitude": 43.6457619092439, "longitude": -79.4104793334332}, "transactions": [], "price": "$$", "location": {"address1": "859 Queen Street W", "address2": "", "address3": "", "city": "Toronto", "zip_code": "M6J 1G5", "country": "CA", "state": "ON", "display_address": ["859 Queen Street W", "Toronto, ON M6J 1G5", "Canada"]}, "phone": "+16473524227", "display_phone": "+1 647-352-4227", "distance": 1585.1157639485307}, {"id": "nOu-pkyvRkRH-Cw3t00gyw", "alias": "the-football-factory-toronto", "name": "The Football Factory", "image_url": "https://s3-media4.fl.yelpcdn.com/bphoto/hsd1TaBN0JBnM-odQLXyWw/o.jpg", "is_closed": false, "url": "https://www.yelp.com/biz/the-football-factory-toronto?adjust_creative=a2JdNtFqB-C38ga_06BHvw&utm_campaign=yelp_api_v3&utm_medium=api_v3_business_search&utm_source=a2JdNtFqB-C38ga_06BHvw", "review_count": 43, "categories": [{"alias": "sportsbars", "title": "Sports Bars"}, {"alias": "tradamerican", "title": "American (Traditional)"}, {"alias": "beerbar", "title": "Beer Bar"}], "rating": 3.5, "coordinates": {"latitude": 43.6463209, "longitude": -79.4038606}, "transactions": [], "price": "$$", "location": {"address1": "164 Bathurst Street", "address2": "", "address3": "", "city": "Toronto", "zip_code": "M5V 2R3", "country": "CA", "state": "ON", "display_address": ["164 Bathurst Street", "Toronto, ON M5V 2R3", "Canada"]}, "phone": "+14163684625", "display_phone": "+1 416-368-4625", "distance": 1917.4624337500622}, {"id": "2_Vy2ybKXUKh21lM25IiKg", "alias": "ballaro-mission-lasagna-toronto-2", "name": "Ballaro Mission Lasagna", "image_url": "https://s3-media2.fl.yelpcdn.com/bphoto/Zs9ZQINM2ge-jja57v6mNw/o.jpg", "is_closed": false, "url": "https://www.yelp.com/biz/ballaro-mission-lasagna-toronto-2?adjust_creative=a2JdNtFqB-C38ga_06BHvw&utm_campaign=yelp_api_v3&utm_medium=api_v3_business_search&utm_source=a2JdNtFqB-C38ga_06BHvw", "review_count": 11, "categories": [{"alias": "italian", "title": "Italian"}, {"alias": "wine_bars", "title": "Wine Bars"}], "rating": 4.5, "coordinates": {"latitude": 43.65482, "longitude": -79.41497}, "transactions": [], "location": {"address1": "633 College Street", "address2": null, "address3": "", "city": "Toronto", "zip_code": "M6G 1B5", "country": "CA", "state": "ON", "display_address": ["633 College Street", "Toronto, ON M6G 1B5", "Canada"]}, "phone": "+16475703361", "display_phone": "+1 647-570-3361", "distance": 2467.1020063307346}, {"id": "gkAWemHxnnAawJ6CThOrvg", "alias": "ossington-stop-toronto", "name": "Ossington Stop", "image_url": "https://s3-media4.fl.yelpcdn.com/bphoto/je2qmU9UAkmzAdq0C5wHTA/o.jpg", "is_closed": false, "url": "https://www.yelp.com/biz/ossington-stop-toronto?adjust_creative=a2JdNtFqB-C38ga_06BHvw&utm_campaign=yelp_api_v3&utm_medium=api_v3_business_search&utm_source=a2JdNtFqB-C38ga_06BHvw", "review_count": 16, "categories": [{"alias": "pubs", "title": "Pubs"}, {"alias": "comfortfood", "title": "Comfort Food"}, {"alias": "russian", "title": "Russian"}], "rating": 4.0, "coordinates": {"latitude": 43.6495, "longitude": -79.42152}, "transactions": [], "price": "$$", "location": {"address1": "1164 Dundas Street W", "address2": "", "address3": "", "city": "Toronto", "zip_code": "M6J 1X4", "country": "CA", "state": "ON", "display_address": ["1164 Dundas Street W", "Toronto, ON M6J 1X4", "Canada"]}, "phone": "+14165373535", "display_phone": "+1 416-537-3535", "distance": 1870.0300824815333}, {"id": "qq2ntFbZAJs_kZ2MeHqYJg", "alias": "paris-paris-toronto", "name": "Paris Paris", "image_url": "https://s3-media2.fl.yelpcdn.com/bphoto/HJxymUfOEOXncJcIIQYA6A/o.jpg", "is_closed": false, "url": "https://www.yelp.com/biz/paris-paris-toronto?adjust_creative=a2JdNtFqB-C38ga_06BHvw&utm_campaign=yelp_api_v3&utm_medium=api_v3_business_search&utm_source=a2JdNtFqB-C38ga_06BHvw", "review_count": 42, "categories": [{"alias": "wine_bars", "title": "Wine Bars"}, {"alias": "newcanadian", "title": "Canadian (New)"}], "rating": 3.5, "coordinates": {"latitude": 43.64918, "longitude": -79.42145}, "transactions": [], "location": {"address1": "1161 Dundas Street West", "address2": "", "address3": null, "city": "Toronto", "zip_code": "M6J 1X3", "country": "CA", "state": "ON", "display_address": ["1161 Dundas Street West", "Toronto, ON M6J 1X3", "Canada"]}, "phone": "+14165355656", "display_phone": "+1 416-535-5656", "distance": 1836.2180479760866}, {"id": "f5iPbCVgv-2x00ZBoOwU7A", "alias": "mahjong-bar-toronto", "name": "Mahjong Bar", "image_url": "https://s3-media4.fl.yelpcdn.com/bphoto/a--ygxVgdW9ZBKZAxGIepw/o.jpg", "is_closed": false, "url": "https://www.yelp.com/biz/mahjong-bar-toronto?adjust_creative=a2JdNtFqB-C38ga_06BHvw&utm_campaign=yelp_api_v3&utm_medium=api_v3_business_search&utm_source=a2JdNtFqB-C38ga_06BHvw", "review_count": 45, "categories": [{"alias": "chinese", "title": "Chinese"}, {"alias": "tapasmallplates", "title": "Tapas/Small Plates"}, {"alias": "cocktailbars", "title": "Cocktail Bars"}], "rating": 3.5, "coordinates": {"latitude": 43.6496799, "longitude": -79.42514}, "transactions": [], "price": "$$", "location": {"address1": "1276 Dundas St W", "address2": "", "address3": null, "city": "Toronto", "zip_code": "M6J 1X7", "country": "CA", "state": "ON", "display_address": ["1276 Dundas St W", "Toronto, ON M6J 1X7", "Canada"]}, "phone": "+16479805664", "display_phone": "+1 647-980-5664", "distance": 1946.066586637201}, {"id": "Dgzrb9DTWozUcYOe4L9_FQ", "alias": "squirlys-toronto", "name": "Squirly's", "image_url": "https://s3-media2.fl.yelpcdn.com/bphoto/NpVk0hIhPbPR4pRZqDhqsQ/o.jpg", "is_closed": false, "url": "https://www.yelp.com/biz/squirlys-toronto?adjust_creative=a2JdNtFqB-C38ga_06BHvw&utm_campaign=yelp_api_v3&utm_medium=api_v3_business_search&utm_source=a2JdNtFqB-C38ga_06BHvw", "review_count": 53, "categories": [{"alias": "tradamerican", "title": "American (Traditional)"}, {"alias": "lounges", "title": "Lounges"}, {"alias": "cocktailbars", "title": "Cocktail Bars"}], "rating": 3.5, "coordinates": {"latitude": 43.646, "longitude": -79.40881}, "transactions": [], "price": "$$", "location": {"address1": "807 Queen Street W", "address2": "", "address3": "", "city": "Toronto", "zip_code": "M6J 1G1", "country": "CA", "state": "ON", "display_address": ["807 Queen Street W", "Toronto, ON M6J 1G1", "Canada"]}, "phone": "+14167030574", "display_phone": "+1 416-703-0574", "distance": 1674.2715532507211}, {"id": "v9P-qBwGI7Axt3-RwcjPQQ", "alias": "dublin-calling-toronto", "name": "Dublin Calling", "image_url": "https://s3-media4.fl.yelpcdn.com/bphoto/UjYa3I9BHLJh6Caj6RfZig/o.jpg", "is_closed": false, "url": "https://www.yelp.com/biz/dublin-calling-toronto?adjust_creative=a2JdNtFqB-C38ga_06BHvw&utm_campaign=yelp_api_v3&utm_medium=api_v3_business_search&utm_source=a2JdNtFqB-C38ga_06BHvw", "review_count": 25, "categories": [{"alias": "chicken_wings", "title": "Chicken Wings"}, {"alias": "burgers", "title": "Burgers"}, {"alias": "pubs", "title": "Pubs"}], "rating": 4.0, "coordinates": {"latitude": 43.64832, "longitude": -79.3891}, "transactions": [], "price": "$$$", "location": {"address1": "250 Adelaide Street West", "address2": "", "address3": "", "city": "Toronto", "zip_code": "M5H 1X6", "country": "CA", "state": "ON", "display_address": ["250 Adelaide Street West", "Toronto, ON M5H 1X6", "Canada"]}, "phone": "+16473441234", "display_phone": "+1 647-344-1234", "distance": 2930.3383116148157}, {"id": "drNhiiDfuWAbuGcK3or8IA", "alias": "moxies-grill-and-bar-toronto-4", "name": "Moxie's Grill & Bar", "image_url": "https://s3-media2.fl.yelpcdn.com/bphoto/M9moDmPVlbSZlhLvwnsZ7w/o.jpg", "is_closed": false, "url": "https://www.yelp.com/biz/moxies-grill-and-bar-toronto-4?adjust_creative=a2JdNtFqB-C38ga_06BHvw&utm_campaign=yelp_api_v3&utm_medium=api_v3_business_search&utm_source=a2JdNtFqB-C38ga_06BHvw", "review_count": 92, "categories": [{"alias": "lounges", "title": "Lounges"}, {"alias": "tradamerican", "title": "American (Traditional)"}, {"alias": "cocktailbars", "title": "Cocktail Bars"}], "rating": 3.0, "coordinates": {"latitude": 43.6464472846179, "longitude": -79.3843205981397}, "transactions": [], "price": "$$", "location": {"address1": "70 University Ave", "address2": "", "address3": "", "city": "Toronto", "zip_code": "M5J 2M4", "country": "CA", "state": "ON", "display_address": ["70 University Ave", "Toronto, ON M5J 2M4", "Canada"]}, "phone": "+16477487172", "display_phone": "+1 647-748-7172", "distance": 3150.3132551349936}, {"id": "aQraxJMS2wOJbcQpqtiHew", "alias": "lapinou-toronto", "name": "Lapinou", "image_url": "https://s3-media4.fl.yelpcdn.com/bphoto/VnTDk1yZtQ2EFfopBHLEpQ/o.jpg", "is_closed": false, "url": "https://www.yelp.com/biz/lapinou-toronto?adjust_creative=a2JdNtFqB-C38ga_06BHvw&utm_campaign=yelp_api_v3&utm_medium=api_v3_business_search&utm_source=a2JdNtFqB-C38ga_06BHvw", "review_count": 16, "categories": [{"alias": "french", "title": "French"}, {"alias": "wine_bars", "title": "Wine Bars"}], "rating": 4.0, "coordinates": {"latitude": 43.6444, "longitude": -79.40155}, "transactions": [], "location": {"address1": "642 King Street W", "address2": "", "address3": null, "city": "Toronto", "zip_code": "M5V 1M7", "country": "CA", "state": "ON", "display_address": ["642 King Street W", "Toronto, ON M5V 1M7", "Canada"]}, "phone": "+14164794414", "display_phone": "+1 416-479-4414", "distance": 1887.9376318610834}, {"id": "FySCzH9luG_S4gRcH-O-gg", "alias": "clandestino-wine-bar-toronto", "name": "Clandestino wine bar", "image_url": "https://s3-media4.fl.yelpcdn.com/bphoto/7K6fPl5OF8XUK21oRpZ-9g/o.jpg", "is_closed": false, "url": "https://www.yelp.com/biz/clandestino-wine-bar-toronto?adjust_creative=a2JdNtFqB-C38ga_06BHvw&utm_campaign=yelp_api_v3&utm_medium=api_v3_business_search&utm_source=a2JdNtFqB-C38ga_06BHvw", "review_count": 6, "categories": [{"alias": "pizza", "title": "Pizza"}, {"alias": "wine_bars", "title": "Wine Bars"}, {"alias": "italian", "title": "Italian"}], "rating": 5.0, "coordinates": {"latitude": 43.6397432129, "longitude": -79.4413259625}, "transactions": [], "location": {"address1": "1592 Queen Street W", "address2": null, "address3": "", "city": "Toronto", "zip_code": "M6R 1A8", "country": "CA", "state": "ON", "display_address": ["1592 Queen Street W", "Toronto, ON M6R 1A8", "Canada"]}, "phone": "+14167922494", "display_phone": "+1 416-792-2494", "distance": 1985.3030599565047}, {"id": "H7lBXlh-FJS2sUewEE0qwA", "alias": "bar-vendetta-toronto", "name": "Bar Vendetta", "image_url": "https://s3-media2.fl.yelpcdn.com/bphoto/-wABB43g4NpvIwY-kwWOAQ/o.jpg", "is_closed": false, "url": "https://www.yelp.com/biz/bar-vendetta-toronto?adjust_creative=a2JdNtFqB-C38ga_06BHvw&utm_campaign=yelp_api_v3&utm_medium=api_v3_business_search&utm_source=a2JdNtFqB-C38ga_06BHvw", "review_count": 8, "categories": [{"alias": "italian", "title": "Italian"}, {"alias": "wine_bars", "title": "Wine Bars"}], "rating": 4.5, "coordinates": {"latitude": 43.65098, "longitude": -79.41324}, "transactions": [], "location": {"address1": "928 Dundas Street W", "address2": "", "address3": null, "city": "Toronto", "zip_code": "M6J 1W3", "country": "CA", "state": "ON", "display_address": ["928 Dundas Street W", "Toronto, ON M6J 1W3", "Canada"]}, "phone": "+14165518854", "display_phone": "+1 416-551-8854", "distance": 2068.661653878597}, {"id": "z9BHVx8OLPCJGD4ogzR6Yg", "alias": "bar-poet-toronto-2", "name": "Bar Poet", "image_url": "https://s3-media3.fl.yelpcdn.com/bphoto/DIT5tWgz6nsTc5gFPqcI0Q/o.jpg", "is_closed": false, "url": "https://www.yelp.com/biz/bar-poet-toronto-2?adjust_creative=a2JdNtFqB-C38ga_06BHvw&utm_campaign=yelp_api_v3&utm_medium=api_v3_business_search&utm_source=a2JdNtFqB-C38ga_06BHvw", "review_count": 36, "categories": [{"alias": "pizza", "title": "Pizza"}, {"alias": "cocktailbars", "title": "Cocktail Bars"}], "rating": 3.5, "coordinates": {"latitude": 43.643732, "longitude": -79.4223358}, "transactions": [], "price": "$$", "location": {"address1": "1090 Queen Street W", "address2": "", "address3": null, "city": "Toronto", "zip_code": "M6J 1H7", "country": "CA", "state": "ON", "display_address": ["1090 Queen Street W", "Toronto, ON M6J 1H7", "Canada"]}, "phone": "+16473401090", "display_phone": "+1 647-340-1090", "distance": 1254.3680932191278}, {"id": "va7QuRicUp1Klt5dyCR7mg", "alias": "sotto-voce-wine-and-pasta-bar-toronto", "name": "Sotto Voce Wine & Pasta Bar", "image_url": "https://s3-media2.fl.yelpcdn.com/bphoto/y56XejBNPo04lmwaInXXIw/o.jpg", "is_closed": false, "url": "https://www.yelp.com/biz/sotto-voce-wine-and-pasta-bar-toronto?adjust_creative=a2JdNtFqB-C38ga_06BHvw&utm_campaign=yelp_api_v3&utm_medium=api_v3_business_search&utm_source=a2JdNtFqB-C38ga_06BHvw", "review_count": 23, "categories": [{"alias": "italian", "title": "Italian"}, {"alias": "wine_bars", "title": "Wine Bars"}], "rating": 3.5, "coordinates": {"latitude": 43.65511, "longitude": -79.41362}, "transactions": [], "price": "$$$", "location": {"address1": "595 College Street", "address2": "", "address3": "", "city": "Toronto", "zip_code": "M6G 1B2", "country": "CA", "state": "ON", "display_address": ["595 College Street", "Toronto, ON M6G 1B2", "Canada"]}, "phone": "+14165364564", "display_phone": "+1 416-536-4564", "distance": 2521.7253272421876}, {"id": "dUePqUU5pROUEPiWBau72A", "alias": "brazen-head-irish-pub-toronto", "name": "Brazen Head Irish Pub", "image_url": "https://s3-media2.fl.yelpcdn.com/bphoto/DIE24z-CZfRtG9SscFu5Kg/o.jpg", "is_closed": false, "url": "https://www.yelp.com/biz/brazen-head-irish-pub-toronto?adjust_creative=a2JdNtFqB-C38ga_06BHvw&utm_campaign=yelp_api_v3&utm_medium=api_v3_business_search&utm_source=a2JdNtFqB-C38ga_06BHvw", "review_count": 162, "categories": [{"alias": "irish", "title": "Irish"}, {"alias": "pubs", "title": "Pubs"}], "rating": 3.0, "coordinates": {"latitude": 43.638544, "longitude": -79.417144}, "transactions": [], "price": "$$", "location": {"address1": "165 E Liberty Street", "address2": "", "address3": "", "city": "Toronto", "zip_code": "M6K 3P6", "country": "CA", "state": "ON", "display_address": ["165 E Liberty Street", "Toronto, ON M6K 3P6", "Canada"]}, "phone": "+14165358787", "display_phone": "+1 416-535-8787", "distance": 651.9280967217904}, {"id": "_fWZH1p8B_lwK4feQgtWkQ", "alias": "ritz-bar-toronto-3", "name": "Ritz Bar", "image_url": "https://s3-media4.fl.yelpcdn.com/bphoto/kCKcOBfZphlMyMXYgU8OmA/o.jpg", "is_closed": false, "url": "https://www.yelp.com/biz/ritz-bar-toronto-3?adjust_creative=a2JdNtFqB-C38ga_06BHvw&utm_campaign=yelp_api_v3&utm_medium=api_v3_business_search&utm_source=a2JdNtFqB-C38ga_06BHvw", "review_count": 16, "categories": [{"alias": "international", "title": "International"}, {"alias": "cocktailbars", "title": "Cocktail Bars"}, {"alias": "musicvenues", "title": "Music Venues"}], "rating": 4.0, "coordinates": {"latitude": 43.6454885, "longitude": -79.3870238}, "transactions": [], "price": "$$", "location": {"address1": "181 Wellington Street W", "address2": "", "address3": "", "city": "Toronto", "zip_code": "M5V 3G7", "country": "CA", "state": "ON", "display_address": ["181 Wellington Street W", "Toronto, ON M5V 3G7", "Canada"]}, "phone": "+14165852500", "display_phone": "+1 416-585-2500", "distance": 2893.835495248234}, {"id": "uz6ZB-QsWqTjz6xgXy4fKA", "alias": "ascari-king-toronto", "name": "Ascari King", "image_url": "https://s3-media4.fl.yelpcdn.com/bphoto/PMWIxnwbN2oPr4fsW_YYTw/o.jpg", "is_closed": false, "url": "https://www.yelp.com/biz/ascari-king-toronto?adjust_creative=a2JdNtFqB-C38ga_06BHvw&utm_campaign=yelp_api_v3&utm_medium=api_v3_business_search&utm_source=a2JdNtFqB-C38ga_06BHvw", "review_count": 17, "categories": [{"alias": "wine_bars", "title": "Wine Bars"}, {"alias": "italian", "title": "Italian"}], "rating": 4.0, "coordinates": {"latitude": 43.6445600941281, "longitude": -79.4008001312613}, "transactions": [], "location": {"address1": "620 King Street W", "address2": "", "address3": null, "city": "Toronto", "zip_code": "M5V 1M5", "country": "CA", "state": "ON", "display_address": ["620 King Street W", "Toronto, ON M5V 1M5", "Canada"]}, "phone": "+14163663673", "display_phone": "+1 416-366-3673", "distance": 1941.8243896349957}, {"id": "Pkb75Ma72lVTiLQoqHQkqQ", "alias": "socialite-restaurant-and-bar-toronto-4", "name": "Socialite Restaurant & Bar", "image_url": "https://s3-media1.fl.yelpcdn.com/bphoto/y-N3d1NFzUxR3hINeSpmtw/o.jpg", "is_closed": false, "url": "https://www.yelp.com/biz/socialite-restaurant-and-bar-toronto-4?adjust_creative=a2JdNtFqB-C38ga_06BHvw&utm_campaign=yelp_api_v3&utm_medium=api_v3_business_search&utm_source=a2JdNtFqB-C38ga_06BHvw", "review_count": 17, "categories": [{"alias": "cocktailbars", "title": "Cocktail Bars"}, {"alias": "asianfusion", "title": "Asian Fusion"}], "rating": 4.0, "coordinates": {"latitude": 43.65677, "longitude": -79.40321}, "transactions": [], "price": "$$", "location": {"address1": "276 Augusta Avenue", "address2": null, "address3": "", "city": "Toronto", "zip_code": "M5T 2L9", "country": "CA", "state": "ON", "display_address": ["276 Augusta Avenue", "Toronto, ON M5T 2L9", "Canada"]}, "phone": "+16478962229", "display_phone": "+1 647-896-2229", "distance": 2947.455990635009}, {"id": "299zxPD5gd-mB00nBsKJuQ", "alias": "the-dizzy-toronto", "name": "The Dizzy", "image_url": "https://s3-media3.fl.yelpcdn.com/bphoto/Uk_GDcmzWCrDjC6Ax5Gg1g/o.jpg", "is_closed": false, "url": "https://www.yelp.com/biz/the-dizzy-toronto?adjust_creative=a2JdNtFqB-C38ga_06BHvw&utm_campaign=yelp_api_v3&utm_medium=api_v3_business_search&utm_source=a2JdNtFqB-C38ga_06BHvw", "review_count": 32, "categories": [{"alias": "pubs", "title": "Pubs"}, {"alias": "chicken_wings", "title": "Chicken Wings"}], "rating": 3.5, "coordinates": {"latitude": 43.64832, "longitude": -79.44954}, "transactions": [], "price": "$$", "location": {"address1": "305 Roncesvalles Avenue", "address2": "", "address3": "", "city": "Toronto", "zip_code": "M6R 2M6", "country": "CA", "state": "ON", "display_address": ["305 Roncesvalles Avenue", "Toronto, ON M6R 2M6", "Canada"]}, "phone": "+14165388484", "display_phone": "+1 416-538-8484", "distance": 3038.4879622049475}, {"id": "0W_ICY9MEOIyuZFdChwpnw", "alias": "dog-and-bear-pub-toronto", "name": "Dog & Bear Pub", "image_url": "https://s3-media2.fl.yelpcdn.com/bphoto/Nxu4bQ2CIoad1L3FjmZM1Q/o.jpg", "is_closed": false, "url": "https://www.yelp.com/biz/dog-and-bear-pub-toronto?adjust_creative=a2JdNtFqB-C38ga_06BHvw&utm_campaign=yelp_api_v3&utm_medium=api_v3_business_search&utm_source=a2JdNtFqB-C38ga_06BHvw", "review_count": 91, "categories": [{"alias": "sportsbars", "title": "Sports Bars"}, {"alias": "burgers", "title": "Burgers"}], "rating": 3.0, "coordinates": {"latitude": 43.6435202, "longitude": -79.4227982}, "transactions": [], "price": "$$", "location": {"address1": "1100 Queen Street W", "address2": "", "address3": "", "city": "Toronto", "zip_code": "M6J 1H9", "country": "CA", "state": "ON", "display_address": ["1100 Queen Street W", "Toronto, ON M6J 1H9", "Canada"]}, "phone": "+16473528601", "display_phone": "+1 647-352-8601", "distance": 1241.0941875029248}, {"id": "l7RCvKqA61Jzm98gaqIhvw", "alias": "brass-taps-pizza-pub-toronto-3", "name": "Brass Taps Pizza Pub", "image_url": "https://s3-media3.fl.yelpcdn.com/bphoto/2C7uNjKhOQtbF2SCGsZfaw/o.jpg", "is_closed": false, "url": "https://www.yelp.com/biz/brass-taps-pizza-pub-toronto-3?adjust_creative=a2JdNtFqB-C38ga_06BHvw&utm_campaign=yelp_api_v3&utm_medium=api_v3_business_search&utm_source=a2JdNtFqB-C38ga_06BHvw", "review_count": 36, "categories": [{"alias": "pizza", "title": "Pizza"}, {"alias": "pubs", "title": "Pubs"}], "rating": 3.5, "coordinates": {"latitude": 43.6539, "longitude": -79.42613}, "transactions": [], "price": "$$", "location": {"address1": "934 College St", "address2": "", "address3": "", "city": "Toronto", "zip_code": "M6H 1A4", "country": "CA", "state": "ON", "display_address": ["934 College St", "Toronto, ON M6H 1A4", "Canada"]}, "phone": "+14165334333", "display_phone": "+1 416-533-4333", "distance": 2418.390087904736}, {"id": "x0MaTw6He1w_1nddeSJU2Q", "alias": "the-roof-at-soco-toronto", "name": "The Roof at SOCO", "image_url": "https://s3-media4.fl.yelpcdn.com/bphoto/LTreDyhXdv9QHcI9bXf2mA/o.jpg", "is_closed": false, "url": "https://www.yelp.com/biz/the-roof-at-soco-toronto?adjust_creative=a2JdNtFqB-C38ga_06BHvw&utm_campaign=yelp_api_v3&utm_medium=api_v3_business_search&utm_source=a2JdNtFqB-C38ga_06BHvw", "review_count": 9, "categories": [{"alias": "newcanadian", "title": "Canadian (New)"}, {"alias": "cocktailbars", "title": "Cocktail Bars"}, {"alias": "wine_bars", "title": "Wine Bars"}], "rating": 4.5, "coordinates": {"latitude": 43.64303, "longitude": -79.38379}, "transactions": [], "location": {"address1": "75 Lower Simcoe Street", "address2": "Fourth Floor", "address3": "", "city": "Toronto", "zip_code": "M5J 3A6", "country": "CA", "state": "ON", "display_address": ["75 Lower Simcoe Street", "Fourth Floor", "Toronto, ON M5J 3A6", "Canada"]}, "phone": "+14166375465", "display_phone": "+1 416-637-5465", "distance": 3023.2005016076296}, {"id": "qcqDjeirxvdgW5kQVkEwSA", "alias": "the-red-room-toronto", "name": "The Red Room", "image_url": "https://s3-media1.fl.yelpcdn.com/bphoto/T_rgxBton_Gp6-ZgUfOw1w/o.jpg", "is_closed": false, "url": "https://www.yelp.com/biz/the-red-room-toronto?adjust_creative=a2JdNtFqB-C38ga_06BHvw&utm_campaign=yelp_api_v3&utm_medium=api_v3_business_search&utm_source=a2JdNtFqB-C38ga_06BHvw", "review_count": 134, "categories": [{"alias": "pubs", "title": "Pubs"}, {"alias": "newcanadian", "title": "Canadian (New)"}], "rating": 3.0, "coordinates": {"latitude": 43.65706, "longitude": -79.40011}, "transactions": [], "price": "$", "location": {"address1": "444 Spadina Avenue", "address2": "", "address3": "", "city": "Toronto", "zip_code": "M5T 2G8", "country": "CA", "state": "ON", "display_address": ["444 Spadina Avenue", "Toronto, ON M5T 2G8", "Canada"]}, "phone": "+14169299964", "display_phone": "+1 416-929-9964", "distance": 3082.580103620484}, {"id": "yYMwP50TlcH2ZFosXFJMOw", "alias": "bonafide-toronto-2", "name": "Bonafide", "image_url": "https://s3-media1.fl.yelpcdn.com/bphoto/qCB4bR-y9PydeH5NKVExCg/o.jpg", "is_closed": false, "url": "https://www.yelp.com/biz/bonafide-toronto-2?adjust_creative=a2JdNtFqB-C38ga_06BHvw&utm_campaign=yelp_api_v3&utm_medium=api_v3_business_search&utm_source=a2JdNtFqB-C38ga_06BHvw", "review_count": 10, "categories": [{"alias": "cocktailbars", "title": "Cocktail Bars"}, {"alias": "tapasmallplates", "title": "Tapas/Small Plates"}], "rating": 4.0, "coordinates": {"latitude": 43.6541320531879, "longitude": -79.4015169516206}, "transactions": [], "location": {"address1": "209 Augusta Avenue", "address2": "", "address3": null, "city": "Toronto", "zip_code": "M5T 2L4", "country": "CA", "state": "ON", "display_address": ["209 Augusta Avenue", "Toronto, ON M5T 2L4", "Canada"]}, "phone": "+16473521899", "display_phone": "+1 647-352-1899", "distance": 2744.0898872902444}, {"id": "Z8f5s3BsMzveANqdbFjXLg", "alias": "azure-restaurant-and-bar-toronto", "name": "Azure Restaurant & Bar", "image_url": "https://s3-media3.fl.yelpcdn.com/bphoto/kcxqg7-eBVC7o24FbcLKyw/o.jpg", "is_closed": false, "url": "https://www.yelp.com/biz/azure-restaurant-and-bar-toronto?adjust_creative=a2JdNtFqB-C38ga_06BHvw&utm_campaign=yelp_api_v3&utm_medium=api_v3_business_search&utm_source=a2JdNtFqB-C38ga_06BHvw", "review_count": 51, "categories": [{"alias": "newcanadian", "title": "Canadian (New)"}, {"alias": "cocktailbars", "title": "Cocktail Bars"}], "rating": 3.0, "coordinates": {"latitude": 43.644461, "longitude": -79.385485}, "transactions": [], "price": "$$$", "location": {"address1": "225 Front Street W", "address2": "", "address3": "", "city": "Toronto", "zip_code": "M5V 2X3", "country": "CA", "state": "ON", "display_address": ["225 Front Street W", "Toronto, ON M5V 2X3", "Canada"]}, "phone": "+14165978142", "display_phone": "+1 416-597-8142", "distance": 2965.425590228392}, {"id": "HPCKWBIpznvWSimdOKXoSQ", "alias": "marked-restaurant-toronto", "name": "MARKED Restaurant", "image_url": "https://s3-media1.fl.yelpcdn.com/bphoto/YBChNpnLX9FRRc6enh2J0Q/o.jpg", "is_closed": false, "url": "https://www.yelp.com/biz/marked-restaurant-toronto?adjust_creative=a2JdNtFqB-C38ga_06BHvw&utm_campaign=yelp_api_v3&utm_medium=api_v3_business_search&utm_source=a2JdNtFqB-C38ga_06BHvw", "review_count": 7, "categories": [{"alias": "cocktailbars", "title": "Cocktail Bars"}, {"alias": "seafood", "title": "Seafood"}, {"alias": "tradamerican", "title": "American (Traditional)"}], "rating": 4.5, "coordinates": {"latitude": 43.6486087, "longitude": -79.3908633}, "transactions": [], "location": {"address1": "132 John Street", "address2": null, "address3": "", "city": "Toronto", "zip_code": "M5V 2E3", "country": "CA", "state": "ON", "display_address": ["132 John Street", "Toronto, ON M5V 2E3", "Canada"]}, "phone": "+16476607948", "display_phone": "+1 647-660-7948", "distance": 2813.4952225328143}, {"id": "y7lhU3dl8cSvIOgKVrKGlw", "alias": "grand-cru-deli-toronto", "name": "Grand Cru Deli", "image_url": "https://s3-media4.fl.yelpcdn.com/bphoto/yXMfS7YjQNT2zO9SawvtgQ/o.jpg", "is_closed": false, "url": "https://www.yelp.com/biz/grand-cru-deli-toronto?adjust_creative=a2JdNtFqB-C38ga_06BHvw&utm_campaign=yelp_api_v3&utm_medium=api_v3_business_search&utm_source=a2JdNtFqB-C38ga_06BHvw", "review_count": 10, "categories": [{"alias": "wine_bars", "title": "Wine Bars"}, {"alias": "delis", "title": "Delis"}, {"alias": "breakfast_brunch", "title": "Breakfast & Brunch"}], "rating": 4.0, "coordinates": {"latitude": 43.64907, "longitude": -79.39168}, "transactions": [], "location": {"address1": "304 Richmond St W", "address2": null, "address3": "", "city": "Toronto", "zip_code": "M5V 1X2", "country": "CA", "state": "ON", "display_address": ["304 Richmond St W", "Toronto, ON M5V 1X2", "Canada"]}, "phone": "+14165519221", "display_phone": "+1 416-551-9221", "distance": 2832.174366518511}, {"id": "dryad6tDgaGc-WsUUgPbfw", "alias": "st-louis-bar-and-grill-toronto-9", "name": "St Louis Bar and Grill", "image_url": "https://s3-media1.fl.yelpcdn.com/bphoto/gvLj9gJqxKMCRBXTfUiOxw/o.jpg", "is_closed": false, "url": "https://www.yelp.com/biz/st-louis-bar-and-grill-toronto-9?adjust_creative=a2JdNtFqB-C38ga_06BHvw&utm_campaign=yelp_api_v3&utm_medium=api_v3_business_search&utm_source=a2JdNtFqB-C38ga_06BHvw", "review_count": 59, "categories": [{"alias": "chicken_wings", "title": "Chicken Wings"}, {"alias": "sportsbars", "title": "Sports Bars"}], "rating": 3.0, "coordinates": {"latitude": 43.6562198, "longitude": -79.3832909}, "transactions": [], "price": "$$", "location": {"address1": "595 Bay Street", "address2": "#A09", "address3": "", "city": "Toronto", "zip_code": "M5G 2R3", "country": "CA", "state": "ON", "display_address": ["595 Bay Street", "#A09", "Toronto, ON M5G 2R3", "Canada"]}, "phone": "+16474359464", "display_phone": "+1 647-435-9464", "distance": 3856.352470453875}, {"id": "N66tW8NhIBR--sjdcwsr3Q", "alias": "round-the-horn-toronto", "name": "Round the Horn", "image_url": "https://s3-media2.fl.yelpcdn.com/bphoto/qYt9ChJdGSWD7Y3B5TtghQ/o.jpg", "is_closed": false, "url": "https://www.yelp.com/biz/round-the-horn-toronto?adjust_creative=a2JdNtFqB-C38ga_06BHvw&utm_campaign=yelp_api_v3&utm_medium=api_v3_business_search&utm_source=a2JdNtFqB-C38ga_06BHvw", "review_count": 15, "categories": [{"alias": "hotdog", "title": "Hot Dogs"}, {"alias": "sportsbars", "title": "Sports Bars"}, {"alias": "beerbar", "title": "Beer Bar"}], "rating": 3.5, "coordinates": {"latitude": 43.6491941550031, "longitude": -79.4499439001083}, "transactions": [], "price": "$", "location": {"address1": "331 Roncesvalles Avenue", "address2": "", "address3": "", "city": "Toronto", "zip_code": "M6R 2M8", "country": "CA", "state": "ON", "display_address": ["331 Roncesvalles Avenue", "Toronto, ON M6R 2M8", "Canada"]}, "phone": "+14167852123", "display_phone": "+1 416-785-2123", "distance": 3112.7457702633565}, {"id": "JePdoHGJ2kWRQkfGx0T34Q", "alias": "churrasqueira-do-sardinha-toronto-2", "name": "Churrasqueira Do Sardinha", "image_url": "https://s3-media2.fl.yelpcdn.com/bphoto/d-pb0rgqUY5yKKE5Hx7NGA/o.jpg", "is_closed": false, "url": "https://www.yelp.com/biz/churrasqueira-do-sardinha-toronto-2?adjust_creative=a2JdNtFqB-C38ga_06BHvw&utm_campaign=yelp_api_v3&utm_medium=api_v3_business_search&utm_source=a2JdNtFqB-C38ga_06BHvw", "review_count": 18, "categories": [{"alias": "portuguese", "title": "Portuguese"}, {"alias": "french", "title": "French"}, {"alias": "wine_bars", "title": "Wine Bars"}], "rating": 3.5, "coordinates": {"latitude": 43.65506, "longitude": -79.41808}, "transactions": [], "price": "$", "location": {"address1": "707 College Street W", "address2": "", "address3": "", "city": "Toronto", "zip_code": "M6G 1C2", "country": "CA", "state": "ON", "display_address": ["707 College Street W", "Toronto, ON M6G 1C2", "Canada"]}, "phone": "+14165311120", "display_phone": "+1 416-531-1120", "distance": 2479.6295316674336}, {"id": "v2IxKgoE2lN77hx3x_MUtQ", "alias": "laissez-faire-toronto", "name": "Laissez Faire", "image_url": "https://s3-media3.fl.yelpcdn.com/bphoto/J4uPVXNCjX8lOErgeSJ6Tw/o.jpg", "is_closed": false, "url": "https://www.yelp.com/biz/laissez-faire-toronto?adjust_creative=a2JdNtFqB-C38ga_06BHvw&utm_campaign=yelp_api_v3&utm_medium=api_v3_business_search&utm_source=a2JdNtFqB-C38ga_06BHvw", "review_count": 13, "categories": [{"alias": "cocktailbars", "title": "Cocktail Bars"}, {"alias": "french", "title": "French"}, {"alias": "seafood", "title": "Seafood"}], "rating": 3.5, "coordinates": {"latitude": 43.6442885851163, "longitude": -79.4005209061461}, "transactions": [], "location": {"address1": "589 King Street W", "address2": "", "address3": null, "city": "Toronto", "zip_code": "M5V 1M5", "country": "CA", "state": "ON", "display_address": ["589 King Street W", "Toronto, ON M5V 1M5", "Canada"]}, "phone": "", "display_phone": "", "distance": 1938.4050251601311}, {"id": "GN4giapad7mI9PqWCQcqWQ", "alias": "alchemy-food-and-drink-toronto", "name": "Alchemy Food & Drink", "image_url": "https://s3-media3.fl.yelpcdn.com/bphoto/3wtVp5EzGAC69O5dDwpOEA/o.jpg", "is_closed": false, "url": "https://www.yelp.com/biz/alchemy-food-and-drink-toronto?adjust_creative=a2JdNtFqB-C38ga_06BHvw&utm_campaign=yelp_api_v3&utm_medium=api_v3_business_search&utm_source=a2JdNtFqB-C38ga_06BHvw", "review_count": 12, "categories": [{"alias": "cocktailbars", "title": "Cocktail Bars"}, {"alias": "wine_bars", "title": "Wine Bars"}, {"alias": "burgers", "title": "Burgers"}], "rating": 4.0, "coordinates": {"latitude": 43.65407, "longitude": -79.42505}, "transactions": [], "price": "$$", "location": {"address1": "890 College Street", "address2": "", "address3": null, "city": "Toronto", "zip_code": "M6H 1A3", "country": "CA", "state": "ON", "display_address": ["890 College Street", "Toronto, ON M6H 1A3", "Canada"]}, "phone": "+14165304082", "display_phone": "+1 416-530-4082", "distance": 2425.2993959259165}, {"id": "2vBo1wWJckBnGOHhxt9ecg", "alias": "st-louis-bar-and-grill-toronto-5", "name": "St Louis Bar and Grill", "image_url": "https://s3-media3.fl.yelpcdn.com/bphoto/ao7OAfoWVEyGeJJ2z9h0Sg/o.jpg", "is_closed": false, "url": "https://www.yelp.com/biz/st-louis-bar-and-grill-toronto-5?adjust_creative=a2JdNtFqB-C38ga_06BHvw&utm_campaign=yelp_api_v3&utm_medium=api_v3_business_search&utm_source=a2JdNtFqB-C38ga_06BHvw", "review_count": 87, "categories": [{"alias": "chicken_wings", "title": "Chicken Wings"}, {"alias": "sportsbars", "title": "Sports Bars"}], "rating": 2.5, "coordinates": {"latitude": 43.64053846134808, "longitude": -79.39045419}, "transactions": [], "price": "$$", "location": {"address1": "313 Bremner Boulevard", "address2": "", "address3": "", "city": "Toronto", "zip_code": "M5V 3V3", "country": "CA", "state": "ON", "display_address": ["313 Bremner Boulevard", "Toronto, ON M5V 3V3", "Canada"]}, "phone": "+14168838983", "display_phone": "+1 416-883-8983", "distance": 2424.6721532819506}, {"id": "Aq4bCSpn6rWRNDWfHh2WfA", "alias": "hooters-toronto-3", "name": "Hooters", "image_url": "https://s3-media2.fl.yelpcdn.com/bphoto/iN2zt7WIWfUjjONRxPzDhQ/o.jpg", "is_closed": false, "url": "https://www.yelp.com/biz/hooters-toronto-3?adjust_creative=a2JdNtFqB-C38ga_06BHvw&utm_campaign=yelp_api_v3&utm_medium=api_v3_business_search&utm_source=a2JdNtFqB-C38ga_06BHvw", "review_count": 95, "categories": [{"alias": "sportsbars", "title": "Sports Bars"}, {"alias": "tradamerican", "title": "American (Traditional)"}, {"alias": "chicken_wings", "title": "Chicken Wings"}], "rating": 2.5, "coordinates": {"latitude": 43.64804, "longitude": -79.3905599}, "transactions": [], "location": {"address1": "280 Adelaide Street W", "address2": null, "address3": null, "city": "Toronto", "zip_code": "M5V 1P6", "country": "CA", "state": "ON", "display_address": ["280 Adelaide Street W", "Toronto, ON M5V 1P6", "Canada"]}, "phone": "+14169774668", "display_phone": "+1 416-977-4668", "distance": 2823.262486213122}, {"id": "rkssUq0wCU51zqHS5VZ7bg", "alias": "bella-vista-trattoria-and-wine-bar-toronto", "name": "Bella Vista Trattoria & Wine Bar", "image_url": "https://s3-media2.fl.yelpcdn.com/bphoto/XqynDq5DbsW8UwESB3UCmA/o.jpg", "is_closed": false, "url": "https://www.yelp.com/biz/bella-vista-trattoria-and-wine-bar-toronto?adjust_creative=a2JdNtFqB-C38ga_06BHvw&utm_campaign=yelp_api_v3&utm_medium=api_v3_business_search&utm_source=a2JdNtFqB-C38ga_06BHvw", "review_count": 21, "categories": [{"alias": "italian", "title": "Italian"}, {"alias": "wine_bars", "title": "Wine Bars"}], "rating": 3.0, "coordinates": {"latitude": 43.6551859, "longitude": -79.4164775}, "transactions": [], "price": "$$", "location": {"address1": "660 College Street", "address2": "", "address3": "", "city": "Toronto", "zip_code": "M6G 1B8", "country": "CA", "state": "ON", "display_address": ["660 College Street", "Toronto, ON M6G 1B8", "Canada"]}, "phone": "+14165322518", "display_phone": "+1 416-532-2518", "distance": 2497.549101338787}, {"id": "VAE8gdXm7JAml0CLTs3kNA", "alias": "o-gradys-tap-and-grill-toronto-2", "name": "O'Grady's Tap & Grill", "image_url": "https://s3-media4.fl.yelpcdn.com/bphoto/jDipIirJH0ypukrmaXEdLg/o.jpg", "is_closed": false, "url": "https://www.yelp.com/biz/o-gradys-tap-and-grill-toronto-2?adjust_creative=a2JdNtFqB-C38ga_06BHvw&utm_campaign=yelp_api_v3&utm_medium=api_v3_business_search&utm_source=a2JdNtFqB-C38ga_06BHvw", "review_count": 46, "categories": [{"alias": "pubs", "title": "Pubs"}, {"alias": "irish", "title": "Irish"}], "rating": 2.5, "coordinates": {"latitude": 43.65888, "longitude": -79.39376}, "transactions": [], "price": "$$", "location": {"address1": "171 College Street", "address2": "", "address3": "", "city": "Toronto", "zip_code": "M5T 1P7", "country": "CA", "state": "ON", "display_address": ["171 College Street", "Toronto, ON M5T 1P7", "Canada"]}, "phone": "+14165960327", "display_phone": "+1 416-596-0327", "distance": 3526.027754576948}, {"id": "OQ9rVtBEFFI4jkdEo9AoRg", "alias": "loons-restaurant-and-pub-toronto", "name": "Loons Restaurant & Pub", "image_url": "https://s3-media4.fl.yelpcdn.com/bphoto/mqjrgreMC8awjQPMta3zRw/o.jpg", "is_closed": false, "url": "https://www.yelp.com/biz/loons-restaurant-and-pub-toronto?adjust_creative=a2JdNtFqB-C38ga_06BHvw&utm_campaign=yelp_api_v3&utm_medium=api_v3_business_search&utm_source=a2JdNtFqB-C38ga_06BHvw", "review_count": 28, "categories": [{"alias": "pubs", "title": "Pubs"}, {"alias": "tradamerican", "title": "American (Traditional)"}], "rating": 3.0, "coordinates": {"latitude": 43.6517304, "longitude": -79.4512596}, "transactions": [], "price": "$$", "location": {"address1": "416 Roncesvalles Avenue", "address2": "", "address3": "", "city": "Toronto", "zip_code": "M6R 2N2", "country": "CA", "state": "ON", "display_address": ["416 Roncesvalles Avenue", "Toronto, ON M6R 2N2", "Canada"]}, "phone": "+14165358561", "display_phone": "+1 416-535-8561", "distance": 3367.9528123531263}, {"id": "1laaO5PS8fLK5kPTkSSYsw", "alias": "shoeless-joes-sports-grill-queens-quay-toronto", "name": "Shoeless Joe's Sports Grill - Queens Quay", "image_url": "https://s3-media3.fl.yelpcdn.com/bphoto/qOZRs3vLRpe8vFPwr7xXvg/o.jpg", "is_closed": false, "url": "https://www.yelp.com/biz/shoeless-joes-sports-grill-queens-quay-toronto?adjust_creative=a2JdNtFqB-C38ga_06BHvw&utm_campaign=yelp_api_v3&utm_medium=api_v3_business_search&utm_source=a2JdNtFqB-C38ga_06BHvw", "review_count": 71, "categories": [{"alias": "sportsbars", "title": "Sports Bars"}, {"alias": "burgers", "title": "Burgers"}, {"alias": "beerbar", "title": "Beer Bar"}], "rating": 2.5, "coordinates": {"latitude": 43.638802322405, "longitude": -79.385933508234}, "transactions": [], "price": "$$", "location": {"address1": "249 Queen's Quay W", "address2": "Unit #3", "address3": "", "city": "Toronto", "zip_code": "M5J 1B5", "country": "CA", "state": "ON", "display_address": ["249 Queen's Quay W", "Unit #3", "Toronto, ON M5J 1B5", "Canada"]}, "phone": "+14169157478", "display_phone": "+1 416-915-7478", "distance": 2713.7382442717167}, {"id": "jlWq2P2LPmlmksvD6qfmkw", "alias": "barkada-toronto", "name": "Bar'kada", "image_url": "https://s3-media4.fl.yelpcdn.com/bphoto/oBbHgrzuLBuOrRIXmFceHA/o.jpg", "is_closed": false, "url": "https://www.yelp.com/biz/barkada-toronto?adjust_creative=a2JdNtFqB-C38ga_06BHvw&utm_campaign=yelp_api_v3&utm_medium=api_v3_business_search&utm_source=a2JdNtFqB-C38ga_06BHvw", "review_count": 3, "categories": [{"alias": "wine_bars", "title": "Wine Bars"}, {"alias": "filipino", "title": "Filipino"}, {"alias": "sandwiches", "title": "Sandwiches"}], "rating": 5.0, "coordinates": {"latitude": 43.64642, "longitude": -79.4071}, "transactions": [], "location": {"address1": "745 Queen Street W", "address2": null, "address3": "", "city": "Toronto", "zip_code": "M6J 1G1", "country": "CA", "state": "ON", "display_address": ["745 Queen Street W", "Toronto, ON M6J 1G1", "Canada"]}, "phone": "+14165518889", "display_phone": "+1 416-551-8889", "distance": 1769.0639210675813}, {"id": "7SWxyKTnJv0jtsfbhIgDLg", "alias": "pompette-toronto", "name": "Pompette", "image_url": "https://s3-media3.fl.yelpcdn.com/bphoto/TBGgkv6TfzItMSR32udAkQ/o.jpg", "is_closed": false, "url": "https://www.yelp.com/biz/pompette-toronto?adjust_creative=a2JdNtFqB-C38ga_06BHvw&utm_campaign=yelp_api_v3&utm_medium=api_v3_business_search&utm_source=a2JdNtFqB-C38ga_06BHvw", "review_count": 3, "categories": [{"alias": "cocktailbars", "title": "Cocktail Bars"}, {"alias": "french", "title": "French"}], "rating": 5.0, "coordinates": {"latitude": 43.65503, "longitude": -79.41394}, "transactions": [], "location": {"address1": "597 College Street", "address2": "", "address3": null, "city": "Toronto", "zip_code": "M6G 1B5", "country": "CA", "state": "ON", "display_address": ["597 College Street", "Toronto, ON M6G 1B5", "Canada"]}, "phone": "+14165161111", "display_phone": "+1 416-516-1111", "distance": 2500.4199622330602}, {"id": "5inVqvqbVXZ5nrv9rJY-kA", "alias": "nice-nice-x-extra-burger-toronto", "name": "Nice Nice x Extra Burger", "image_url": "", "is_closed": false, "url": "https://www.yelp.com/biz/nice-nice-x-extra-burger-toronto?adjust_creative=a2JdNtFqB-C38ga_06BHvw&utm_campaign=yelp_api_v3&utm_medium=api_v3_business_search&utm_source=a2JdNtFqB-C38ga_06BHvw", "review_count": 3, "categories": [{"alias": "wine_bars", "title": "Wine Bars"}, {"alias": "burgers", "title": "Burgers"}], "rating": 5.0, "coordinates": {"latitude": 43.64092, "longitude": -79.43428}, "transactions": [], "location": {"address1": "269 Dunn Avenue", "address2": "", "address3": null, "city": "Toronto", "zip_code": "M6K 2S1", "country": "CA", "state": "ON", "display_address": ["269 Dunn Avenue", "Toronto, ON M6K 2S1", "Canada"]}, "phone": "", "display_phone": "", "distance": 1543.0824369833213}, {"id": "dUDeWLhvHtF1mvAX7GCr5g", "alias": "xango-toronto", "name": "Xango", "image_url": "https://s3-media1.fl.yelpcdn.com/bphoto/cB-eQDe_Cs4EkX5383cQhg/o.jpg", "is_closed": false, "url": "https://www.yelp.com/biz/xango-toronto?adjust_creative=a2JdNtFqB-C38ga_06BHvw&utm_campaign=yelp_api_v3&utm_medium=api_v3_business_search&utm_source=a2JdNtFqB-C38ga_06BHvw", "review_count": 9, "categories": [{"alias": "latin", "title": "Latin American"}, {"alias": "cocktailbars", "title": "Cocktail Bars"}, {"alias": "japanese", "title": "Japanese"}], "rating": 3.5, "coordinates": {"latitude": 43.64492, "longitude": -79.39616}, "transactions": [], "location": {"address1": "461 King Street W", "address2": null, "address3": "", "city": "Toronto", "zip_code": "M5V 1K4", "country": "CA", "state": "ON", "display_address": ["461 King Street W", "Toronto, ON M5V 1K4", "Canada"]}, "phone": "+14165984730", "display_phone": "+1 416-598-4730", "distance": 2229.4586671340267}, {"id": "cRuk2y-LeWL42UVEkLVU3A", "alias": "bnb-toronto-2", "name": "BnB", "image_url": "https://s3-media3.fl.yelpcdn.com/bphoto/CKvDQRGraaC4e2mm0TjaRQ/o.jpg", "is_closed": false, "url": "https://www.yelp.com/biz/bnb-toronto-2?adjust_creative=a2JdNtFqB-C38ga_06BHvw&utm_campaign=yelp_api_v3&utm_medium=api_v3_business_search&utm_source=a2JdNtFqB-C38ga_06BHvw", "review_count": 32, "categories": [{"alias": "tradamerican", "title": "American (Traditional)"}, {"alias": "burgers", "title": "Burgers"}, {"alias": "pubs", "title": "Pubs"}], "rating": 2.5, "coordinates": {"latitude": 43.6514, "longitude": -79.38312}, "transactions": [], "price": "$$", "location": {"address1": "123 Queen Street West", "address2": "", "address3": "", "city": "Toronto", "zip_code": "M5H 2M9", "country": "CA", "state": "ON", "display_address": ["123 Queen Street West", "Toronto, ON M5H 2M9", "Canada"]}, "phone": "+14163616363", "display_phone": "+1 416-361-6363", "distance": 3443.8049482229117}, {"id": "7sTYnCrftf2IG0-4x3CDeA", "alias": "reyna-toronto", "name": "Reyna", "image_url": "https://s3-media3.fl.yelpcdn.com/bphoto/3YerSCTtQB_lZ9ibDVyyxQ/o.jpg", "is_closed": false, "url": "https://www.yelp.com/biz/reyna-toronto?adjust_creative=a2JdNtFqB-C38ga_06BHvw&utm_campaign=yelp_api_v3&utm_medium=api_v3_business_search&utm_source=a2JdNtFqB-C38ga_06BHvw", "review_count": 10, "categories": [{"alias": "mediterranean", "title": "Mediterranean"}, {"alias": "cocktailbars", "title": "Cocktail Bars"}], "rating": 3.5, "coordinates": {"latitude": 43.65035, "longitude": -79.38378}, "transactions": [], "price": "$$", "location": {"address1": "111 Richmond Street W", "address2": "", "address3": null, "city": "Toronto", "zip_code": "M5H 3K6", "country": "CA", "state": "ON", "display_address": ["111 Richmond Street W", "Toronto, ON M5H 3K6", "Canada"]}, "phone": "+16477484464", "display_phone": "+1 647-748-4464", "distance": 3415.788061346011}, {"id": "o4qvY-ylQs_iktoEJkHoOA", "alias": "bar-piquette-toronto", "name": "Bar Piquette", "image_url": "https://s3-media1.fl.yelpcdn.com/bphoto/IM8xRPUUEQXO-iQClpCz9A/o.jpg", "is_closed": false, "url": "https://www.yelp.com/biz/bar-piquette-toronto?adjust_creative=a2JdNtFqB-C38ga_06BHvw&utm_campaign=yelp_api_v3&utm_medium=api_v3_business_search&utm_source=a2JdNtFqB-C38ga_06BHvw", "review_count": 5, "categories": [{"alias": "wine_bars", "title": "Wine Bars"}, {"alias": "tapasmallplates", "title": "Tapas/Small Plates"}], "rating": 4.0, "coordinates": {"latitude": 43.64373, "longitude": -79.42199}, "transactions": [], "location": {"address1": "1084 Queen Street W", "address2": "", "address3": null, "city": "Toronto", "zip_code": "M6J 1H8", "country": "CA", "state": "ON", "display_address": ["1084 Queen Street W", "Toronto, ON M6J 1H8", "Canada"]}, "phone": "+14165337745", "display_phone": "+1 416-533-7745", "distance": 1245.2062501034334}, {"id": "_Ar0rDN_xp9chIrCfRQ6vw", "alias": "ruby-soho-toronto", "name": "Ruby Soho ", "image_url": "https://s3-media2.fl.yelpcdn.com/bphoto/j42m_QH8mq9kJsA6eKXC2g/o.jpg", "is_closed": false, "url": "https://www.yelp.com/biz/ruby-soho-toronto?adjust_creative=a2JdNtFqB-C38ga_06BHvw&utm_campaign=yelp_api_v3&utm_medium=api_v3_business_search&utm_source=a2JdNtFqB-C38ga_06BHvw", "review_count": 4, "categories": [{"alias": "tradamerican", "title": "American (Traditional)"}, {"alias": "pubs", "title": "Pubs"}], "rating": 4.5, "coordinates": {"latitude": 43.64423, "longitude": -79.40015}, "transactions": [], "location": {"address1": "587 King St W", "address2": null, "address3": "", "city": "Toronto", "zip_code": "M5V 1M5", "country": "CA", "state": "ON", "display_address": ["587 King St W", "Toronto, ON M5V 1M5", "Canada"]}, "phone": "+14169017829", "display_phone": "+1 416-901-7829", "distance": 1953.0554974876409}, {"id": "uYko1SzZ9XpTXS-F5xnAdA", "alias": "817-sports-bar-and-grill-toronto-4", "name": "817 Sports Bar & Grill", "image_url": "https://s3-media1.fl.yelpcdn.com/bphoto/EyGTy0bqHIhOC1tXQiz1ZA/o.jpg", "is_closed": false, "url": "https://www.yelp.com/biz/817-sports-bar-and-grill-toronto-4?adjust_creative=a2JdNtFqB-C38ga_06BHvw&utm_campaign=yelp_api_v3&utm_medium=api_v3_business_search&utm_source=a2JdNtFqB-C38ga_06BHvw", "review_count": 8, "categories": [{"alias": "sportsbars", "title": "Sports Bars"}, {"alias": "chicken_wings", "title": "Chicken Wings"}, {"alias": "poutineries", "title": "Poutineries"}], "rating": 3.5, "coordinates": {"latitude": 43.64595, "longitude": -79.4091}, "transactions": [], "location": {"address1": "817 Queen Street W", "address2": null, "address3": "", "city": "Toronto", "zip_code": "M6J 1G1", "country": "CA", "state": "ON", "display_address": ["817 Queen Street W", "Toronto, ON M6J 1G1", "Canada"]}, "phone": "+16477482739", "display_phone": "+1 647-748-2739", "distance": 1656.4961671371816}, {"id": "vgaOy7n8BQFkPb0wzNX9eA", "alias": "lucky-clover-sports-pub-toronto", "name": "Lucky Clover Sports Pub", "image_url": "https://s3-media2.fl.yelpcdn.com/bphoto/IW64fN1KTWzcp5COHD-Nsg/o.jpg", "is_closed": false, "url": "https://www.yelp.com/biz/lucky-clover-sports-pub-toronto?adjust_creative=a2JdNtFqB-C38ga_06BHvw&utm_campaign=yelp_api_v3&utm_medium=api_v3_business_search&utm_source=a2JdNtFqB-C38ga_06BHvw", "review_count": 54, "categories": [{"alias": "sportsbars", "title": "Sports Bars"}, {"alias": "irish", "title": "Irish"}], "rating": 2.0, "coordinates": {"latitude": 43.64125, "longitude": -79.38324}, "transactions": [], "price": "$$", "location": {"address1": "17 Lower Simcoe", "address2": "", "address3": "", "city": "Toronto", "zip_code": "M5V 3L9", "country": "CA", "state": "ON", "display_address": ["17 Lower Simcoe", "Toronto, ON M5V 3L9", "Canada"]}, "phone": "+16473485825", "display_phone": "+1 647-348-5825", "distance": 2998.7062347619817}, {"id": "fiLcl_-nQAq0LSGdviznJA", "alias": "long-time-no-see-toronto-5", "name": "Long Time No See", "image_url": "https://s3-media3.fl.yelpcdn.com/bphoto/K8GDnJ2Kn_5UAvvZF-qjhA/o.jpg", "is_closed": false, "url": "https://www.yelp.com/biz/long-time-no-see-toronto-5?adjust_creative=a2JdNtFqB-C38ga_06BHvw&utm_campaign=yelp_api_v3&utm_medium=api_v3_business_search&utm_source=a2JdNtFqB-C38ga_06BHvw", "review_count": 12, "categories": [{"alias": "bbq", "title": "Barbeque"}, {"alias": "pubs", "title": "Pubs"}, {"alias": "chinese", "title": "Chinese"}], "rating": 3.0, "coordinates": {"latitude": 43.65318, "longitude": -79.39524}, "transactions": [], "price": "$$", "location": {"address1": "421 Dundas Street W", "address2": null, "address3": "", "city": "Toronto", "zip_code": "M5T 2W4", "country": "CA", "state": "ON", "display_address": ["421 Dundas Street W", "Toronto, ON M5T 2W4", "Canada"]}, "phone": "+14168488887", "display_phone": "+1 416-848-8887", "distance": 2943.4078974479}, {"id": "OiGE6LfCYJn2bJRBIebnoQ", "alias": "goldie-toronto", "name": "Goldie", "image_url": "https://s3-media1.fl.yelpcdn.com/bphoto/SL6BNFuWVYTtZI6zCrcDbg/o.jpg", "is_closed": false, "url": "https://www.yelp.com/biz/goldie-toronto?adjust_creative=a2JdNtFqB-C38ga_06BHvw&utm_campaign=yelp_api_v3&utm_medium=api_v3_business_search&utm_source=a2JdNtFqB-C38ga_06BHvw", "review_count": 18, "categories": [{"alias": "cocktailbars", "title": "Cocktail Bars"}, {"alias": "lounges", "title": "Lounges"}, {"alias": "tapas", "title": "Tapas Bars"}], "rating": 2.5, "coordinates": {"latitude": 43.64401, "longitude": -79.40101}, "transactions": [], "price": "$$", "location": {"address1": "619 King Street W", "address2": "", "address3": null, "city": "Toronto", "zip_code": "M5V 1M5", "country": "CA", "state": "ON", "display_address": ["619 King Street W", "Toronto, ON M5V 1M5", "Canada"]}, "phone": "+14162143180", "display_phone": "+1 416-214-3180", "distance": 1889.0424809341985}, {"id": "0dyd0nX-42VW1QQEoJq1TQ", "alias": "nossa-casa-sports-cafe-toronto", "name": "Nossa Casa Sports Cafe", "image_url": "https://s3-media3.fl.yelpcdn.com/bphoto/CSutKp07VYTzdCiqH8i4IA/o.jpg", "is_closed": false, "url": "https://www.yelp.com/biz/nossa-casa-sports-cafe-toronto?adjust_creative=a2JdNtFqB-C38ga_06BHvw&utm_campaign=yelp_api_v3&utm_medium=api_v3_business_search&utm_source=a2JdNtFqB-C38ga_06BHvw", "review_count": 3, "categories": [{"alias": "sportsbars", "title": "Sports Bars"}, {"alias": "sandwiches", "title": "Sandwiches"}], "rating": 4.5, "coordinates": {"latitude": 43.64933, "longitude": -79.42644}, "transactions": [], "location": {"address1": "1331 Dundas St W", "address2": "", "address3": "", "city": "Toronto", "zip_code": "M6J 1X8", "country": "CA", "state": "ON", "display_address": ["1331 Dundas St W", "Toronto, ON M6J 1X8", "Canada"]}, "phone": "+14165337614", "display_phone": "+1 416-533-7614", "distance": 1947.6624209508914}, {"id": "gp-b5jHZiASLrzyXeTO9Ow", "alias": "stray-toronto", "name": "Stray", "image_url": "https://s3-media3.fl.yelpcdn.com/bphoto/VeG6YgBt9mFf3k3uhe-mJQ/o.jpg", "is_closed": false, "url": "https://www.yelp.com/biz/stray-toronto?adjust_creative=a2JdNtFqB-C38ga_06BHvw&utm_campaign=yelp_api_v3&utm_medium=api_v3_business_search&utm_source=a2JdNtFqB-C38ga_06BHvw", "review_count": 2, "categories": [{"alias": "cocktailbars", "title": "Cocktail Bars"}, {"alias": "tapasmallplates", "title": "Tapas/Small Plates"}], "rating": 5.0, "coordinates": {"latitude": 43.6559472442801, "longitude": -79.4110082834959}, "transactions": [], "location": {"address1": "532 College Street", "address2": "", "address3": null, "city": "Toronto", "zip_code": "M6G 1A6", "country": "CA", "state": "ON", "display_address": ["532 College Street", "Toronto, ON M6G 1A6", "Canada"]}, "phone": "+16478891366", "display_phone": "+1 647-889-1366", "distance": 2647.934725627393}, {"id": "d5n_zQMaVZxFKNnS-4ludA", "alias": "hoops-sports-bar-and-grill-toronto-2", "name": "Hoops Sports Bar & Grill", "image_url": "https://s3-media1.fl.yelpcdn.com/bphoto/BryMAWH3miKEfRWjgUcRKA/o.jpg", "is_closed": false, "url": "https://www.yelp.com/biz/hoops-sports-bar-and-grill-toronto-2?adjust_creative=a2JdNtFqB-C38ga_06BHvw&utm_campaign=yelp_api_v3&utm_medium=api_v3_business_search&utm_source=a2JdNtFqB-C38ga_06BHvw", "review_count": 120, "categories": [{"alias": "tradamerican", "title": "American (Traditional)"}, {"alias": "sportsbars", "title": "Sports Bars"}], "rating": 1.5, "coordinates": {"latitude": 43.64233, "longitude": -79.383}, "transactions": [], "price": "$$", "location": {"address1": "125 Bremner Blvd", "address2": "", "address3": "", "city": "Toronto", "zip_code": "M5J 3A8", "country": "CA", "state": "ON", "display_address": ["125 Bremner Blvd", "Toronto, ON M5J 3A8", "Canada"]}, "phone": "+16473430783", "display_phone": "+1 647-343-0783", "distance": 3048.600889401947}, {"id": "sgvhMnFffkQ6WBSAdtd7Bg", "alias": "wild-wing-toronto-25", "name": "Wild Wing", "image_url": "https://s3-media4.fl.yelpcdn.com/bphoto/7yrhv9hMM9LFzFqYGOHsgA/o.jpg", "is_closed": false, "url": "https://www.yelp.com/biz/wild-wing-toronto-25?adjust_creative=a2JdNtFqB-C38ga_06BHvw&utm_campaign=yelp_api_v3&utm_medium=api_v3_business_search&utm_source=a2JdNtFqB-C38ga_06BHvw", "review_count": 19, "categories": [{"alias": "chicken_wings", "title": "Chicken Wings"}, {"alias": "sportsbars", "title": "Sports Bars"}, {"alias": "hotdogs", "title": "Fast Food"}], "rating": 2.0, "coordinates": {"latitude": 43.6436358, "longitude": -79.4031185}, "transactions": [], "price": "$$", "location": {"address1": "675 King Street W", "address2": "Unit 101", "address3": "", "city": "Toronto", "zip_code": "M5V 1M9", "country": "CA", "state": "ON", "display_address": ["675 King Street W", "Unit 101", "Toronto, ON M5V 1M9", "Canada"]}, "phone": "+14167779464", "display_phone": "+1 416-777-9464", "distance": 1735.5052219854153}, {"id": "deBrb1iOdjy1vvjbeLTWeg", "alias": "happy-coffee-and-wine-toronto", "name": "Happy Coffee and Wine", "image_url": "https://s3-media2.fl.yelpcdn.com/bphoto/Is8XHhiFDZYRedjLsnD9qA/o.jpg", "is_closed": false, "url": "https://www.yelp.com/biz/happy-coffee-and-wine-toronto?adjust_creative=a2JdNtFqB-C38ga_06BHvw&utm_campaign=yelp_api_v3&utm_medium=api_v3_business_search&utm_source=a2JdNtFqB-C38ga_06BHvw", "review_count": 5, "categories": [{"alias": "wine_bars", "title": "Wine Bars"}, {"alias": "cafes", "title": "Cafes"}], "rating": 3.0, "coordinates": {"latitude": 43.63831, "longitude": -79.43128}, "transactions": [], "location": {"address1": "1304 King Street W", "address2": "", "address3": null, "city": "Toronto", "zip_code": "M6K 1G8", "country": "CA", "state": "ON", "display_address": ["1304 King Street W", "Toronto, ON M6K 1G8", "Canada"]}, "phone": "+14165883000", "display_phone": "+1 416-588-3000", "distance": 1196.2065904933124}, {"id": "jtE9n7xevvkt7BMM02rLlA", "alias": "mama-rosa-on-roncesvalles-toronto", "name": "Mama Rosa on Roncesvalles", "image_url": "https://s3-media4.fl.yelpcdn.com/bphoto/yBpotbwJL4Ob4Q9YyHEMfA/o.jpg", "is_closed": false, "url": "https://www.yelp.com/biz/mama-rosa-on-roncesvalles-toronto?adjust_creative=a2JdNtFqB-C38ga_06BHvw&utm_campaign=yelp_api_v3&utm_medium=api_v3_business_search&utm_source=a2JdNtFqB-C38ga_06BHvw", "review_count": 3, "categories": [{"alias": "italian", "title": "Italian"}, {"alias": "sportsbars", "title": "Sports Bars"}, {"alias": "newcanadian", "title": "Canadian (New)"}], "rating": 3.5, "coordinates": {"latitude": 43.63912, "longitude": -79.44593}, "transactions": [], "location": {"address1": "5 Roncesvalles Avenue", "address2": null, "address3": "", "city": "Toronto", "zip_code": "M6R 2K2", "country": "CA", "state": "ON", "display_address": ["5 Roncesvalles Avenue", "Toronto, ON M6R 2K2", "Canada"]}, "phone": "+16473451995", "display_phone": "+1 647-345-1995", "distance": 2318.873824290761}, {"id": "WPFOxA-9K7SWpWu8bjqi1w", "alias": "skyflower-toronto", "name": "Skyflower", "image_url": "https://s3-media3.fl.yelpcdn.com/bphoto/DN3goe0bTaX6AOTUuu7pjA/o.jpg", "is_closed": false, "url": "https://www.yelp.com/biz/skyflower-toronto?adjust_creative=a2JdNtFqB-C38ga_06BHvw&utm_campaign=yelp_api_v3&utm_medium=api_v3_business_search&utm_source=a2JdNtFqB-C38ga_06BHvw", "review_count": 1, "categories": [{"alias": "japanese", "title": "Japanese"}, {"alias": "vietnamese", "title": "Vietnamese"}, {"alias": "cocktailbars", "title": "Cocktail Bars"}], "rating": 5.0, "coordinates": {"latitude": 43.6580177, "longitude": -79.4014833}, "transactions": [], "location": {"address1": "292 College Street", "address2": "", "address3": null, "city": "Toronto", "zip_code": "M5T 1R9", "country": "CA", "state": "ON", "display_address": ["292 College Street", "Toronto, ON M5T 1R9", "Canada"]}, "phone": "+16473520292", "display_phone": "+1 647-352-0292", "distance": 3123.3690298841443}, {"id": "d5d1k5UW7SOP9-njZK4p0Q", "alias": "st-louis-bar-and-grill-toronto-22", "name": "St Louis Bar and Grill", "image_url": "https://s3-media4.fl.yelpcdn.com/bphoto/xBGWb--NSpMA5QTSkc4W0g/o.jpg", "is_closed": false, "url": "https://www.yelp.com/biz/st-louis-bar-and-grill-toronto-22?adjust_creative=a2JdNtFqB-C38ga_06BHvw&utm_campaign=yelp_api_v3&utm_medium=api_v3_business_search&utm_source=a2JdNtFqB-C38ga_06BHvw", "review_count": 1, "categories": [{"alias": "sportsbars", "title": "Sports Bars"}, {"alias": "chicken_wings", "title": "Chicken Wings"}], "rating": 5.0, "coordinates": {"latitude": 43.6561425075, "longitude": -79.3923654174}, "transactions": [], "location": {"address1": "1 Baldwin Street", "address2": "", "address3": null, "city": "Toronto", "zip_code": "M5T 1L1", "country": "CA", "state": "ON", "display_address": ["1 Baldwin Street", "Toronto, ON M5T 1L1", "Canada"]}, "phone": "+16473439464", "display_phone": "+1 647-343-9464", "distance": 3348.0646358458107}, {"id": "p76mpsKvIcXGVC_fe_l4XQ", "alias": "lobby-toronto-2", "name": "Lobby", "image_url": "https://s3-media3.fl.yelpcdn.com/bphoto/KuZTe5N-nCKpyoajOdq7-g/o.jpg", "is_closed": false, "url": "https://www.yelp.com/biz/lobby-toronto-2?adjust_creative=a2JdNtFqB-C38ga_06BHvw&utm_campaign=yelp_api_v3&utm_medium=api_v3_business_search&utm_source=a2JdNtFqB-C38ga_06BHvw", "review_count": 2, "categories": [{"alias": "cocktailbars", "title": "Cocktail Bars"}, {"alias": "wine_bars", "title": "Wine Bars"}, {"alias": "latin", "title": "Latin American"}], "rating": 3.0, "coordinates": {"latitude": 43.64409, "longitude": -79.4202}, "transactions": [], "location": {"address1": "1032 Queen Street W", "address2": null, "address3": "", "city": "Toronto", "zip_code": "M6J 1H7", "country": "CA", "state": "ON", "display_address": ["1032 Queen Street W", "Toronto, ON M6J 1H7", "Canada"]}, "phone": "+14169016768", "display_phone": "+1 416-901-6768", "distance": 1261.11548977178}, {"id": "-2TE7v9wjJJq6bqoo1HFGg", "alias": "bar-mignonette-toronto", "name": "Bar Mignonette", "image_url": "https://s3-media4.fl.yelpcdn.com/bphoto/rPwZa3Tf8fBFHMDlIUPrLg/o.jpg", "is_closed": false, "url": "https://www.yelp.com/biz/bar-mignonette-toronto?adjust_creative=a2JdNtFqB-C38ga_06BHvw&utm_campaign=yelp_api_v3&utm_medium=api_v3_business_search&utm_source=a2JdNtFqB-C38ga_06BHvw", "review_count": 1, "categories": [{"alias": "seafood", "title": "Seafood"}, {"alias": "wine_bars", "title": "Wine Bars"}], "rating": 4.0, "coordinates": {"latitude": 43.65202, "longitude": -79.40816}, "transactions": [], "location": {"address1": "794 Dundas Street W", "address2": "2nd Floor", "address3": null, "city": "Toronto", "zip_code": "M6J 1V1", "country": "CA", "state": "ON", "display_address": ["794 Dundas Street W", "2nd Floor", "Toronto, ON M6J 1V1", "Canada"]}, "phone": "+16473404999", "display_phone": "+1 647-340-4999", "distance": 2293.388024477218}, {"id": "KApc57BGV4MjUQH3EORyXA", "alias": "garrison-creek-toronto", "name": "Garrison Creek", "image_url": "https://s3-media2.fl.yelpcdn.com/bphoto/3xcrOcHGlHEiW1pl7VcJOw/o.jpg", "is_closed": false, "url": "https://www.yelp.com/biz/garrison-creek-toronto?adjust_creative=a2JdNtFqB-C38ga_06BHvw&utm_campaign=yelp_api_v3&utm_medium=api_v3_business_search&utm_source=a2JdNtFqB-C38ga_06BHvw", "review_count": 1, "categories": [{"alias": "italian", "title": "Italian"}, {"alias": "cocktailbars", "title": "Cocktail Bars"}], "rating": 4.0, "coordinates": {"latitude": 43.655203, "longitude": -79.419768}, "transactions": [], "location": {"address1": "760 College Street", "address2": null, "address3": "", "city": "Toronto", "zip_code": "M6G 1C4", "country": "CA", "state": "ON", "display_address": ["760 College Street", "Toronto, ON M6G 1C4", "Canada"]}, "phone": "+16477488500", "display_phone": "+1 647-748-8500", "distance": 2495.280805978332}, {"id": "YGKZt7F7a7EF5b360moVig", "alias": "corks-beer-and-wine-bars-toronto-3", "name": "Corks Beer & Wine Bars", "image_url": "https://s3-media3.fl.yelpcdn.com/bphoto/VAq_kNBBcOc-MrGXE48pfw/o.jpg", "is_closed": false, "url": "https://www.yelp.com/biz/corks-beer-and-wine-bars-toronto-3?adjust_creative=a2JdNtFqB-C38ga_06BHvw&utm_campaign=yelp_api_v3&utm_medium=api_v3_business_search&utm_source=a2JdNtFqB-C38ga_06BHvw", "review_count": 1, "categories": [{"alias": "pizza", "title": "Pizza"}, {"alias": "wine_bars", "title": "Wine Bars"}, {"alias": "beerbar", "title": "Beer Bar"}], "rating": 3.0, "coordinates": {"latitude": 43.64008, "longitude": -79.42332}, "transactions": [], "location": {"address1": "1100 King Street W", "address2": "", "address3": null, "city": "Toronto", "zip_code": "M6K 1E6", "country": "CA", "state": "ON", "display_address": ["1100 King Street W", "Toronto, ON M6K 1E6", "Canada"]}, "phone": "", "display_phone": "", "distance": 890.7652791575007}], "absolute total": 115, "total": 115}