{"league": "NBA", "team": "Toronto Raptors", "stadium": "Scotiabank Arena", "stadium latitude": 43.643333, "stadium longitude": -79.37916700000001, "radius": "3000 meters", "city": "Toronto", "state": "Ontario", "businesses": [{"id": "Sk0Ycurq7D083Qs8x65b_Q", "alias": "george-restaurant-toronto-3", "name": "George Restaurant", "image_url": "https://s3-media3.fl.yelpcdn.com/bphoto/2Ay3Zmf47NeTGH_ghy2PKw/o.jpg", "is_closed": false, "url": "https://www.yelp.com/biz/george-restaurant-toronto-3?adjust_creative=a2JdNtFqB-C38ga_06BHvw&utm_campaign=yelp_api_v3&utm_medium=api_v3_business_search&utm_source=a2JdNtFqB-C38ga_06BHvw", "review_count": 264, "categories": [{"alias": "newcanadian", "title": "Canadian (New)"}, {"alias": "cocktailbars", "title": "Cocktail Bars"}], "rating": 4.5, "coordinates": {"latitude": 43.65323, "longitude": -79.37446}, "transactions": [], "price": "$$$$", "location": {"address1": "111 Queen Street E", "address2": "", "address3": "", "city": "Toronto", "zip_code": "M5C 1S2", "country": "CA", "state": "ON", "display_address": ["111 Queen Street E", "Toronto, ON M5C 1S2", "Canada"]}, "phone": "+14168636006", "display_phone": "+1 416-863-6006", "distance": 1180.70142131453}, {"id": "RtUvSWO_UZ8V3Wpj0n077w", "alias": "kinka-izakaya-original-toronto", "name": "KINKA IZAKAYA ORIGINAL", "image_url": "https://s3-media3.fl.yelpcdn.com/bphoto/nHFVveLBqeiCGy12R2CnRA/o.jpg", "is_closed": false, "url": "https://www.yelp.com/biz/kinka-izakaya-original-toronto?adjust_creative=a2JdNtFqB-C38ga_06BHvw&utm_campaign=yelp_api_v3&utm_medium=api_v3_business_search&utm_source=a2JdNtFqB-C38ga_06BHvw", "review_count": 1622, "categories": [{"alias": "japanese", "title": "Japanese"}, {"alias": "pubs", "title": "Pubs"}], "rating": 4.0, "coordinates": {"latitude": 43.66045, "longitude": -79.37915}, "transactions": [], "price": "$$", "location": {"address1": "398 Church Street", "address2": "", "address3": "", "city": "Toronto", "zip_code": "M5B 2A2", "country": "CA", "state": "ON", "display_address": ["398 Church Street", "Toronto, ON M5B 2A2", "Canada"]}, "phone": "+14169770999", "display_phone": "+1 416-977-0999", "distance": 1895.7187710625585}, {"id": "jOqh0eVjqtUOpZ9AZgSazA", "alias": "grey-gardens-toronto", "name": "Grey Gardens", "image_url": "https://s3-media2.fl.yelpcdn.com/bphoto/zppuNZ_XTk7i4Kz9ZESSoA/o.jpg", "is_closed": false, "url": "https://www.yelp.com/biz/grey-gardens-toronto?adjust_creative=a2JdNtFqB-C38ga_06BHvw&utm_campaign=yelp_api_v3&utm_medium=api_v3_business_search&utm_source=a2JdNtFqB-C38ga_06BHvw", "review_count": 95, "categories": [{"alias": "wine_bars", "title": "Wine Bars"}, {"alias": "newcanadian", "title": "Canadian (New)"}], "rating": 4.5, "coordinates": {"latitude": 43.6537999, "longitude": -79.40143}, "transactions": [], "price": "$$$", "location": {"address1": "199 Augusta Avenue", "address2": "", "address3": null, "city": "Toronto", "zip_code": "M5T 2L4", "country": "CA", "state": "ON", "display_address": ["199 Augusta Avenue", "Toronto, ON M5T 2L4", "Canada"]}, "phone": "+16473511552", "display_phone": "+1 647-351-1552", "distance": 2139.6657055030996}, {"id": "CN5nuUQod0f8g3oh99qq0w", "alias": "kinka-izakaya-annex-toronto-2", "name": "KINKA IZAKAYA ANNEX", "image_url": "https://s3-media1.fl.yelpcdn.com/bphoto/43RRSeAOPBk7r6qIzDfLnQ/o.jpg", "is_closed": false, "url": "https://www.yelp.com/biz/kinka-izakaya-annex-toronto-2?adjust_creative=a2JdNtFqB-C38ga_06BHvw&utm_campaign=yelp_api_v3&utm_medium=api_v3_business_search&utm_source=a2JdNtFqB-C38ga_06BHvw", "review_count": 469, "categories": [{"alias": "japanese", "title": "Japanese"}, {"alias": "tapasmallplates", "title": "Tapas/Small Plates"}, {"alias": "pubs", "title": "Pubs"}], "rating": 4.0, "coordinates": {"latitude": 43.665157, "longitude": -79.410658}, "transactions": [], "price": "$$", "location": {"address1": "559 Bloor St W", "address2": "", "address3": "", "city": "Toronto", "zip_code": "M5S 1Y6", "country": "CA", "state": "ON", "display_address": ["559 Bloor St W", "Toronto, ON M5S 1Y6", "Canada"]}, "phone": "+16473431101", "display_phone": "+1 647-343-1101", "distance": 3508.2135436755293}, {"id": "TibTrHAfWQwTKRIdIy1kSg", "alias": "the-tilted-dog-pub-and-kitchen-toronto", "name": "The Tilted Dog Pub & Kitchen", "image_url": "https://s3-media2.fl.yelpcdn.com/bphoto/BdUQRVMVMnuaYN4FvdQY_w/o.jpg", "is_closed": false, "url": "https://www.yelp.com/biz/the-tilted-dog-pub-and-kitchen-toronto?adjust_creative=a2JdNtFqB-C38ga_06BHvw&utm_campaign=yelp_api_v3&utm_medium=api_v3_business_search&utm_source=a2JdNtFqB-C38ga_06BHvw", "review_count": 68, "categories": [{"alias": "sandwiches", "title": "Sandwiches"}, {"alias": "pubs", "title": "Pubs"}, {"alias": "burgers", "title": "Burgers"}], "rating": 4.5, "coordinates": {"latitude": 43.66287, "longitude": -79.36765}, "transactions": [], "price": "$$", "location": {"address1": "424 Parliament Street", "address2": "", "address3": "", "city": "Toronto", "zip_code": "M5A 3A2", "country": "CA", "state": "ON", "display_address": ["424 Parliament Street", "Toronto, ON M5A 3A2", "Canada"]}, "phone": "+14169619425", "display_phone": "+1 416-961-9425", "distance": 2360.9427846905483}, {"id": "41o1FUbCYKJv2djtnlkzlg", "alias": "bar-raval-toronto", "name": "Bar Raval", "image_url": "https://s3-media4.fl.yelpcdn.com/bphoto/vSHLfEfdrQkJJi7mRk4VFw/o.jpg", "is_closed": false, "url": "https://www.yelp.com/biz/bar-raval-toronto?adjust_creative=a2JdNtFqB-C38ga_06BHvw&utm_campaign=yelp_api_v3&utm_medium=api_v3_business_search&utm_source=a2JdNtFqB-C38ga_06BHvw", "review_count": 274, "categories": [{"alias": "spanish", "title": "Spanish"}, {"alias": "tapasmallplates", "title": "Tapas/Small Plates"}, {"alias": "cocktailbars", "title": "Cocktail Bars"}], "rating": 4.0, "coordinates": {"latitude": 43.6558432, "longitude": -79.4099433}, "transactions": [], "price": "$$$", "location": {"address1": "505 College Street", "address2": "", "address3": "", "city": "Toronto", "zip_code": "M6G 2J3", "country": "CA", "state": "ON", "display_address": ["505 College Street", "Toronto, ON M6G 2J3", "Canada"]}, "phone": "+16473448001", "display_phone": "+1 647-344-8001", "distance": 2840.1759950240125}, {"id": "4m_hApwQ054v3ue_OxFmGw", "alias": "patria-toronto", "name": "Patria", "image_url": "https://s3-media1.fl.yelpcdn.com/bphoto/mmysDgd5Dgn_RQKbiIyaiQ/o.jpg", "is_closed": false, "url": "https://www.yelp.com/biz/patria-toronto?adjust_creative=a2JdNtFqB-C38ga_06BHvw&utm_campaign=yelp_api_v3&utm_medium=api_v3_business_search&utm_source=a2JdNtFqB-C38ga_06BHvw", "review_count": 489, "categories": [{"alias": "spanish", "title": "Spanish"}, {"alias": "wine_bars", "title": "Wine Bars"}, {"alias": "tapas", "title": "Tapas Bars"}], "rating": 4.0, "coordinates": {"latitude": 43.6455399, "longitude": -79.39641}, "transactions": [], "price": "$$$", "location": {"address1": "480 King Street W", "address2": "", "address3": "", "city": "Toronto", "zip_code": "M5V 1L7", "country": "CA", "state": "ON", "display_address": ["480 King Street W", "Toronto, ON M5V 1L7", "Canada"]}, "phone": "+14163670505", "display_phone": "+1 416-367-0505", "distance": 1394.7555587277486}, {"id": "cQK9M2JAwETQnnBoYyua5A", "alias": "the-senator-toronto", "name": "The Senator", "image_url": "https://s3-media3.fl.yelpcdn.com/bphoto/-YxCyds-0w13s0oGp88-Kg/o.jpg", "is_closed": false, "url": "https://www.yelp.com/biz/the-senator-toronto?adjust_creative=a2JdNtFqB-C38ga_06BHvw&utm_campaign=yelp_api_v3&utm_medium=api_v3_business_search&utm_source=a2JdNtFqB-C38ga_06BHvw", "review_count": 477, "categories": [{"alias": "breakfast_brunch", "title": "Breakfast & Brunch"}, {"alias": "newcanadian", "title": "Canadian (New)"}, {"alias": "wine_bars", "title": "Wine Bars"}], "rating": 4.0, "coordinates": {"latitude": 43.65574, "longitude": -79.37896}, "transactions": [], "price": "$$", "location": {"address1": "249 Victoria Street", "address2": "", "address3": "", "city": "Toronto", "zip_code": "M5B 1T8", "country": "CA", "state": "ON", "display_address": ["249 Victoria Street", "Toronto, ON M5B 1T8", "Canada"]}, "phone": "+14163647517", "display_phone": "+1 416-364-7517", "distance": 1380.666392767441}, {"id": "ydM0qCPG1cTZvAguCi2ucA", "alias": "rhum-corner-toronto", "name": "Rhum Corner", "image_url": "https://s3-media1.fl.yelpcdn.com/bphoto/A-Ju6gRfIWXUkvhjqq8ksA/o.jpg", "is_closed": false, "url": "https://www.yelp.com/biz/rhum-corner-toronto?adjust_creative=a2JdNtFqB-C38ga_06BHvw&utm_campaign=yelp_api_v3&utm_medium=api_v3_business_search&utm_source=a2JdNtFqB-C38ga_06BHvw", "review_count": 121, "categories": [{"alias": "caribbean", "title": "Caribbean"}, {"alias": "salad", "title": "Salad"}, {"alias": "cocktailbars", "title": "Cocktail Bars"}], "rating": 4.0, "coordinates": {"latitude": 43.6508775, "longitude": -79.4131316}, "transactions": [], "price": "$$", "location": {"address1": "926 Dundas Street W", "address2": "", "address3": "", "city": "Toronto", "zip_code": "M6J 1W3", "country": "CA", "state": "ON", "display_address": ["926 Dundas Street W", "Toronto, ON M6J 1W3", "Canada"]}, "phone": "+16473469356", "display_phone": "+1 647-346-9356", "distance": 2858.691829001482}, {"id": "yY3jNsrpCyKTqQuRuLV8gw", "alias": "cactus-club-cafe-toronto", "name": "Cactus Club Cafe", "image_url": "https://s3-media2.fl.yelpcdn.com/bphoto/dCfq3XGhw28HsQ2y09vq7w/o.jpg", "is_closed": false, "url": "https://www.yelp.com/biz/cactus-club-cafe-toronto?adjust_creative=a2JdNtFqB-C38ga_06BHvw&utm_campaign=yelp_api_v3&utm_medium=api_v3_business_search&utm_source=a2JdNtFqB-C38ga_06BHvw", "review_count": 521, "categories": [{"alias": "cocktailbars", "title": "Cocktail Bars"}, {"alias": "newcanadian", "title": "Canadian (New)"}], "rating": 4.0, "coordinates": {"latitude": 43.64950420768667, "longitude": -79.38251803088575}, "transactions": [], "price": "$$$", "location": {"address1": "77 Adelaide Street W", "address2": "", "address3": "", "city": "Toronto", "zip_code": "M5H 1P9", "country": "CA", "state": "ON", "display_address": ["77 Adelaide Street W", "Toronto, ON M5H 1P9", "Canada"]}, "phone": "+16477482025", "display_phone": "+1 647-748-2025", "distance": 737.2785517015386}, {"id": "sa3VEZBRrKGiIfkQvuNbww", "alias": "wynona-toronto-2", "name": "Wynona", "image_url": "https://s3-media2.fl.yelpcdn.com/bphoto/0TV9QHRCi9Uo_8TZTf6vbg/o.jpg", "is_closed": false, "url": "https://www.yelp.com/biz/wynona-toronto-2?adjust_creative=a2JdNtFqB-C38ga_06BHvw&utm_campaign=yelp_api_v3&utm_medium=api_v3_business_search&utm_source=a2JdNtFqB-C38ga_06BHvw", "review_count": 45, "categories": [{"alias": "italian", "title": "Italian"}, {"alias": "wine_bars", "title": "Wine Bars"}, {"alias": "mediterranean", "title": "Mediterranean"}], "rating": 4.5, "coordinates": {"latitude": 43.66706, "longitude": -79.34454}, "transactions": [], "location": {"address1": "819 Gerrard Street E", "address2": "", "address3": null, "city": "Toronto", "zip_code": "M4M 1Y8", "country": "CA", "state": "ON", "display_address": ["819 Gerrard Street E", "Toronto, ON M4M 1Y8", "Canada"]}, "phone": "+14167785171", "display_phone": "+1 416-778-5171", "distance": 3831.516116480105}, {"id": "exysqt4RqxkF9I8Z2NEUsQ", "alias": "king-taps-toronto", "name": "King Taps", "image_url": "https://s3-media1.fl.yelpcdn.com/bphoto/JRiO55G5umt5lsgvujj5FA/o.jpg", "is_closed": false, "url": "https://www.yelp.com/biz/king-taps-toronto?adjust_creative=a2JdNtFqB-C38ga_06BHvw&utm_campaign=yelp_api_v3&utm_medium=api_v3_business_search&utm_source=a2JdNtFqB-C38ga_06BHvw", "review_count": 297, "categories": [{"alias": "newcanadian", "title": "Canadian (New)"}, {"alias": "fooddeliveryservices", "title": "Food Delivery Services"}, {"alias": "cocktailbars", "title": "Cocktail Bars"}], "rating": 4.0, "coordinates": {"latitude": 43.6486379269, "longitude": -79.3817439}, "transactions": [], "price": "$$", "location": {"address1": "100 King Street W", "address2": "", "address3": null, "city": "Toronto", "zip_code": "M5X 1A9", "country": "CA", "state": "ON", "display_address": ["100 King Street W", "Toronto, ON M5X 1A9", "Canada"]}, "phone": "+16473612025", "display_phone": "+1 647-361-2025", "distance": 625.2601957238428}, {"id": "qaNt4vtVdge_S68DVjw5Jg", "alias": "the-queen-and-beaver-public-house-toronto", "name": "The Queen And Beaver Public House", "image_url": "https://s3-media4.fl.yelpcdn.com/bphoto/lBy6hXN8EmBdWARQcGkZ5w/o.jpg", "is_closed": false, "url": "https://www.yelp.com/biz/the-queen-and-beaver-public-house-toronto?adjust_creative=a2JdNtFqB-C38ga_06BHvw&utm_campaign=yelp_api_v3&utm_medium=api_v3_business_search&utm_source=a2JdNtFqB-C38ga_06BHvw", "review_count": 381, "categories": [{"alias": "pubs", "title": "Pubs"}, {"alias": "british", "title": "British"}], "rating": 4.0, "coordinates": {"latitude": 43.65734, "longitude": -79.38334}, "transactions": [], "price": "$$", "location": {"address1": "35 Elm Street", "address2": "", "address3": "", "city": "Toronto", "zip_code": "M5G 1H1", "country": "CA", "state": "ON", "display_address": ["35 Elm Street", "Toronto, ON M5G 1H1", "Canada"]}, "phone": "+16473472712", "display_phone": "+1 647-347-2712", "distance": 1592.6863241166852}, {"id": "-PL-4fFYPYrOjnNd0lO4Lg", "alias": "stout-irish-pub-toronto", "name": "Stout Irish Pub", "image_url": "https://s3-media1.fl.yelpcdn.com/bphoto/Yi7w4LzPrrFLrXsq1LJ6wA/o.jpg", "is_closed": false, "url": "https://www.yelp.com/biz/stout-irish-pub-toronto?adjust_creative=a2JdNtFqB-C38ga_06BHvw&utm_campaign=yelp_api_v3&utm_medium=api_v3_business_search&utm_source=a2JdNtFqB-C38ga_06BHvw", "review_count": 135, "categories": [{"alias": "pubs", "title": "Pubs"}, {"alias": "irish", "title": "Irish"}], "rating": 4.0, "coordinates": {"latitude": 43.6639, "longitude": -79.36894}, "transactions": [], "price": "$$", "location": {"address1": "221 Carlton Street", "address2": "", "address3": "", "city": "Toronto", "zip_code": "M5A 2L2", "country": "CA", "state": "ON", "display_address": ["221 Carlton Street", "Toronto, ON M5A 2L2", "Canada"]}, "phone": "+16473447676", "display_phone": "+1 647-344-7676", "distance": 2420.605817351065}, {"id": "9tfw-OEfpF0qC2hSzRks6g", "alias": "hair-of-the-dog-toronto", "name": "Hair of the Dog", "image_url": "https://s3-media1.fl.yelpcdn.com/bphoto/S2NCzO6a2S4VLb58QGGzNQ/o.jpg", "is_closed": false, "url": "https://www.yelp.com/biz/hair-of-the-dog-toronto?adjust_creative=a2JdNtFqB-C38ga_06BHvw&utm_campaign=yelp_api_v3&utm_medium=api_v3_business_search&utm_source=a2JdNtFqB-C38ga_06BHvw", "review_count": 329, "categories": [{"alias": "pubs", "title": "Pubs"}, {"alias": "comfortfood", "title": "Comfort Food"}, {"alias": "breakfast_brunch", "title": "Breakfast & Brunch"}], "rating": 4.0, "coordinates": {"latitude": 43.662946823805, "longitude": -79.379592870241}, "transactions": [], "price": "$$", "location": {"address1": "425 Church Street", "address2": "", "address3": "", "city": "Toronto", "zip_code": "M4Y 2C3", "country": "CA", "state": "ON", "display_address": ["425 Church Street", "Toronto, ON M4Y 2C3", "Canada"]}, "phone": "+14169642708", "display_phone": "+1 416-964-2708", "distance": 2181.2243937823787}, {"id": "m2hz26KM3kLN_AS5CcEjPg", "alias": "east-thirty-six-toronto", "name": "East Thirty-Six", "image_url": "https://s3-media1.fl.yelpcdn.com/bphoto/PmpZe2yXAO7fFdqTmmD4Tw/o.jpg", "is_closed": false, "url": "https://www.yelp.com/biz/east-thirty-six-toronto?adjust_creative=a2JdNtFqB-C38ga_06BHvw&utm_campaign=yelp_api_v3&utm_medium=api_v3_business_search&utm_source=a2JdNtFqB-C38ga_06BHvw", "review_count": 171, "categories": [{"alias": "cocktailbars", "title": "Cocktail Bars"}, {"alias": "newcanadian", "title": "Canadian (New)"}, {"alias": "breakfast_brunch", "title": "Breakfast & Brunch"}], "rating": 4.0, "coordinates": {"latitude": 43.6484529, "longitude": -79.3750706}, "transactions": [], "price": "$$", "location": {"address1": "36 Wellington Street E", "address2": null, "address3": "", "city": "Toronto", "zip_code": "M5E 1C7", "country": "CA", "state": "ON", "display_address": ["36 Wellington Street E", "Toronto, ON M5E 1C7", "Canada"]}, "phone": "+16473503636", "display_phone": "+1 647-350-3636", "distance": 657.8378796430754}, {"id": "1PJpo48hSChCbriXEHGSjw", "alias": "opus-restaurant-toronto", "name": "Opus Restaurant", "image_url": "https://s3-media4.fl.yelpcdn.com/bphoto/SfG7v-FWXzc02w_ZNzNXzA/o.jpg", "is_closed": false, "url": "https://www.yelp.com/biz/opus-restaurant-toronto?adjust_creative=a2JdNtFqB-C38ga_06BHvw&utm_campaign=yelp_api_v3&utm_medium=api_v3_business_search&utm_source=a2JdNtFqB-C38ga_06BHvw", "review_count": 63, "categories": [{"alias": "wine_bars", "title": "Wine Bars"}, {"alias": "modern_european", "title": "Modern European"}], "rating": 4.0, "coordinates": {"latitude": 43.66921, "longitude": -79.3972299}, "transactions": [], "price": "$$$$", "location": {"address1": "37 Prince Arthur Avenue", "address2": "", "address3": "", "city": "Toronto", "zip_code": "M5R 1B2", "country": "CA", "state": "ON", "display_address": ["37 Prince Arthur Avenue", "Toronto, ON M5R 1B2", "Canada"]}, "phone": "+14169213105", "display_phone": "+1 416-921-3105", "distance": 3222.4227779073544}, {"id": "Z5kjUEm1A18l864gb3XA8A", "alias": "town-crier-pub-toronto", "name": "Town Crier Pub", "image_url": "https://s3-media1.fl.yelpcdn.com/bphoto/fhck54-vYv7NhkJFFOrAGw/o.jpg", "is_closed": false, "url": "https://www.yelp.com/biz/town-crier-pub-toronto?adjust_creative=a2JdNtFqB-C38ga_06BHvw&utm_campaign=yelp_api_v3&utm_medium=api_v3_business_search&utm_source=a2JdNtFqB-C38ga_06BHvw", "review_count": 207, "categories": [{"alias": "pubs", "title": "Pubs"}, {"alias": "german", "title": "German"}], "rating": 4.0, "coordinates": {"latitude": 43.648038, "longitude": -79.39009253558704}, "transactions": [], "price": "$$", "location": {"address1": "115 John Street", "address2": "", "address3": null, "city": "Toronto", "zip_code": "M5V 2E2", "country": "CA", "state": "ON", "display_address": ["115 John Street", "Toronto, ON M5V 2E2", "Canada"]}, "phone": "+14162049588", "display_phone": "+1 416-204-9588", "distance": 1022.999157701028}, {"id": "5AC2yQzEe3iRGrsJ0at-8g", "alias": "reverie-at-the-park-toronto-3", "name": "Reverie at The Park", "image_url": "https://s3-media2.fl.yelpcdn.com/bphoto/ALcP2De8uAxiBvm-67LpYg/o.jpg", "is_closed": false, "url": "https://www.yelp.com/biz/reverie-at-the-park-toronto-3?adjust_creative=a2JdNtFqB-C38ga_06BHvw&utm_campaign=yelp_api_v3&utm_medium=api_v3_business_search&utm_source=a2JdNtFqB-C38ga_06BHvw", "review_count": 34, "categories": [{"alias": "cocktailbars", "title": "Cocktail Bars"}, {"alias": "newcanadian", "title": "Canadian (New)"}], "rating": 4.5, "coordinates": {"latitude": 43.65515, "longitude": -79.41274}, "transactions": [], "price": "$$$", "location": {"address1": "569 College Street", "address2": null, "address3": "", "city": "Toronto", "zip_code": "M6G 1B2", "country": "CA", "state": "ON", "display_address": ["569 College Street", "Toronto, ON M6G 1B2", "Canada"]}, "phone": "+14165338841", "display_phone": "+1 416-533-8841", "distance": 3013.911792754475}, {"id": "AQJPI5rnkb7pBnBMWtSjvw", "alias": "the-shore-club-toronto-toronto", "name": "The Shore Club - Toronto", "image_url": "https://s3-media2.fl.yelpcdn.com/bphoto/fdziq--poAeU3wXIe5iAmw/o.jpg", "is_closed": false, "url": "https://www.yelp.com/biz/the-shore-club-toronto-toronto?adjust_creative=a2JdNtFqB-C38ga_06BHvw&utm_campaign=yelp_api_v3&utm_medium=api_v3_business_search&utm_source=a2JdNtFqB-C38ga_06BHvw", "review_count": 187, "categories": [{"alias": "seafood", "title": "Seafood"}, {"alias": "steak", "title": "Steakhouses"}, {"alias": "cocktailbars", "title": "Cocktail Bars"}], "rating": 4.0, "coordinates": {"latitude": 43.6456057670746, "longitude": -79.3865740299225}, "transactions": [], "price": "$$$", "location": {"address1": "155 Wellington Street W", "address2": "", "address3": "", "city": "Toronto", "zip_code": "M5V 3H1", "country": "CA", "state": "ON", "display_address": ["155 Wellington Street W", "Toronto, ON M5V 3H1", "Canada"]}, "phone": "+14163513311", "display_phone": "+1 416-351-3311", "distance": 647.3699242879624}, {"id": "J4_q5iMukg-UnnLnT6ZwAA", "alias": "northern-belle-toronto", "name": "Northern Belle", "image_url": "https://s3-media1.fl.yelpcdn.com/bphoto/arG4e0DVIrnzdHf73FcQqA/o.jpg", "is_closed": false, "url": "https://www.yelp.com/biz/northern-belle-toronto?adjust_creative=a2JdNtFqB-C38ga_06BHvw&utm_campaign=yelp_api_v3&utm_medium=api_v3_business_search&utm_source=a2JdNtFqB-C38ga_06BHvw", "review_count": 36, "categories": [{"alias": "coffee", "title": "Coffee & Tea"}, {"alias": "cafes", "title": "Cafes"}, {"alias": "cocktailbars", "title": "Cocktail Bars"}], "rating": 4.5, "coordinates": {"latitude": 43.65081, "longitude": -79.41258}, "transactions": [], "price": "$$", "location": {"address1": "913 Dundas Street W", "address2": "", "address3": "", "city": "Toronto", "zip_code": "M6J 1W1", "country": "CA", "state": "ON", "display_address": ["913 Dundas Street W", "Toronto, ON M6J 1W1", "Canada"]}, "phone": "+14168238969", "display_phone": "+1 416-823-8969", "distance": 2816.2164360190204}, {"id": "Q4RSmF0s-AkaegrLFCLEbg", "alias": "donatello-restaurant-toronto", "name": "Donatello Restaurant", "image_url": "https://s3-media2.fl.yelpcdn.com/bphoto/mgG7W3MH6l1OHE4z59aZwg/o.jpg", "is_closed": false, "url": "https://www.yelp.com/biz/donatello-restaurant-toronto?adjust_creative=a2JdNtFqB-C38ga_06BHvw&utm_campaign=yelp_api_v3&utm_medium=api_v3_business_search&utm_source=a2JdNtFqB-C38ga_06BHvw", "review_count": 149, "categories": [{"alias": "italian", "title": "Italian"}, {"alias": "seafood", "title": "Seafood"}, {"alias": "wine_bars", "title": "Wine Bars"}], "rating": 4.0, "coordinates": {"latitude": 43.657425, "longitude": -79.383474}, "transactions": [], "price": "$$$", "location": {"address1": "37 Elm Street", "address2": "", "address3": "", "city": "Toronto", "zip_code": "M5G 1H1", "country": "CA", "state": "ON", "display_address": ["37 Elm Street", "Toronto, ON M5G 1H1", "Canada"]}, "phone": "+14165955001", "display_phone": "+1 416-595-5001", "distance": 1604.8164089927534}, {"id": "QFPS9JBNdOOHVP0C3pSslw", "alias": "earls-kitchen-bar-toronto", "name": "Earls Kitchen + Bar", "image_url": "https://s3-media1.fl.yelpcdn.com/bphoto/d5lDPc9Tu-K2qeIvhsqFfw/o.jpg", "is_closed": false, "url": "https://www.yelp.com/biz/earls-kitchen-bar-toronto?adjust_creative=a2JdNtFqB-C38ga_06BHvw&utm_campaign=yelp_api_v3&utm_medium=api_v3_business_search&utm_source=a2JdNtFqB-C38ga_06BHvw", "review_count": 428, "categories": [{"alias": "newcanadian", "title": "Canadian (New)"}, {"alias": "cocktailbars", "title": "Cocktail Bars"}], "rating": 3.5, "coordinates": {"latitude": 43.6480134620711, "longitude": -79.3839246431072}, "transactions": [], "price": "$$", "location": {"address1": "150 King Street West", "address2": "Unit 100", "address3": "", "city": "Toronto", "zip_code": "V5H 1J9", "country": "CA", "state": "ON", "display_address": ["150 King Street West", "Unit 100", "Toronto, ON V5H 1J9", "Canada"]}, "phone": "+14169160227", "display_phone": "+1 416-916-0227", "distance": 646.070971545954}, {"id": "UxWH8zRYIBgs6Q2oykvRdw", "alias": "cluny-bistro-and-boulangerie-toronto-2", "name": "Cluny Bistro & Boulangerie", "image_url": "https://s3-media1.fl.yelpcdn.com/bphoto/OnalImH3IdadVBsYanW3gg/o.jpg", "is_closed": false, "url": "https://www.yelp.com/biz/cluny-bistro-and-boulangerie-toronto-2?adjust_creative=a2JdNtFqB-C38ga_06BHvw&utm_campaign=yelp_api_v3&utm_medium=api_v3_business_search&utm_source=a2JdNtFqB-C38ga_06BHvw", "review_count": 569, "categories": [{"alias": "french", "title": "French"}, {"alias": "wine_bars", "title": "Wine Bars"}, {"alias": "cocktailbars", "title": "Cocktail Bars"}], "rating": 3.5, "coordinates": {"latitude": 43.6505879, "longitude": -79.3578962}, "transactions": [], "price": "$$$", "location": {"address1": "35 Tank House Lane", "address2": "", "address3": "", "city": "Toronto", "zip_code": "M5A 3C4", "country": "CA", "state": "ON", "display_address": ["35 Tank House Lane", "Toronto, ON M5A 3C4", "Canada"]}, "phone": "+14162032632", "display_phone": "+1 416-203-2632", "distance": 1892.0690193582163}, {"id": "Kal1hFMTEzdXYpa5MNzUPw", "alias": "spin-toronto-toronto", "name": "SPIN Toronto", "image_url": "https://s3-media3.fl.yelpcdn.com/bphoto/Yz5F4GRreD__GlIt9Mh6aQ/o.jpg", "is_closed": false, "url": "https://www.yelp.com/biz/spin-toronto-toronto?adjust_creative=a2JdNtFqB-C38ga_06BHvw&utm_campaign=yelp_api_v3&utm_medium=api_v3_business_search&utm_source=a2JdNtFqB-C38ga_06BHvw", "review_count": 131, "categories": [{"alias": "cocktailbars", "title": "Cocktail Bars"}, {"alias": "sports_clubs", "title": "Sports Clubs"}, {"alias": "tradamerican", "title": "American (Traditional)"}], "rating": 4.0, "coordinates": {"latitude": 43.6447886395145, "longitude": -79.3963426351547}, "transactions": [], "price": "$$", "location": {"address1": "461 King St W", "address2": "Lower Level", "address3": "", "city": "Toronto", "zip_code": "M5V 1K4", "country": "CA", "state": "ON", "display_address": ["461 King St W", "Lower Level", "Toronto, ON M5V 1K4", "Canada"]}, "phone": "+14165997746", "display_phone": "+1 416-599-7746", "distance": 1391.486062615532}, {"id": "dizdLoOk0GMaSS_qQAuklQ", "alias": "the-fifth-and-terrace-toronto-4", "name": "The Fifth & Terrace", "image_url": "https://s3-media1.fl.yelpcdn.com/bphoto/3C0XEgzmdNpuDf8bxgGDaA/o.jpg", "is_closed": false, "url": "https://www.yelp.com/biz/the-fifth-and-terrace-toronto-4?adjust_creative=a2JdNtFqB-C38ga_06BHvw&utm_campaign=yelp_api_v3&utm_medium=api_v3_business_search&utm_source=a2JdNtFqB-C38ga_06BHvw", "review_count": 57, "categories": [{"alias": "venues", "title": "Venues & Event Spaces"}, {"alias": "italian", "title": "Italian"}, {"alias": "cocktailbars", "title": "Cocktail Bars"}], "rating": 4.0, "coordinates": {"latitude": 43.6493079440937, "longitude": -79.3893122699059}, "transactions": [], "price": "$$$$", "location": {"address1": "225 Richmond Street W", "address2": "Suite 501b", "address3": "", "city": "Toronto", "zip_code": "M5V 1W2", "country": "CA", "state": "ON", "display_address": ["225 Richmond Street W", "Suite 501b", "Toronto, ON M5V 1W2", "Canada"]}, "phone": "+14169793005", "display_phone": "+1 416-979-3005", "distance": 1052.5048414031976}, {"id": "zcPzZJqpyOTEnBNRt8L68A", "alias": "old-york-bar-and-grill-toronto", "name": "Old York Bar & Grill", "image_url": "https://s3-media1.fl.yelpcdn.com/bphoto/CvSL4sk5y8MT6xB_A5xKlA/o.jpg", "is_closed": false, "url": "https://www.yelp.com/biz/old-york-bar-and-grill-toronto?adjust_creative=a2JdNtFqB-C38ga_06BHvw&utm_campaign=yelp_api_v3&utm_medium=api_v3_business_search&utm_source=a2JdNtFqB-C38ga_06BHvw", "review_count": 77, "categories": [{"alias": "pubs", "title": "Pubs"}, {"alias": "breakfast_brunch", "title": "Breakfast & Brunch"}], "rating": 4.0, "coordinates": {"latitude": 43.64192, "longitude": -79.40645}, "transactions": [], "price": "$$", "location": {"address1": "167 Niagara Street", "address2": "", "address3": "", "city": "Toronto", "zip_code": "M5V 1C9", "country": "CA", "state": "ON", "display_address": ["167 Niagara Street", "Toronto, ON M5V 1C9", "Canada"]}, "phone": "+14167039675", "display_phone": "+1 416-703-9675", "distance": 2205.5832953106647}, {"id": "4MQaqhBUJCpghGukSWNq7w", "alias": "loose-moose-toronto", "name": "Loose Moose", "image_url": "https://s3-media3.fl.yelpcdn.com/bphoto/w7g-goS2ynkuI8lji3lpIw/o.jpg", "is_closed": false, "url": "https://www.yelp.com/biz/loose-moose-toronto?adjust_creative=a2JdNtFqB-C38ga_06BHvw&utm_campaign=yelp_api_v3&utm_medium=api_v3_business_search&utm_source=a2JdNtFqB-C38ga_06BHvw", "review_count": 408, "categories": [{"alias": "sportsbars", "title": "Sports Bars"}, {"alias": "gastropubs", "title": "Gastropubs"}, {"alias": "newcanadian", "title": "Canadian (New)"}], "rating": 3.5, "coordinates": {"latitude": 43.64522, "longitude": -79.38385}, "transactions": [], "price": "$$", "location": {"address1": "146 Front Street West", "address2": "", "address3": "", "city": "Toronto", "zip_code": "M5J 1G2", "country": "CA", "state": "ON", "display_address": ["146 Front Street West", "Toronto, ON M5J 1G2", "Canada"]}, "phone": "+14169778840", "display_phone": "+1 416-977-8840", "distance": 448.2162304678451}, {"id": "ojPrFPeJqqOKdA6O69HeiQ", "alias": "archive-toronto-2", "name": "Archive", "image_url": "https://s3-media2.fl.yelpcdn.com/bphoto/Md1AlqEwQZ4Xb5VfjpNTpA/o.jpg", "is_closed": false, "url": "https://www.yelp.com/biz/archive-toronto-2?adjust_creative=a2JdNtFqB-C38ga_06BHvw&utm_campaign=yelp_api_v3&utm_medium=api_v3_business_search&utm_source=a2JdNtFqB-C38ga_06BHvw", "review_count": 34, "categories": [{"alias": "wine_bars", "title": "Wine Bars"}, {"alias": "tapasmallplates", "title": "Tapas/Small Plates"}], "rating": 4.0, "coordinates": {"latitude": 43.65084, "longitude": -79.41243}, "transactions": [], "price": "$$", "location": {"address1": "909 Dundas Street W", "address2": "", "address3": "", "city": "Toronto", "zip_code": "M6J 1V9", "country": "CA", "state": "ON", "display_address": ["909 Dundas Street W", "Toronto, ON M6J 1V9", "Canada"]}, "phone": "+16477480909", "display_phone": "+1 647-748-0909", "distance": 2807.8810762274265}, {"id": "V9DPZmn2irq3hC-X4vxaBg", "alias": "bettys-toronto", "name": "Betty's", "image_url": "https://s3-media3.fl.yelpcdn.com/bphoto/8AHcgy6vhzv5OEUmn5R-8g/o.jpg", "is_closed": false, "url": "https://www.yelp.com/biz/bettys-toronto?adjust_creative=a2JdNtFqB-C38ga_06BHvw&utm_campaign=yelp_api_v3&utm_medium=api_v3_business_search&utm_source=a2JdNtFqB-C38ga_06BHvw", "review_count": 129, "categories": [{"alias": "cocktailbars", "title": "Cocktail Bars"}, {"alias": "sandwiches", "title": "Sandwiches"}, {"alias": "pizza", "title": "Pizza"}], "rating": 3.5, "coordinates": {"latitude": 43.6515772695245, "longitude": -79.3674376043404}, "transactions": [], "price": "$$", "location": {"address1": "240 King Street E", "address2": "", "address3": "", "city": "Toronto", "zip_code": "M5A 1K1", "country": "CA", "state": "ON", "display_address": ["240 King Street E", "Toronto, ON M5A 1K1", "Canada"]}, "phone": "+14163681300", "display_phone": "+1 416-368-1300", "distance": 1315.6928273585397}, {"id": "6cz8xLR64Iuzpa4NNcFHqg", "alias": "king-rustic-toronto-2", "name": "King Rustic", "image_url": "https://s3-media2.fl.yelpcdn.com/bphoto/HglA9YvUcXkiOTdA1EJ-qw/o.jpg", "is_closed": false, "url": "https://www.yelp.com/biz/king-rustic-toronto-2?adjust_creative=a2JdNtFqB-C38ga_06BHvw&utm_campaign=yelp_api_v3&utm_medium=api_v3_business_search&utm_source=a2JdNtFqB-C38ga_06BHvw", "review_count": 55, "categories": [{"alias": "comfortfood", "title": "Comfort Food"}, {"alias": "seafood", "title": "Seafood"}, {"alias": "cocktailbars", "title": "Cocktail Bars"}], "rating": 4.0, "coordinates": {"latitude": 43.6418019534315, "longitude": -79.4121160358191}, "transactions": [], "price": "$$", "location": {"address1": "905 King Street W", "address2": "", "address3": "", "city": "Toronto", "zip_code": "M5V 1P5", "country": "CA", "state": "ON", "display_address": ["905 King Street W", "Toronto, ON M5V 1P5", "Canada"]}, "phone": "+14167925910", "display_phone": "+1 416-792-5910", "distance": 2656.7753434897854}, {"id": "7ppWunvrIURnEZi5nUB_7g", "alias": "baro-toronto-4", "name": "Baro", "image_url": "https://s3-media3.fl.yelpcdn.com/bphoto/wvfsESOG1IjzKIJzrONWag/o.jpg", "is_closed": false, "url": "https://www.yelp.com/biz/baro-toronto-4?adjust_creative=a2JdNtFqB-C38ga_06BHvw&utm_campaign=yelp_api_v3&utm_medium=api_v3_business_search&utm_source=a2JdNtFqB-C38ga_06BHvw", "review_count": 157, "categories": [{"alias": "cocktailbars", "title": "Cocktail Bars"}, {"alias": "chicken_wings", "title": "Chicken Wings"}, {"alias": "latin", "title": "Latin American"}], "rating": 3.5, "coordinates": {"latitude": 43.644906, "longitude": -79.39694}, "transactions": [], "price": "$$$", "location": {"address1": "485 King Street West", "address2": "", "address3": null, "city": "Toronto", "zip_code": "M5V 1K4", "country": "CA", "state": "ON", "display_address": ["485 King Street West", "Toronto, ON M5V 1K4", "Canada"]}, "phone": "+14163638388", "display_phone": "+1 416-363-8388", "distance": 1440.7622633560088}, {"id": "Qa4eXuZ1IFPwnVXJcpZWtw", "alias": "real-sports-toronto-2", "name": "Real Sports", "image_url": "https://s3-media2.fl.yelpcdn.com/bphoto/HTmCHOcpxFpuMhCVJY72FQ/o.jpg", "is_closed": false, "url": "https://www.yelp.com/biz/real-sports-toronto-2?adjust_creative=a2JdNtFqB-C38ga_06BHvw&utm_campaign=yelp_api_v3&utm_medium=api_v3_business_search&utm_source=a2JdNtFqB-C38ga_06BHvw", "review_count": 457, "categories": [{"alias": "sportsbars", "title": "Sports Bars"}, {"alias": "newcanadian", "title": "Canadian (New)"}, {"alias": "musicvenues", "title": "Music Venues"}], "rating": 3.5, "coordinates": {"latitude": 43.64324, "longitude": -79.379405}, "transactions": [], "price": "$$", "location": {"address1": "15 York Street", "address2": "Unit A", "address3": "", "city": "Toronto", "zip_code": "M5J 2Z2", "country": "CA", "state": "ON", "display_address": ["15 York Street", "Unit A", "Toronto, ON M5J 2Z2", "Canada"]}, "phone": "+14168155983", "display_phone": "+1 416-815-5983", "distance": 21.76459791436783}, {"id": "kaW97gZXyGMdkedZNdQuew", "alias": "harbord-house-toronto", "name": "Harbord House", "image_url": "https://s3-media1.fl.yelpcdn.com/bphoto/XLrNfIC0vesAm2-axqzg4Q/o.jpg", "is_closed": false, "url": "https://www.yelp.com/biz/harbord-house-toronto?adjust_creative=a2JdNtFqB-C38ga_06BHvw&utm_campaign=yelp_api_v3&utm_medium=api_v3_business_search&utm_source=a2JdNtFqB-C38ga_06BHvw", "review_count": 107, "categories": [{"alias": "pubs", "title": "Pubs"}, {"alias": "newcanadian", "title": "Canadian (New)"}], "rating": 3.5, "coordinates": {"latitude": 43.6625, "longitude": -79.40545}, "transactions": [], "price": "$$", "location": {"address1": "150 Harbord Street", "address2": "", "address3": "", "city": "Toronto", "zip_code": "M5S 1H2", "country": "CA", "state": "ON", "display_address": ["150 Harbord Street", "Toronto, ON M5S 1H2", "Canada"]}, "phone": "+16474307365", "display_phone": "+1 647-430-7365", "distance": 3005.1382047355205}, {"id": "0gbHHzaHkNniR2VU8jQ3dA", "alias": "kinka-izakaya-harbourfront-toronto", "name": "KINKA IZAKAYA HARBOURFRONT", "image_url": "https://s3-media1.fl.yelpcdn.com/bphoto/756SeulOYAux5ngBH8G6ug/o.jpg", "is_closed": false, "url": "https://www.yelp.com/biz/kinka-izakaya-harbourfront-toronto?adjust_creative=a2JdNtFqB-C38ga_06BHvw&utm_campaign=yelp_api_v3&utm_medium=api_v3_business_search&utm_source=a2JdNtFqB-C38ga_06BHvw", "review_count": 42, "categories": [{"alias": "japanese", "title": "Japanese"}, {"alias": "tapasmallplates", "title": "Tapas/Small Plates"}, {"alias": "pubs", "title": "Pubs"}], "rating": 4.0, "coordinates": {"latitude": 43.64157, "longitude": -79.37978}, "transactions": [], "location": {"address1": "110 Harbour Street", "address2": "Unit 108B", "address3": null, "city": "Toronto", "zip_code": "M5J 0B7", "country": "CA", "state": "ON", "display_address": ["110 Harbour Street", "Unit 108B", "Toronto, ON M5J 0B7", "Canada"]}, "phone": "+16473480110", "display_phone": "+1 647-348-0110", "distance": 225.41724230442722}, {"id": "oKZPgeCOxnVSxudYcn1OtQ", "alias": "cibo-wine-bar-toronto-11", "name": "Cibo Wine Bar", "image_url": "https://s3-media3.fl.yelpcdn.com/bphoto/z05SHn1apMbthqzYptqPwA/o.jpg", "is_closed": false, "url": "https://www.yelp.com/biz/cibo-wine-bar-toronto-11?adjust_creative=a2JdNtFqB-C38ga_06BHvw&utm_campaign=yelp_api_v3&utm_medium=api_v3_business_search&utm_source=a2JdNtFqB-C38ga_06BHvw", "review_count": 319, "categories": [{"alias": "wine_bars", "title": "Wine Bars"}, {"alias": "italian", "title": "Italian"}], "rating": 3.5, "coordinates": {"latitude": 43.64521, "longitude": -79.39737}, "transactions": [], "price": "$$", "location": {"address1": "522 King Street W", "address2": "", "address3": "", "city": "Toronto", "zip_code": "M5V 1L7", "country": "CA", "state": "ON", "display_address": ["522 King Street W", "Toronto, ON M5V 1L7", "Canada"]}, "phone": "+14165043939", "display_phone": "+1 416-504-3939", "distance": 1482.7252809703193}, {"id": "-bJ6Y5QmO8Uvc383xjC-OA", "alias": "the-monarch-tavern-toronto", "name": "The Monarch Tavern", "image_url": "https://s3-media2.fl.yelpcdn.com/bphoto/79rqG1agDGarWJskQwRl1g/o.jpg", "is_closed": false, "url": "https://www.yelp.com/biz/the-monarch-tavern-toronto?adjust_creative=a2JdNtFqB-C38ga_06BHvw&utm_campaign=yelp_api_v3&utm_medium=api_v3_business_search&utm_source=a2JdNtFqB-C38ga_06BHvw", "review_count": 39, "categories": [{"alias": "pubs", "title": "Pubs"}, {"alias": "sandwiches", "title": "Sandwiches"}, {"alias": "burgers", "title": "Burgers"}], "rating": 4.0, "coordinates": {"latitude": 43.65402, "longitude": -79.41363}, "transactions": [], "price": "$$", "location": {"address1": "12 Clinton Street", "address2": "", "address3": "", "city": "Toronto", "zip_code": "M6J 2N8", "country": "CA", "state": "ON", "display_address": ["12 Clinton Street", "Toronto, ON M6J 2N8", "Canada"]}, "phone": "+14165315833", "display_phone": "+1 416-531-5833", "distance": 3014.222436985778}, {"id": "jCiovc2qHJ5L-_1gigLueQ", "alias": "weslodge-bar-and-grill-toronto", "name": "Weslodge Bar & Grill", "image_url": "https://s3-media4.fl.yelpcdn.com/bphoto/6sU9ZPkF99FocwISNq3PqA/o.jpg", "is_closed": false, "url": "https://www.yelp.com/biz/weslodge-bar-and-grill-toronto?adjust_creative=a2JdNtFqB-C38ga_06BHvw&utm_campaign=yelp_api_v3&utm_medium=api_v3_business_search&utm_source=a2JdNtFqB-C38ga_06BHvw", "review_count": 256, "categories": [{"alias": "newcanadian", "title": "Canadian (New)"}, {"alias": "cocktailbars", "title": "Cocktail Bars"}], "rating": 3.5, "coordinates": {"latitude": 43.64554, "longitude": -79.39641}, "transactions": [], "price": "$$$", "location": {"address1": "480 King Street W", "address2": "", "address3": "", "city": "Toronto", "zip_code": "M5V 1L7", "country": "CA", "state": "ON", "display_address": ["480 King Street W", "Toronto, ON M5V 1L7", "Canada"]}, "phone": "+16476600999", "display_phone": "+1 647-660-0999", "distance": 1394.7555587277486}, {"id": "kuJRRmmmDUXqwM6kNihXXA", "alias": "jump-restaurant-toronto-3", "name": "Jump Restaurant", "image_url": "https://s3-media1.fl.yelpcdn.com/bphoto/oM-4AVZUAOzl_ZP4X_uecg/o.jpg", "is_closed": false, "url": "https://www.yelp.com/biz/jump-restaurant-toronto-3?adjust_creative=a2JdNtFqB-C38ga_06BHvw&utm_campaign=yelp_api_v3&utm_medium=api_v3_business_search&utm_source=a2JdNtFqB-C38ga_06BHvw", "review_count": 183, "categories": [{"alias": "newcanadian", "title": "Canadian (New)"}, {"alias": "wine_bars", "title": "Wine Bars"}], "rating": 3.5, "coordinates": {"latitude": 43.6479063, "longitude": -79.3780646}, "transactions": [], "price": "$$$", "location": {"address1": "18 Wellington Street W", "address2": "", "address3": "", "city": "Toronto", "zip_code": "M5L 1G4", "country": "CA", "state": "ON", "display_address": ["18 Wellington Street W", "Toronto, ON M5L 1G4", "Canada"]}, "phone": "+14163633400", "display_phone": "+1 416-363-3400", "distance": 516.2054221633013}, {"id": "W2NzlS8OJzGfDfr9oRz11Q", "alias": "drake-one-fifty-toronto", "name": "Drake One Fifty", "image_url": "https://s3-media3.fl.yelpcdn.com/bphoto/0wtbH7Z8F5ui7qfNHAZ2-Q/o.jpg", "is_closed": false, "url": "https://www.yelp.com/biz/drake-one-fifty-toronto?adjust_creative=a2JdNtFqB-C38ga_06BHvw&utm_campaign=yelp_api_v3&utm_medium=api_v3_business_search&utm_source=a2JdNtFqB-C38ga_06BHvw", "review_count": 239, "categories": [{"alias": "cocktailbars", "title": "Cocktail Bars"}, {"alias": "breakfast_brunch", "title": "Breakfast & Brunch"}, {"alias": "tradamerican", "title": "American (Traditional)"}], "rating": 3.5, "coordinates": {"latitude": 43.6493542, "longitude": -79.3846843}, "transactions": [], "price": "$$$", "location": {"address1": "150 York Street", "address2": "", "address3": "", "city": "Toronto", "zip_code": "M5H 3S5", "country": "CA", "state": "ON", "display_address": ["150 York Street", "Toronto, ON M5H 3S5", "Canada"]}, "phone": "+14163636150", "display_phone": "+1 416-363-6150", "distance": 803.3319627211224}, {"id": "C16ogi6ASv-sQW3SGScmNQ", "alias": "tutti-matti-restaurant-toronto", "name": "Tutti Matti Restaurant", "image_url": "https://s3-media1.fl.yelpcdn.com/bphoto/rdHNARZM0G2nH1K2lX0peA/o.jpg", "is_closed": false, "url": "https://www.yelp.com/biz/tutti-matti-restaurant-toronto?adjust_creative=a2JdNtFqB-C38ga_06BHvw&utm_campaign=yelp_api_v3&utm_medium=api_v3_business_search&utm_source=a2JdNtFqB-C38ga_06BHvw", "review_count": 94, "categories": [{"alias": "italian", "title": "Italian"}, {"alias": "wine_bars", "title": "Wine Bars"}, {"alias": "beerbar", "title": "Beer Bar"}], "rating": 3.5, "coordinates": {"latitude": 43.64728, "longitude": -79.39403}, "transactions": [], "price": "$$$", "location": {"address1": "364 Adelaide Street W", "address2": "", "address3": "", "city": "Toronto", "zip_code": "M5V 1R7", "country": "CA", "state": "ON", "display_address": ["364 Adelaide Street W", "Toronto, ON M5V 1R7", "Canada"]}, "phone": "+14165978839", "display_phone": "+1 416-597-8839", "distance": 1270.7437428827282}, {"id": "uIuJGLPWli4dbomvANcuiQ", "alias": "ovest-cucina-e-vineria-toronto-5", "name": "Ovest Cucina e Vineria", "image_url": "https://s3-media4.fl.yelpcdn.com/bphoto/tnxTXOWfwdVxo3q02pXPuA/o.jpg", "is_closed": false, "url": "https://www.yelp.com/biz/ovest-cucina-e-vineria-toronto-5?adjust_creative=a2JdNtFqB-C38ga_06BHvw&utm_campaign=yelp_api_v3&utm_medium=api_v3_business_search&utm_source=a2JdNtFqB-C38ga_06BHvw", "review_count": 67, "categories": [{"alias": "italian", "title": "Italian"}, {"alias": "wine_bars", "title": "Wine Bars"}], "rating": 4.0, "coordinates": {"latitude": 43.6434, "longitude": -79.406627}, "transactions": [], "price": "$$$", "location": {"address1": "788 King Street W", "address2": "", "address3": "", "city": "Toronto", "zip_code": "M5V 1N6", "country": "CA", "state": "ON", "display_address": ["788 King Street W", "Toronto, ON M5V 1N6", "Canada"]}, "phone": "+14162146161", "display_phone": "+1 416-214-6161", "distance": 2209.611239638689}, {"id": "EKeck5myBgPqy2ShyGEjHw", "alias": "aaa-bar-toronto", "name": "AAA Bar", "image_url": "https://s3-media1.fl.yelpcdn.com/bphoto/6wxju-orvDvSG8temfgXKA/o.jpg", "is_closed": false, "url": "https://www.yelp.com/biz/aaa-bar-toronto?adjust_creative=a2JdNtFqB-C38ga_06BHvw&utm_campaign=yelp_api_v3&utm_medium=api_v3_business_search&utm_source=a2JdNtFqB-C38ga_06BHvw", "review_count": 111, "categories": [{"alias": "bbq", "title": "Barbeque"}, {"alias": "pubs", "title": "Pubs"}], "rating": 3.5, "coordinates": {"latitude": 43.65178, "longitude": -79.37272}, "transactions": [], "price": "$$", "location": {"address1": "138 Adelaide Street E", "address2": "", "address3": "", "city": "Toronto", "zip_code": "M5C 1K9", "country": "CA", "state": "ON", "display_address": ["138 Adelaide Street E", "Toronto, ON M5C 1K9", "Canada"]}, "phone": "+14168502726", "display_phone": "+1 416-850-2726", "distance": 1061.44138600813}, {"id": "vO4rIXzsK3aWn1EZ4cHwXQ", "alias": "mother-tongue-toronto", "name": "Mother Tongue", "image_url": "https://s3-media4.fl.yelpcdn.com/bphoto/ylXkVjD5XuovlI9arddYmQ/o.jpg", "is_closed": false, "url": "https://www.yelp.com/biz/mother-tongue-toronto?adjust_creative=a2JdNtFqB-C38ga_06BHvw&utm_campaign=yelp_api_v3&utm_medium=api_v3_business_search&utm_source=a2JdNtFqB-C38ga_06BHvw", "review_count": 55, "categories": [{"alias": "cocktailbars", "title": "Cocktail Bars"}, {"alias": "asianfusion", "title": "Asian Fusion"}], "rating": 4.0, "coordinates": {"latitude": 43.64739, "longitude": -79.39327}, "transactions": [], "location": {"address1": "348 Adelaide Street W", "address2": "", "address3": null, "city": "Toronto", "zip_code": "M5W 1R7", "country": "CA", "state": "ON", "display_address": ["348 Adelaide Street W", "Toronto, ON M5W 1R7", "Canada"]}, "phone": "+16472435858", "display_phone": "+1 647-243-5858", "distance": 1222.2665598694052}, {"id": "CM7IDKFxV6p5FdptjXsr8A", "alias": "kellys-landing-toronto", "name": "Kellys Landing", "image_url": "https://s3-media3.fl.yelpcdn.com/bphoto/Xz4HIjOs52J07xrCVNDYgA/o.jpg", "is_closed": false, "url": "https://www.yelp.com/biz/kellys-landing-toronto?adjust_creative=a2JdNtFqB-C38ga_06BHvw&utm_campaign=yelp_api_v3&utm_medium=api_v3_business_search&utm_source=a2JdNtFqB-C38ga_06BHvw", "review_count": 144, "categories": [{"alias": "sportsbars", "title": "Sports Bars"}, {"alias": "tradamerican", "title": "American (Traditional)"}], "rating": 3.5, "coordinates": {"latitude": 43.6448899, "longitude": -79.38305}, "transactions": [], "price": "$$", "location": {"address1": "123 Front Street W", "address2": "", "address3": null, "city": "Toronto", "zip_code": "M5J 2M2", "country": "CA", "state": "ON", "display_address": ["123 Front Street W", "Toronto, ON M5J 2M2", "Canada"]}, "phone": "+16477761133", "display_phone": "+1 647-776-1133", "distance": 382.41591861129365}, {"id": "swM_9CXxkvxEk3fDkjA6PQ", "alias": "bar-verde-toronto-3", "name": "Bar Verde", "image_url": "https://s3-media4.fl.yelpcdn.com/bphoto/hB2M4-pp4wmBWKqqt6Mz2A/o.jpg", "is_closed": false, "url": "https://www.yelp.com/biz/bar-verde-toronto-3?adjust_creative=a2JdNtFqB-C38ga_06BHvw&utm_campaign=yelp_api_v3&utm_medium=api_v3_business_search&utm_source=a2JdNtFqB-C38ga_06BHvw", "review_count": 50, "categories": [{"alias": "newcanadian", "title": "Canadian (New)"}, {"alias": "cocktailbars", "title": "Cocktail Bars"}], "rating": 4.0, "coordinates": {"latitude": 43.65459, "longitude": -79.38049}, "transactions": [], "price": "$$", "location": {"address1": "260 Yonge Street", "address2": null, "address3": null, "city": "Toronto", "zip_code": "M5B 2L9", "country": "CA", "state": "ON", "display_address": ["260 Yonge Street", "Toronto, ON M5B 2L9", "Canada"]}, "phone": "+14165522920", "display_phone": "+1 416-552-2920", "distance": 1294.3528907673315}, {"id": "C3rH8u6P3wFH95AH8SeNmw", "alias": "reds-wine-tavern-toronto-2", "name": "Reds Wine Tavern", "image_url": "https://s3-media2.fl.yelpcdn.com/bphoto/uJT7GfC-j5MwpYZNILj1kg/o.jpg", "is_closed": false, "url": "https://www.yelp.com/biz/reds-wine-tavern-toronto-2?adjust_creative=a2JdNtFqB-C38ga_06BHvw&utm_campaign=yelp_api_v3&utm_medium=api_v3_business_search&utm_source=a2JdNtFqB-C38ga_06BHvw", "review_count": 135, "categories": [{"alias": "wine_bars", "title": "Wine Bars"}, {"alias": "venues", "title": "Venues & Event Spaces"}, {"alias": "argentine", "title": "Argentine"}], "rating": 3.5, "coordinates": {"latitude": 43.6493899, "longitude": -79.38214}, "transactions": [], "price": "$$$", "location": {"address1": "77 Adelaide St.W.", "address2": "1st Canadian Pl", "address3": "", "city": "Toronto", "zip_code": "M5X 1B1", "country": "CA", "state": "ON", "display_address": ["77 Adelaide St.W.", "1st Canadian Pl", "Toronto, ON M5X 1B1", "Canada"]}, "phone": "+14168627337", "display_phone": "+1 416-862-7337", "distance": 724.5235185223913}, {"id": "_5XClj4E5VCIsEscbrrPKg", "alias": "lopan-toronto", "name": "LoPan", "image_url": "https://s3-media2.fl.yelpcdn.com/bphoto/fqmg2e5gaix2OWzjqoe6qQ/o.jpg", "is_closed": false, "url": "https://www.yelp.com/biz/lopan-toronto?adjust_creative=a2JdNtFqB-C38ga_06BHvw&utm_campaign=yelp_api_v3&utm_medium=api_v3_business_search&utm_source=a2JdNtFqB-C38ga_06BHvw", "review_count": 24, "categories": [{"alias": "cocktailbars", "title": "Cocktail Bars"}, {"alias": "chinese", "title": "Chinese"}, {"alias": "asianfusion", "title": "Asian Fusion"}], "rating": 4.0, "coordinates": {"latitude": 43.65574, "longitude": -79.4098}, "transactions": [], "price": "$$$", "location": {"address1": "503 College Street", "address2": "", "address3": "", "city": "Toronto", "zip_code": "M6G 1A5", "country": "CA", "state": "ON", "display_address": ["503 College Street", "Toronto, ON M6G 1A5", "Canada"]}, "phone": "+16473418882", "display_phone": "+1 647-341-8882", "distance": 2835.5203556145393}, {"id": "OSF8Iy5Xq-hAN4-zhDVS4w", "alias": "bar-reyna-toronto", "name": "Bar Reyna", "image_url": "https://s3-media1.fl.yelpcdn.com/bphoto/qpbbJm2wVKWuZPqLvlRjDw/o.jpg", "is_closed": false, "url": "https://www.yelp.com/biz/bar-reyna-toronto?adjust_creative=a2JdNtFqB-C38ga_06BHvw&utm_campaign=yelp_api_v3&utm_medium=api_v3_business_search&utm_source=a2JdNtFqB-C38ga_06BHvw", "review_count": 116, "categories": [{"alias": "mediterranean", "title": "Mediterranean"}, {"alias": "cocktailbars", "title": "Cocktail Bars"}], "rating": 3.5, "coordinates": {"latitude": 43.6700299, "longitude": -79.39335}, "transactions": [], "price": "$$", "location": {"address1": "158 Cumberland Street", "address2": "", "address3": "", "city": "Toronto", "zip_code": "M5R 1A8", "country": "CA", "state": "ON", "display_address": ["158 Cumberland Street", "Toronto, ON M5R 1A8", "Canada"]}, "phone": "+16477484464", "display_phone": "+1 647-748-4464", "distance": 3170.267618625116}, {"id": "nyZ9-KTtfq_ntD6M1G79iQ", "alias": "henrietta-lane-toronto", "name": "Henrietta Lane", "image_url": "https://s3-media2.fl.yelpcdn.com/bphoto/FKdH2kNzDGKnQjp62QTjDQ/o.jpg", "is_closed": false, "url": "https://www.yelp.com/biz/henrietta-lane-toronto?adjust_creative=a2JdNtFqB-C38ga_06BHvw&utm_campaign=yelp_api_v3&utm_medium=api_v3_business_search&utm_source=a2JdNtFqB-C38ga_06BHvw", "review_count": 12, "categories": [{"alias": "cafes", "title": "Cafes"}, {"alias": "wine_bars", "title": "Wine Bars"}, {"alias": "beerbar", "title": "Beer Bar"}], "rating": 4.5, "coordinates": {"latitude": 43.65406, "longitude": -79.36122}, "transactions": [], "location": {"address1": "394 King Street East", "address2": "", "address3": null, "city": "Toronto", "zip_code": "M5A 1K9", "country": "CA", "state": "ON", "display_address": ["394 King Street East", "Toronto, ON M5A 1K9", "Canada"]}, "phone": "", "display_phone": "", "distance": 1870.4485905647746}, {"id": "e_ILiIs2pVpskfeL-zFtTw", "alias": "lea-restaurante-toronto-3", "name": "Lea Restaurante", "image_url": "https://s3-media1.fl.yelpcdn.com/bphoto/5uU-JLi2BhI_0smrbPRC1Q/o.jpg", "is_closed": false, "url": "https://www.yelp.com/biz/le%C3%B1a-restaurante-toronto-3?adjust_creative=a2JdNtFqB-C38ga_06BHvw&utm_campaign=yelp_api_v3&utm_medium=api_v3_business_search&utm_source=a2JdNtFqB-C38ga_06BHvw", "review_count": 248, "categories": [{"alias": "latin", "title": "Latin American"}, {"alias": "spanish", "title": "Spanish"}, {"alias": "cocktailbars", "title": "Cocktail Bars"}], "rating": 3.5, "coordinates": {"latitude": 43.6517399, "longitude": -79.38026}, "transactions": [], "price": "$$$", "location": {"address1": "176 Yonge Street", "address2": "", "address3": null, "city": "Toronto", "zip_code": "M5C 2L7", "country": "CA", "state": "ON", "display_address": ["176 Yonge Street", "Toronto, ON M5C 2L7", "Canada"]}, "phone": "+14165073378", "display_phone": "+1 416-507-3378", "distance": 943.889191009235}, {"id": "4SyAKQevPuB4punANp41-Q", "alias": "el-rey-mezcal-bar-toronto", "name": "El Rey Mezcal Bar", "image_url": "https://s3-media2.fl.yelpcdn.com/bphoto/Lxm-2rlbhqByXGcvouL9DQ/o.jpg", "is_closed": false, "url": "https://www.yelp.com/biz/el-rey-mezcal-bar-toronto?adjust_creative=a2JdNtFqB-C38ga_06BHvw&utm_campaign=yelp_api_v3&utm_medium=api_v3_business_search&utm_source=a2JdNtFqB-C38ga_06BHvw", "review_count": 64, "categories": [{"alias": "cocktailbars", "title": "Cocktail Bars"}, {"alias": "gastropubs", "title": "Gastropubs"}, {"alias": "mexican", "title": "Mexican"}], "rating": 3.5, "coordinates": {"latitude": 43.6528135234028, "longitude": -79.4000687706962}, "transactions": [], "price": "$$", "location": {"address1": "2A Kensington Avenue", "address2": "", "address3": "", "city": "Toronto", "zip_code": "M5T 2J7", "country": "CA", "state": "ON", "display_address": ["2A Kensington Avenue", "Toronto, ON M5T 2J7", "Canada"]}, "phone": "", "display_phone": "", "distance": 1984.8413576831501}, {"id": "eQCYur0033RkZdh5VjbF8A", "alias": "oliver-and-bonacini-caf-grill-toronto-5", "name": "Oliver & Bonacini Caf Grill", "image_url": "https://s3-media2.fl.yelpcdn.com/bphoto/dNLqjMszDPMWP1dJ52gMew/o.jpg", "is_closed": false, "url": "https://www.yelp.com/biz/oliver-and-bonacini-caf%C3%A9-grill-toronto-5?adjust_creative=a2JdNtFqB-C38ga_06BHvw&utm_campaign=yelp_api_v3&utm_medium=api_v3_business_search&utm_source=a2JdNtFqB-C38ga_06BHvw", "review_count": 228, "categories": [{"alias": "newcanadian", "title": "Canadian (New)"}, {"alias": "wine_bars", "title": "Wine Bars"}, {"alias": "breakfast_brunch", "title": "Breakfast & Brunch"}], "rating": 3.0, "coordinates": {"latitude": 43.6471891242792, "longitude": -79.3767989568769}, "transactions": [], "price": "$$$", "location": {"address1": "33 Yonge Street", "address2": "", "address3": "", "city": "Toronto", "zip_code": "M5E 1G4", "country": "CA", "state": "ON", "display_address": ["33 Yonge Street", "Toronto, ON M5E 1G4", "Canada"]}, "phone": "+16472602070", "display_phone": "+1 647-260-2070", "distance": 469.2111029521827}, {"id": "dDTJv37DK257kf74ZPBcxg", "alias": "the-bishop-and-belcher-toronto", "name": "The Bishop And Belcher", "image_url": "https://s3-media2.fl.yelpcdn.com/bphoto/mjmjB8KLY57qfMoVJO4mxw/o.jpg", "is_closed": false, "url": "https://www.yelp.com/biz/the-bishop-and-belcher-toronto?adjust_creative=a2JdNtFqB-C38ga_06BHvw&utm_campaign=yelp_api_v3&utm_medium=api_v3_business_search&utm_source=a2JdNtFqB-C38ga_06BHvw", "review_count": 102, "categories": [{"alias": "pubs", "title": "Pubs"}, {"alias": "british", "title": "British"}], "rating": 3.5, "coordinates": {"latitude": 43.6703050256793, "longitude": -79.382288336319}, "transactions": [], "price": "$$", "location": {"address1": "175 Bloor Street E", "address2": "", "address3": "", "city": "Toronto", "zip_code": "M4W 3R8", "country": "CA", "state": "ON", "display_address": ["175 Bloor Street E", "Toronto, ON M4W 3R8", "Canada"]}, "phone": "+14165912352", "display_phone": "+1 416-591-2352", "distance": 3009.6427058523077}, {"id": "Dv0OHpQSL4hOGl2KAEVvlA", "alias": "jack-astors-bar-and-grill-front-street-toronto", "name": "Jack Astor's Bar & Grill Front Street", "image_url": "https://s3-media4.fl.yelpcdn.com/bphoto/pNCnV6I7X4S9JCLlw4xfiw/o.jpg", "is_closed": false, "url": "https://www.yelp.com/biz/jack-astors-bar-and-grill-front-street-toronto?adjust_creative=a2JdNtFqB-C38ga_06BHvw&utm_campaign=yelp_api_v3&utm_medium=api_v3_business_search&utm_source=a2JdNtFqB-C38ga_06BHvw", "review_count": 256, "categories": [{"alias": "newcanadian", "title": "Canadian (New)"}, {"alias": "sportsbars", "title": "Sports Bars"}, {"alias": "burgers", "title": "Burgers"}], "rating": 3.0, "coordinates": {"latitude": 43.64529, "longitude": -79.38378}, "transactions": [], "price": "$$", "location": {"address1": "144 Front Street West", "address2": "", "address3": "", "city": "Toronto", "zip_code": "M5J 2L7", "country": "CA", "state": "ON", "display_address": ["144 Front Street West", "Toronto, ON M5J 2L7", "Canada"]}, "phone": "+14165852121", "display_phone": "+1 416-585-2121", "distance": 438.76785316553753}, {"id": "0gOE-DJOhWavRI6qQryGhA", "alias": "bar-wellington-toronto", "name": "Bar Wellington", "image_url": "https://s3-media4.fl.yelpcdn.com/bphoto/0j7svSmms8mFBad4nlgZDQ/o.jpg", "is_closed": false, "url": "https://www.yelp.com/biz/bar-wellington-toronto?adjust_creative=a2JdNtFqB-C38ga_06BHvw&utm_campaign=yelp_api_v3&utm_medium=api_v3_business_search&utm_source=a2JdNtFqB-C38ga_06BHvw", "review_count": 104, "categories": [{"alias": "pubs", "title": "Pubs"}, {"alias": "bistros", "title": "Bistros"}, {"alias": "cafes", "title": "Cafes"}], "rating": 3.5, "coordinates": {"latitude": 43.64335, "longitude": -79.3994}, "transactions": [], "price": "$$", "location": {"address1": "520 Wellington Street W", "address2": "", "address3": "", "city": "Toronto", "zip_code": "M5V 1E3", "country": "CA", "state": "ON", "display_address": ["520 Wellington Street W", "Toronto, ON M5V 1E3", "Canada"]}, "phone": "+14163418880", "display_phone": "+1 416-341-8880", "distance": 1628.974872384015}, {"id": "nHV1iXKBVlCW64bCt4itnA", "alias": "keating-channel-pub-and-grill-toronto", "name": "Keating Channel Pub & Grill", "image_url": "https://s3-media3.fl.yelpcdn.com/bphoto/IT9cJ2L-KL18tiiBK0wKTQ/o.jpg", "is_closed": false, "url": "https://www.yelp.com/biz/keating-channel-pub-and-grill-toronto?adjust_creative=a2JdNtFqB-C38ga_06BHvw&utm_campaign=yelp_api_v3&utm_medium=api_v3_business_search&utm_source=a2JdNtFqB-C38ga_06BHvw", "review_count": 36, "categories": [{"alias": "pubs", "title": "Pubs"}, {"alias": "seafood", "title": "Seafood"}, {"alias": "newcanadian", "title": "Canadian (New)"}], "rating": 4.0, "coordinates": {"latitude": 43.64763, "longitude": -79.35337}, "transactions": [], "price": "$$", "location": {"address1": "2 Villiers St", "address2": "", "address3": "", "city": "Toronto", "zip_code": "M5A 1B1", "country": "CA", "state": "ON", "display_address": ["2 Villiers St", "Toronto, ON M5A 1B1", "Canada"]}, "phone": "+14165720030", "display_phone": "+1 416-572-0030", "distance": 2128.0446143265995}, {"id": "KT2E2HQtb0HA0zsjbVp2BQ", "alias": "stk-steakhouse-toronto", "name": "STK Steakhouse", "image_url": "https://s3-media4.fl.yelpcdn.com/bphoto/AwxoW7hNo6wUARlo-MN_yw/o.jpg", "is_closed": false, "url": "https://www.yelp.com/biz/stk-steakhouse-toronto?adjust_creative=a2JdNtFqB-C38ga_06BHvw&utm_campaign=yelp_api_v3&utm_medium=api_v3_business_search&utm_source=a2JdNtFqB-C38ga_06BHvw", "review_count": 170, "categories": [{"alias": "steak", "title": "Steakhouses"}, {"alias": "cocktailbars", "title": "Cocktail Bars"}, {"alias": "lounges", "title": "Lounges"}], "rating": 3.0, "coordinates": {"latitude": 43.6703238, "longitude": -79.3941847}, "transactions": [], "price": "$$$$", "location": {"address1": "153 Yorkville Ave.", "address2": "", "address3": null, "city": "Toronto", "zip_code": "M5R 1C4", "country": "CA", "state": "ON", "display_address": ["153 Yorkville Ave.", "Toronto, ON M5R 1C4", "Canada"]}, "phone": "+14166139660", "display_phone": "+1 416-613-9660", "distance": 3243.736653056097}, {"id": "7ZBh-3wWVQ5zkd6KZytW0g", "alias": "cibo-wine-bar-toronto-12", "name": "Cibo Wine Bar", "image_url": "https://s3-media2.fl.yelpcdn.com/bphoto/JMCMustSA27O1yMgNxzxZw/o.jpg", "is_closed": false, "url": "https://www.yelp.com/biz/cibo-wine-bar-toronto-12?adjust_creative=a2JdNtFqB-C38ga_06BHvw&utm_campaign=yelp_api_v3&utm_medium=api_v3_business_search&utm_source=a2JdNtFqB-C38ga_06BHvw", "review_count": 152, "categories": [{"alias": "wine_bars", "title": "Wine Bars"}, {"alias": "italian", "title": "Italian"}, {"alias": "mediterranean", "title": "Mediterranean"}], "rating": 3.0, "coordinates": {"latitude": 43.67047, "longitude": -79.3936}, "transactions": [], "price": "$$$", "location": {"address1": "133 Yorkville Avenue", "address2": "", "address3": "", "city": "Toronto", "zip_code": "M5R 1C4", "country": "CA", "state": "ON", "display_address": ["133 Yorkville Avenue", "Toronto, ON M5R 1C4", "Canada"]}, "phone": "+14169252143", "display_phone": "+1 416-925-2143", "distance": 3228.297826452182}, {"id": "0KVx4FX9trgpM6pzH2C8_A", "alias": "district-eatery-toronto", "name": "District Eatery", "image_url": "https://s3-media2.fl.yelpcdn.com/bphoto/ia3GX_giHdfh8f_MTHKleA/o.jpg", "is_closed": false, "url": "https://www.yelp.com/biz/district-eatery-toronto?adjust_creative=a2JdNtFqB-C38ga_06BHvw&utm_campaign=yelp_api_v3&utm_medium=api_v3_business_search&utm_source=a2JdNtFqB-C38ga_06BHvw", "review_count": 99, "categories": [{"alias": "cocktailbars", "title": "Cocktail Bars"}, {"alias": "tapasmallplates", "title": "Tapas/Small Plates"}, {"alias": "salad", "title": "Salad"}], "rating": 3.5, "coordinates": {"latitude": 43.64627, "longitude": -79.39028}, "transactions": [], "price": "$$", "location": {"address1": "303 King Street W", "address2": null, "address3": "", "city": "Toronto", "zip_code": "M5V 1J5", "country": "CA", "state": "ON", "display_address": ["303 King Street W", "Toronto, ON M5V 1J5", "Canada"]}, "phone": "+14169799799", "display_phone": "+1 416-979-9799", "distance": 954.7839996643205}, {"id": "3dG6AB7o5QMVQzga0zotiA", "alias": "irish-embassy-pub-and-grill-toronto", "name": "Irish Embassy Pub & Grill", "image_url": "https://s3-media2.fl.yelpcdn.com/bphoto/tQpDprc2qL8crmf3QgXzEQ/o.jpg", "is_closed": false, "url": "https://www.yelp.com/biz/irish-embassy-pub-and-grill-toronto?adjust_creative=a2JdNtFqB-C38ga_06BHvw&utm_campaign=yelp_api_v3&utm_medium=api_v3_business_search&utm_source=a2JdNtFqB-C38ga_06BHvw", "review_count": 139, "categories": [{"alias": "irish", "title": "Irish"}, {"alias": "pubs", "title": "Pubs"}], "rating": 3.0, "coordinates": {"latitude": 43.64807, "longitude": -79.37712}, "transactions": [], "price": "$$", "location": {"address1": "49 Yonge St", "address2": "", "address3": "", "city": "Toronto", "zip_code": "M5E 1J1", "country": "CA", "state": "ON", "display_address": ["49 Yonge St", "Toronto, ON M5E 1J1", "Canada"]}, "phone": "+14168668282", "display_phone": "+1 416-866-8282", "distance": 549.9682562470576}, {"id": "2lHLb0Hi_UtGa1Bne-jZuA", "alias": "hugs-and-sarcasm-toronto", "name": "Hugs and Sarcasm", "image_url": "https://s3-media4.fl.yelpcdn.com/bphoto/QG7D3Mp2q0Uj-WjeMqd3Rw/o.jpg", "is_closed": false, "url": "https://www.yelp.com/biz/hugs-and-sarcasm-toronto?adjust_creative=a2JdNtFqB-C38ga_06BHvw&utm_campaign=yelp_api_v3&utm_medium=api_v3_business_search&utm_source=a2JdNtFqB-C38ga_06BHvw", "review_count": 29, "categories": [{"alias": "sportsbars", "title": "Sports Bars"}, {"alias": "newcanadian", "title": "Canadian (New)"}], "rating": 4.0, "coordinates": {"latitude": 43.6457619092439, "longitude": -79.4104793334332}, "transactions": [], "price": "$$", "location": {"address1": "859 Queen Street W", "address2": "", "address3": "", "city": "Toronto", "zip_code": "M6J 1G5", "country": "CA", "state": "ON", "display_address": ["859 Queen Street W", "Toronto, ON M6J 1G5", "Canada"]}, "phone": "+16473524227", "display_phone": "+1 647-352-4227", "distance": 2533.965759929951}, {"id": "bKUXKjUIY34BTowDBwFjbQ", "alias": "the-churchmouse-a-firkin-pub-toronto-2", "name": "The Churchmouse: A Firkin Pub", "image_url": "https://s3-media4.fl.yelpcdn.com/bphoto/QLRoGx4ttPzX_kMBswB6kg/o.jpg", "is_closed": false, "url": "https://www.yelp.com/biz/the-churchmouse-a-firkin-pub-toronto-2?adjust_creative=a2JdNtFqB-C38ga_06BHvw&utm_campaign=yelp_api_v3&utm_medium=api_v3_business_search&utm_source=a2JdNtFqB-C38ga_06BHvw", "review_count": 77, "categories": [{"alias": "pubs", "title": "Pubs"}, {"alias": "british", "title": "British"}], "rating": 3.5, "coordinates": {"latitude": 43.6646112519968, "longitude": -79.3801465109641}, "transactions": [], "price": "$$", "location": {"address1": "475 Church Street", "address2": "", "address3": "", "city": "Toronto", "zip_code": "M4Y 2C5", "country": "CA", "state": "ON", "display_address": ["475 Church Street", "Toronto, ON M4Y 2C5", "Canada"]}, "phone": "+14169271735", "display_phone": "+1 416-927-1735", "distance": 2367.343004346993}, {"id": "nOu-pkyvRkRH-Cw3t00gyw", "alias": "the-football-factory-toronto", "name": "The Football Factory", "image_url": "https://s3-media4.fl.yelpcdn.com/bphoto/hsd1TaBN0JBnM-odQLXyWw/o.jpg", "is_closed": false, "url": "https://www.yelp.com/biz/the-football-factory-toronto?adjust_creative=a2JdNtFqB-C38ga_06BHvw&utm_campaign=yelp_api_v3&utm_medium=api_v3_business_search&utm_source=a2JdNtFqB-C38ga_06BHvw", "review_count": 43, "categories": [{"alias": "sportsbars", "title": "Sports Bars"}, {"alias": "tradamerican", "title": "American (Traditional)"}, {"alias": "beerbar", "title": "Beer Bar"}], "rating": 3.5, "coordinates": {"latitude": 43.6463209, "longitude": -79.4038606}, "transactions": [], "price": "$$", "location": {"address1": "164 Bathurst Street", "address2": "", "address3": "", "city": "Toronto", "zip_code": "M5V 2R3", "country": "CA", "state": "ON", "display_address": ["164 Bathurst Street", "Toronto, ON M5V 2R3", "Canada"]}, "phone": "+14163684625", "display_phone": "+1 416-368-4625", "distance": 2014.534449764085}, {"id": "2_Vy2ybKXUKh21lM25IiKg", "alias": "ballaro-mission-lasagna-toronto-2", "name": "Ballaro Mission Lasagna", "image_url": "https://s3-media2.fl.yelpcdn.com/bphoto/Zs9ZQINM2ge-jja57v6mNw/o.jpg", "is_closed": false, "url": "https://www.yelp.com/biz/ballaro-mission-lasagna-toronto-2?adjust_creative=a2JdNtFqB-C38ga_06BHvw&utm_campaign=yelp_api_v3&utm_medium=api_v3_business_search&utm_source=a2JdNtFqB-C38ga_06BHvw", "review_count": 11, "categories": [{"alias": "italian", "title": "Italian"}, {"alias": "wine_bars", "title": "Wine Bars"}], "rating": 4.5, "coordinates": {"latitude": 43.65482, "longitude": -79.41497}, "transactions": [], "location": {"address1": "633 College Street", "address2": null, "address3": "", "city": "Toronto", "zip_code": "M6G 1B5", "country": "CA", "state": "ON", "display_address": ["633 College Street", "Toronto, ON M6G 1B5", "Canada"]}, "phone": "+16475703361", "display_phone": "+1 647-570-3361", "distance": 3152.663051268215}, {"id": "Dgzrb9DTWozUcYOe4L9_FQ", "alias": "squirlys-toronto", "name": "Squirly's", "image_url": "https://s3-media2.fl.yelpcdn.com/bphoto/NpVk0hIhPbPR4pRZqDhqsQ/o.jpg", "is_closed": false, "url": "https://www.yelp.com/biz/squirlys-toronto?adjust_creative=a2JdNtFqB-C38ga_06BHvw&utm_campaign=yelp_api_v3&utm_medium=api_v3_business_search&utm_source=a2JdNtFqB-C38ga_06BHvw", "review_count": 53, "categories": [{"alias": "tradamerican", "title": "American (Traditional)"}, {"alias": "lounges", "title": "Lounges"}, {"alias": "cocktailbars", "title": "Cocktail Bars"}], "rating": 3.5, "coordinates": {"latitude": 43.646, "longitude": -79.40881}, "transactions": [], "price": "$$", "location": {"address1": "807 Queen Street W", "address2": "", "address3": "", "city": "Toronto", "zip_code": "M6J 1G1", "country": "CA", "state": "ON", "display_address": ["807 Queen Street W", "Toronto, ON M6J 1G1", "Canada"]}, "phone": "+14167030574", "display_phone": "+1 416-703-0574", "distance": 2412.9198483835817}, {"id": "v9P-qBwGI7Axt3-RwcjPQQ", "alias": "dublin-calling-toronto", "name": "Dublin Calling", "image_url": "https://s3-media4.fl.yelpcdn.com/bphoto/UjYa3I9BHLJh6Caj6RfZig/o.jpg", "is_closed": false, "url": "https://www.yelp.com/biz/dublin-calling-toronto?adjust_creative=a2JdNtFqB-C38ga_06BHvw&utm_campaign=yelp_api_v3&utm_medium=api_v3_business_search&utm_source=a2JdNtFqB-C38ga_06BHvw", "review_count": 25, "categories": [{"alias": "chicken_wings", "title": "Chicken Wings"}, {"alias": "burgers", "title": "Burgers"}, {"alias": "pubs", "title": "Pubs"}], "rating": 4.0, "coordinates": {"latitude": 43.64832, "longitude": -79.3891}, "transactions": [], "price": "$$$", "location": {"address1": "250 Adelaide Street West", "address2": "", "address3": "", "city": "Toronto", "zip_code": "M5H 1X6", "country": "CA", "state": "ON", "display_address": ["250 Adelaide Street West", "Toronto, ON M5H 1X6", "Canada"]}, "phone": "+16473441234", "display_phone": "+1 647-344-1234", "distance": 965.6731894370827}, {"id": "TngEu-Si_L2D-AsicoF7yQ", "alias": "boku-toronto-2", "name": "BOKU", "image_url": "https://s3-media2.fl.yelpcdn.com/bphoto/Yhby39azzniek7eTvwdRLg/o.jpg", "is_closed": false, "url": "https://www.yelp.com/biz/boku-toronto-2?adjust_creative=a2JdNtFqB-C38ga_06BHvw&utm_campaign=yelp_api_v3&utm_medium=api_v3_business_search&utm_source=a2JdNtFqB-C38ga_06BHvw", "review_count": 43, "categories": [{"alias": "ramen", "title": "Ramen"}, {"alias": "cocktailbars", "title": "Cocktail Bars"}], "rating": 3.5, "coordinates": {"latitude": 43.65006, "longitude": -79.36022}, "transactions": [], "price": "$$", "location": {"address1": "42 Gristmill Lane", "address2": "", "address3": null, "city": "Toronto", "zip_code": "M5A 3C4", "country": "CA", "state": "ON", "display_address": ["42 Gristmill Lane", "Toronto, ON M5A 3C4", "Canada"]}, "phone": "+14163688686", "display_phone": "+1 416-368-8686", "distance": 1702.5858965204966}, {"id": "drNhiiDfuWAbuGcK3or8IA", "alias": "moxies-grill-and-bar-toronto-4", "name": "Moxie's Grill & Bar", "image_url": "https://s3-media2.fl.yelpcdn.com/bphoto/M9moDmPVlbSZlhLvwnsZ7w/o.jpg", "is_closed": false, "url": "https://www.yelp.com/biz/moxies-grill-and-bar-toronto-4?adjust_creative=a2JdNtFqB-C38ga_06BHvw&utm_campaign=yelp_api_v3&utm_medium=api_v3_business_search&utm_source=a2JdNtFqB-C38ga_06BHvw", "review_count": 92, "categories": [{"alias": "lounges", "title": "Lounges"}, {"alias": "tradamerican", "title": "American (Traditional)"}, {"alias": "cocktailbars", "title": "Cocktail Bars"}], "rating": 3.0, "coordinates": {"latitude": 43.6464472846179, "longitude": -79.3843205981397}, "transactions": [], "price": "$$", "location": {"address1": "70 University Ave", "address2": "", "address3": "", "city": "Toronto", "zip_code": "M5J 2M4", "country": "CA", "state": "ON", "display_address": ["70 University Ave", "Toronto, ON M5J 2M4", "Canada"]}, "phone": "+16477487172", "display_phone": "+1 647-748-7172", "distance": 540.2566930064195}, {"id": "aQraxJMS2wOJbcQpqtiHew", "alias": "lapinou-toronto", "name": "Lapinou", "image_url": "https://s3-media4.fl.yelpcdn.com/bphoto/VnTDk1yZtQ2EFfopBHLEpQ/o.jpg", "is_closed": false, "url": "https://www.yelp.com/biz/lapinou-toronto?adjust_creative=a2JdNtFqB-C38ga_06BHvw&utm_campaign=yelp_api_v3&utm_medium=api_v3_business_search&utm_source=a2JdNtFqB-C38ga_06BHvw", "review_count": 16, "categories": [{"alias": "french", "title": "French"}, {"alias": "wine_bars", "title": "Wine Bars"}], "rating": 4.0, "coordinates": {"latitude": 43.6444, "longitude": -79.40155}, "transactions": [], "location": {"address1": "642 King Street W", "address2": "", "address3": null, "city": "Toronto", "zip_code": "M5V 1M7", "country": "CA", "state": "ON", "display_address": ["642 King Street W", "Toronto, ON M5V 1M7", "Canada"]}, "phone": "+14164794414", "display_phone": "+1 416-479-4414", "distance": 1808.5232852261925}, {"id": "vqgfQqPiLw6ghdVgpZ_vJQ", "alias": "jack-astors-bar-and-grill-dundas-square-toronto", "name": "Jack Astor's Bar & Grill Dundas Square", "image_url": "https://s3-media4.fl.yelpcdn.com/bphoto/Fc80VNAatGr2RXPTiSKntw/o.jpg", "is_closed": false, "url": "https://www.yelp.com/biz/jack-astors-bar-and-grill-dundas-square-toronto?adjust_creative=a2JdNtFqB-C38ga_06BHvw&utm_campaign=yelp_api_v3&utm_medium=api_v3_business_search&utm_source=a2JdNtFqB-C38ga_06BHvw", "review_count": 225, "categories": [{"alias": "newcanadian", "title": "Canadian (New)"}, {"alias": "sportsbars", "title": "Sports Bars"}, {"alias": "burgers", "title": "Burgers"}], "rating": 3.0, "coordinates": {"latitude": 43.65658637245, "longitude": -79.3799879253355}, "transactions": [], "price": "$$", "location": {"address1": "10 Dundas Street East", "address2": "", "address3": "", "city": "Toronto", "zip_code": "M5B 2G9", "country": "CA", "state": "ON", "display_address": ["10 Dundas Street East", "Toronto, ON M5B 2G9", "Canada"]}, "phone": "+14162639800", "display_phone": "+1 416-263-9800", "distance": 1475.1855200015523}, {"id": "Pube7dRYQoptIn0OA0GpdQ", "alias": "st-louis-bar-and-grill-toronto-15", "name": "St Louis Bar and Grill", "image_url": "https://s3-media1.fl.yelpcdn.com/bphoto/2kYbz3EVcLwCutUKuUvI6A/o.jpg", "is_closed": false, "url": "https://www.yelp.com/biz/st-louis-bar-and-grill-toronto-15?adjust_creative=a2JdNtFqB-C38ga_06BHvw&utm_campaign=yelp_api_v3&utm_medium=api_v3_business_search&utm_source=a2JdNtFqB-C38ga_06BHvw", "review_count": 52, "categories": [{"alias": "sportsbars", "title": "Sports Bars"}, {"alias": "chicken_wings", "title": "Chicken Wings"}], "rating": 3.5, "coordinates": {"latitude": 43.6500566, "longitude": -79.3749499}, "transactions": [], "price": "$$", "location": {"address1": "92 King Street E", "address2": "Unit 114", "address3": "", "city": "Toronto", "zip_code": "M5C 2V8", "country": "CA", "state": "ON", "display_address": ["92 King Street E", "Unit 114", "Toronto, ON M5C 2V8", "Canada"]}, "phone": "+14168400268", "display_phone": "+1 416-840-0268", "distance": 822.5176064489601}, {"id": "H7lBXlh-FJS2sUewEE0qwA", "alias": "bar-vendetta-toronto", "name": "Bar Vendetta", "image_url": "https://s3-media2.fl.yelpcdn.com/bphoto/-wABB43g4NpvIwY-kwWOAQ/o.jpg", "is_closed": false, "url": "https://www.yelp.com/biz/bar-vendetta-toronto?adjust_creative=a2JdNtFqB-C38ga_06BHvw&utm_campaign=yelp_api_v3&utm_medium=api_v3_business_search&utm_source=a2JdNtFqB-C38ga_06BHvw", "review_count": 8, "categories": [{"alias": "italian", "title": "Italian"}, {"alias": "wine_bars", "title": "Wine Bars"}], "rating": 4.5, "coordinates": {"latitude": 43.65098, "longitude": -79.41324}, "transactions": [], "location": {"address1": "928 Dundas Street W", "address2": "", "address3": null, "city": "Toronto", "zip_code": "M6J 1W3", "country": "CA", "state": "ON", "display_address": ["928 Dundas Street W", "Toronto, ON M6J 1W3", "Canada"]}, "phone": "+14165518854", "display_phone": "+1 416-551-8854", "distance": 2873.3532434394883}, {"id": "va7QuRicUp1Klt5dyCR7mg", "alias": "sotto-voce-wine-and-pasta-bar-toronto", "name": "Sotto Voce Wine & Pasta Bar", "image_url": "https://s3-media2.fl.yelpcdn.com/bphoto/y56XejBNPo04lmwaInXXIw/o.jpg", "is_closed": false, "url": "https://www.yelp.com/biz/sotto-voce-wine-and-pasta-bar-toronto?adjust_creative=a2JdNtFqB-C38ga_06BHvw&utm_campaign=yelp_api_v3&utm_medium=api_v3_business_search&utm_source=a2JdNtFqB-C38ga_06BHvw", "review_count": 23, "categories": [{"alias": "italian", "title": "Italian"}, {"alias": "wine_bars", "title": "Wine Bars"}], "rating": 3.5, "coordinates": {"latitude": 43.65511, "longitude": -79.41362}, "transactions": [], "price": "$$$", "location": {"address1": "595 College Street", "address2": "", "address3": "", "city": "Toronto", "zip_code": "M6G 1B2", "country": "CA", "state": "ON", "display_address": ["595 College Street", "Toronto, ON M6G 1B2", "Canada"]}, "phone": "+14165364564", "display_phone": "+1 416-536-4564", "distance": 3067.8234753083834}, {"id": "F2PcvHf7G8QwCDSJ1-7fFQ", "alias": "paupers-pub-toronto", "name": "Paupers Pub", "image_url": "https://s3-media2.fl.yelpcdn.com/bphoto/21sNqAEN7I98yOWRah3IRA/o.jpg", "is_closed": false, "url": "https://www.yelp.com/biz/paupers-pub-toronto?adjust_creative=a2JdNtFqB-C38ga_06BHvw&utm_campaign=yelp_api_v3&utm_medium=api_v3_business_search&utm_source=a2JdNtFqB-C38ga_06BHvw", "review_count": 143, "categories": [{"alias": "pubs", "title": "Pubs"}, {"alias": "burgers", "title": "Burgers"}, {"alias": "sandwiches", "title": "Sandwiches"}], "rating": 3.0, "coordinates": {"latitude": 43.66515, "longitude": -79.41004}, "transactions": [], "price": "$$", "location": {"address1": "539 Bloor Street W", "address2": "", "address3": "", "city": "Toronto", "zip_code": "M5S 1Y6", "country": "CA", "state": "ON", "display_address": ["539 Bloor Street W", "Toronto, ON M5S 1Y6", "Canada"]}, "phone": "+14165301331", "display_phone": "+1 416-530-1331", "distance": 3472.926382217287}, {"id": "_fWZH1p8B_lwK4feQgtWkQ", "alias": "ritz-bar-toronto-3", "name": "Ritz Bar", "image_url": "https://s3-media4.fl.yelpcdn.com/bphoto/kCKcOBfZphlMyMXYgU8OmA/o.jpg", "is_closed": false, "url": "https://www.yelp.com/biz/ritz-bar-toronto-3?adjust_creative=a2JdNtFqB-C38ga_06BHvw&utm_campaign=yelp_api_v3&utm_medium=api_v3_business_search&utm_source=a2JdNtFqB-C38ga_06BHvw", "review_count": 16, "categories": [{"alias": "international", "title": "International"}, {"alias": "cocktailbars", "title": "Cocktail Bars"}, {"alias": "musicvenues", "title": "Music Venues"}], "rating": 4.0, "coordinates": {"latitude": 43.6454885, "longitude": -79.3870238}, "transactions": [], "price": "$$", "location": {"address1": "181 Wellington Street W", "address2": "", "address3": "", "city": "Toronto", "zip_code": "M5V 3G7", "country": "CA", "state": "ON", "display_address": ["181 Wellington Street W", "Toronto, ON M5V 3G7", "Canada"]}, "phone": "+14165852500", "display_phone": "+1 416-585-2500", "distance": 675.6164057201262}, {"id": "qXk2CS1-6jKTKpMUIgN9kQ", "alias": "o-gradys-restaurant-toronto", "name": "O'Grady's Restaurant", "image_url": "https://s3-media1.fl.yelpcdn.com/bphoto/KaJ69uygOAKA3Wh0Ck-G1A/o.jpg", "is_closed": false, "url": "https://www.yelp.com/biz/o-gradys-restaurant-toronto?adjust_creative=a2JdNtFqB-C38ga_06BHvw&utm_campaign=yelp_api_v3&utm_medium=api_v3_business_search&utm_source=a2JdNtFqB-C38ga_06BHvw", "review_count": 111, "categories": [{"alias": "newcanadian", "title": "Canadian (New)"}, {"alias": "breakfast_brunch", "title": "Breakfast & Brunch"}, {"alias": "cocktailbars", "title": "Cocktail Bars"}], "rating": 3.0, "coordinates": {"latitude": 43.664469851766, "longitude": -79.38068029524}, "transactions": [], "price": "$$", "location": {"address1": "518 Church Street", "address2": "", "address3": "", "city": "Toronto", "zip_code": "M4Y 2C8", "country": "CA", "state": "ON", "display_address": ["518 Church Street", "Toronto, ON M4Y 2C8", "Canada"]}, "phone": "+14163232822", "display_phone": "+1 416-323-2822", "distance": 2353.4592669767085}, {"id": "uz6ZB-QsWqTjz6xgXy4fKA", "alias": "ascari-king-toronto", "name": "Ascari King", "image_url": "https://s3-media4.fl.yelpcdn.com/bphoto/PMWIxnwbN2oPr4fsW_YYTw/o.jpg", "is_closed": false, "url": "https://www.yelp.com/biz/ascari-king-toronto?adjust_creative=a2JdNtFqB-C38ga_06BHvw&utm_campaign=yelp_api_v3&utm_medium=api_v3_business_search&utm_source=a2JdNtFqB-C38ga_06BHvw", "review_count": 17, "categories": [{"alias": "wine_bars", "title": "Wine Bars"}, {"alias": "italian", "title": "Italian"}], "rating": 4.0, "coordinates": {"latitude": 43.6445600941281, "longitude": -79.4008001312613}, "transactions": [], "location": {"address1": "620 King Street W", "address2": "", "address3": null, "city": "Toronto", "zip_code": "M5V 1M5", "country": "CA", "state": "ON", "display_address": ["620 King Street W", "Toronto, ON M5V 1M5", "Canada"]}, "phone": "+14163663673", "display_phone": "+1 416-366-3673", "distance": 1746.0560696843993}, {"id": "Pkb75Ma72lVTiLQoqHQkqQ", "alias": "socialite-restaurant-and-bar-toronto-4", "name": "Socialite Restaurant & Bar", "image_url": "https://s3-media1.fl.yelpcdn.com/bphoto/y-N3d1NFzUxR3hINeSpmtw/o.jpg", "is_closed": false, "url": "https://www.yelp.com/biz/socialite-restaurant-and-bar-toronto-4?adjust_creative=a2JdNtFqB-C38ga_06BHvw&utm_campaign=yelp_api_v3&utm_medium=api_v3_business_search&utm_source=a2JdNtFqB-C38ga_06BHvw", "review_count": 17, "categories": [{"alias": "cocktailbars", "title": "Cocktail Bars"}, {"alias": "asianfusion", "title": "Asian Fusion"}], "rating": 4.0, "coordinates": {"latitude": 43.65677, "longitude": -79.40321}, "transactions": [], "price": "$$", "location": {"address1": "276 Augusta Avenue", "address2": null, "address3": "", "city": "Toronto", "zip_code": "M5T 2L9", "country": "CA", "state": "ON", "display_address": ["276 Augusta Avenue", "Toronto, ON M5T 2L9", "Canada"]}, "phone": "+16478962229", "display_phone": "+1 647-896-2229", "distance": 2449.980183445037}, {"id": "qps2ITpg3DZi4RzN7YYUSQ", "alias": "hys-steakhouse-toronto-toronto", "name": "Hy's Steakhouse Toronto", "image_url": "https://s3-media3.fl.yelpcdn.com/bphoto/HTQKKcqhoe1kxPKFk4e86g/o.jpg", "is_closed": false, "url": "https://www.yelp.com/biz/hys-steakhouse-toronto-toronto?adjust_creative=a2JdNtFqB-C38ga_06BHvw&utm_campaign=yelp_api_v3&utm_medium=api_v3_business_search&utm_source=a2JdNtFqB-C38ga_06BHvw", "review_count": 17, "categories": [{"alias": "steak", "title": "Steakhouses"}, {"alias": "seafood", "title": "Seafood"}, {"alias": "cocktailbars", "title": "Cocktail Bars"}], "rating": 4.0, "coordinates": {"latitude": 43.651051, "longitude": -79.380849}, "transactions": [], "location": {"address1": "365 Bay Street", "address2": "", "address3": "", "city": "Toronto", "zip_code": "M5H 2V1", "country": "CA", "state": "ON", "display_address": ["365 Bay Street", "Toronto, ON M5H 2V1", "Canada"]}, "phone": "+14163646600", "display_phone": "+1 416-364-6600", "distance": 868.8069140732644}, {"id": "3zyt4IW7Ic0yyeiLV7hk_w", "alias": "urban-house-toronto", "name": "Urban House", "image_url": "https://s3-media3.fl.yelpcdn.com/bphoto/MvnejyB-Jbn0hxLYe-pvxQ/o.jpg", "is_closed": false, "url": "https://www.yelp.com/biz/urban-house-toronto?adjust_creative=a2JdNtFqB-C38ga_06BHvw&utm_campaign=yelp_api_v3&utm_medium=api_v3_business_search&utm_source=a2JdNtFqB-C38ga_06BHvw", "review_count": 11, "categories": [{"alias": "pubs", "title": "Pubs"}, {"alias": "newcanadian", "title": "Canadian (New)"}], "rating": 4.0, "coordinates": {"latitude": 43.6590232165887, "longitude": -79.3496101722121}, "transactions": [], "price": "$", "location": {"address1": "718 Queen Street E", "address2": "", "address3": null, "city": "Toronto", "zip_code": "M4M 1H2", "country": "CA", "state": "ON", "display_address": ["718 Queen Street E", "Toronto, ON M4M 1H2", "Canada"]}, "phone": "+14169019718", "display_phone": "+1 416-901-9718", "distance": 2949.3763167729585}, {"id": "x0MaTw6He1w_1nddeSJU2Q", "alias": "the-roof-at-soco-toronto", "name": "The Roof at SOCO", "image_url": "https://s3-media4.fl.yelpcdn.com/bphoto/LTreDyhXdv9QHcI9bXf2mA/o.jpg", "is_closed": false, "url": "https://www.yelp.com/biz/the-roof-at-soco-toronto?adjust_creative=a2JdNtFqB-C38ga_06BHvw&utm_campaign=yelp_api_v3&utm_medium=api_v3_business_search&utm_source=a2JdNtFqB-C38ga_06BHvw", "review_count": 9, "categories": [{"alias": "newcanadian", "title": "Canadian (New)"}, {"alias": "cocktailbars", "title": "Cocktail Bars"}, {"alias": "wine_bars", "title": "Wine Bars"}], "rating": 4.5, "coordinates": {"latitude": 43.64303, "longitude": -79.38379}, "transactions": [], "location": {"address1": "75 Lower Simcoe Street", "address2": "Fourth Floor", "address3": "", "city": "Toronto", "zip_code": "M5J 3A6", "country": "CA", "state": "ON", "display_address": ["75 Lower Simcoe Street", "Fourth Floor", "Toronto, ON M5J 3A6", "Canada"]}, "phone": "+14166375465", "display_phone": "+1 416-637-5465", "distance": 373.9092728499469}, {"id": "mrwpkN8k5Q-X7J5mGQ0NtQ", "alias": "st-louis-bar-and-grill-toronto-7", "name": "St Louis Bar and Grill", "image_url": "https://s3-media1.fl.yelpcdn.com/bphoto/FTqJCDXEfnND4KvideyjWg/o.jpg", "is_closed": false, "url": "https://www.yelp.com/biz/st-louis-bar-and-grill-toronto-7?adjust_creative=a2JdNtFqB-C38ga_06BHvw&utm_campaign=yelp_api_v3&utm_medium=api_v3_business_search&utm_source=a2JdNtFqB-C38ga_06BHvw", "review_count": 46, "categories": [{"alias": "chicken_wings", "title": "Chicken Wings"}, {"alias": "sportsbars", "title": "Sports Bars"}], "rating": 3.0, "coordinates": {"latitude": 43.666361, "longitude": -79.40623887}, "transactions": [], "price": "$$", "location": {"address1": "376 Bloor Street W", "address2": "", "address3": "", "city": "Toronto", "zip_code": "M5S 1X2", "country": "CA", "state": "ON", "display_address": ["376 Bloor Street W", "Toronto, ON M5S 1X2", "Canada"]}, "phone": "+14169256689", "display_phone": "+1 416-925-6689", "distance": 3361.5638917450347}, {"id": "qcqDjeirxvdgW5kQVkEwSA", "alias": "the-red-room-toronto", "name": "The Red Room", "image_url": "https://s3-media1.fl.yelpcdn.com/bphoto/T_rgxBton_Gp6-ZgUfOw1w/o.jpg", "is_closed": false, "url": "https://www.yelp.com/biz/the-red-room-toronto?adjust_creative=a2JdNtFqB-C38ga_06BHvw&utm_campaign=yelp_api_v3&utm_medium=api_v3_business_search&utm_source=a2JdNtFqB-C38ga_06BHvw", "review_count": 134, "categories": [{"alias": "pubs", "title": "Pubs"}, {"alias": "newcanadian", "title": "Canadian (New)"}], "rating": 3.0, "coordinates": {"latitude": 43.65706, "longitude": -79.40011}, "transactions": [], "price": "$", "location": {"address1": "444 Spadina Avenue", "address2": "", "address3": "", "city": "Toronto", "zip_code": "M5T 2G8", "country": "CA", "state": "ON", "display_address": ["444 Spadina Avenue", "Toronto, ON M5T 2G8", "Canada"]}, "phone": "+14169299964", "display_phone": "+1 416-929-9964", "distance": 2276.886861290389}, {"id": "yYMwP50TlcH2ZFosXFJMOw", "alias": "bonafide-toronto-2", "name": "Bonafide", "image_url": "https://s3-media1.fl.yelpcdn.com/bphoto/qCB4bR-y9PydeH5NKVExCg/o.jpg", "is_closed": false, "url": "https://www.yelp.com/biz/bonafide-toronto-2?adjust_creative=a2JdNtFqB-C38ga_06BHvw&utm_campaign=yelp_api_v3&utm_medium=api_v3_business_search&utm_source=a2JdNtFqB-C38ga_06BHvw", "review_count": 10, "categories": [{"alias": "cocktailbars", "title": "Cocktail Bars"}, {"alias": "tapasmallplates", "title": "Tapas/Small Plates"}], "rating": 4.0, "coordinates": {"latitude": 43.6541320531879, "longitude": -79.4015169516206}, "transactions": [], "location": {"address1": "209 Augusta Avenue", "address2": "", "address3": null, "city": "Toronto", "zip_code": "M5T 2L4", "country": "CA", "state": "ON", "display_address": ["209 Augusta Avenue", "Toronto, ON M5T 2L4", "Canada"]}, "phone": "+16473521899", "display_phone": "+1 647-352-1899", "distance": 2162.3203084502843}, {"id": "Z8f5s3BsMzveANqdbFjXLg", "alias": "azure-restaurant-and-bar-toronto", "name": "Azure Restaurant & Bar", "image_url": "https://s3-media3.fl.yelpcdn.com/bphoto/kcxqg7-eBVC7o24FbcLKyw/o.jpg", "is_closed": false, "url": "https://www.yelp.com/biz/azure-restaurant-and-bar-toronto?adjust_creative=a2JdNtFqB-C38ga_06BHvw&utm_campaign=yelp_api_v3&utm_medium=api_v3_business_search&utm_source=a2JdNtFqB-C38ga_06BHvw", "review_count": 51, "categories": [{"alias": "newcanadian", "title": "Canadian (New)"}, {"alias": "cocktailbars", "title": "Cocktail Bars"}], "rating": 3.0, "coordinates": {"latitude": 43.644461, "longitude": -79.385485}, "transactions": [], "price": "$$$", "location": {"address1": "225 Front Street W", "address2": "", "address3": "", "city": "Toronto", "zip_code": "M5V 2X3", "country": "CA", "state": "ON", "display_address": ["225 Front Street W", "Toronto, ON M5V 2X3", "Canada"]}, "phone": "+14165978142", "display_phone": "+1 416-597-8142", "distance": 523.62446509893}, {"id": "HPCKWBIpznvWSimdOKXoSQ", "alias": "marked-restaurant-toronto", "name": "MARKED Restaurant", "image_url": "https://s3-media1.fl.yelpcdn.com/bphoto/YBChNpnLX9FRRc6enh2J0Q/o.jpg", "is_closed": false, "url": "https://www.yelp.com/biz/marked-restaurant-toronto?adjust_creative=a2JdNtFqB-C38ga_06BHvw&utm_campaign=yelp_api_v3&utm_medium=api_v3_business_search&utm_source=a2JdNtFqB-C38ga_06BHvw", "review_count": 7, "categories": [{"alias": "cocktailbars", "title": "Cocktail Bars"}, {"alias": "seafood", "title": "Seafood"}, {"alias": "tradamerican", "title": "American (Traditional)"}], "rating": 4.5, "coordinates": {"latitude": 43.6486087, "longitude": -79.3908633}, "transactions": [], "location": {"address1": "132 John Street", "address2": null, "address3": "", "city": "Toronto", "zip_code": "M5V 2E3", "country": "CA", "state": "ON", "display_address": ["132 John Street", "Toronto, ON M5V 2E3", "Canada"]}, "phone": "+16476607948", "display_phone": "+1 647-660-7948", "distance": 1152.637342319468}, {"id": "7Cm5SCTu7LePBCXTUaEiwQ", "alias": "shark-club-sports-bar-and-grill-toronto-3", "name": "Shark Club Sports Bar & Grill", "image_url": "https://s3-media2.fl.yelpcdn.com/bphoto/jw8SQ2UJx7P8966grS7jMA/o.jpg", "is_closed": false, "url": "https://www.yelp.com/biz/shark-club-sports-bar-and-grill-toronto-3?adjust_creative=a2JdNtFqB-C38ga_06BHvw&utm_campaign=yelp_api_v3&utm_medium=api_v3_business_search&utm_source=a2JdNtFqB-C38ga_06BHvw", "review_count": 163, "categories": [{"alias": "sportsbars", "title": "Sports Bars"}, {"alias": "lounges", "title": "Lounges"}, {"alias": "newcanadian", "title": "Canadian (New)"}], "rating": 2.5, "coordinates": {"latitude": 43.65668, "longitude": -79.38065}, "transactions": [], "price": "$$", "location": {"address1": "10 Dundas St East", "address2": "Suite 310", "address3": "", "city": "Toronto", "zip_code": "M5B", "country": "CA", "state": "ON", "display_address": ["10 Dundas St East", "Suite 310", "Toronto, ON M5B", "Canada"]}, "phone": "+14165060753", "display_phone": "+1 416-506-0753", "distance": 1519.5668363110435}, {"id": "MH3WJlnNHKWCpZ2q7YbuOw", "alias": "the-draft-house-toronto", "name": "The Draft House", "image_url": "https://s3-media1.fl.yelpcdn.com/bphoto/3ZG2E6VD2X2xqp1nVia7nw/o.jpg", "is_closed": false, "url": "https://www.yelp.com/biz/the-draft-house-toronto?adjust_creative=a2JdNtFqB-C38ga_06BHvw&utm_campaign=yelp_api_v3&utm_medium=api_v3_business_search&utm_source=a2JdNtFqB-C38ga_06BHvw", "review_count": 35, "categories": [{"alias": "sportsbars", "title": "Sports Bars"}, {"alias": "diners", "title": "Diners"}, {"alias": "breakfast_brunch", "title": "Breakfast & Brunch"}], "rating": 3.0, "coordinates": {"latitude": 43.6673978, "longitude": -79.3857345}, "transactions": [], "price": "$$", "location": {"address1": "678 Yonge Street", "address2": "", "address3": "", "city": "Toronto", "zip_code": "M4Y 2A6", "country": "CA", "state": "ON", "display_address": ["678 Yonge Street", "Toronto, ON M4Y 2A6", "Canada"]}, "phone": "+14169626092", "display_phone": "+1 416-962-6092", "distance": 2727.5441340237003}, {"id": "eSp5ge9VAwTywZKlJ_LBvA", "alias": "madison-avenue-pub-and-restaurant-toronto", "name": "Madison Avenue Pub & Restaurant", "image_url": "https://s3-media1.fl.yelpcdn.com/bphoto/NBl4-IhxuIKYc_A5ElRdtw/o.jpg", "is_closed": false, "url": "https://www.yelp.com/biz/madison-avenue-pub-and-restaurant-toronto?adjust_creative=a2JdNtFqB-C38ga_06BHvw&utm_campaign=yelp_api_v3&utm_medium=api_v3_business_search&utm_source=a2JdNtFqB-C38ga_06BHvw", "review_count": 155, "categories": [{"alias": "tradamerican", "title": "American (Traditional)"}, {"alias": "pubs", "title": "Pubs"}], "rating": 2.5, "coordinates": {"latitude": 43.66787, "longitude": -79.40333}, "transactions": [], "price": "$$", "location": {"address1": "14 Madison Avenue", "address2": "", "address3": "", "city": "Toronto", "zip_code": "M5R 2S1", "country": "CA", "state": "ON", "display_address": ["14 Madison Avenue", "Toronto, ON M5R 2S1", "Canada"]}, "phone": "+14169271722", "display_phone": "+1 416-927-1722", "distance": 3347.698903392394}, {"id": "y7lhU3dl8cSvIOgKVrKGlw", "alias": "grand-cru-deli-toronto", "name": "Grand Cru Deli", "image_url": "https://s3-media4.fl.yelpcdn.com/bphoto/yXMfS7YjQNT2zO9SawvtgQ/o.jpg", "is_closed": false, "url": "https://www.yelp.com/biz/grand-cru-deli-toronto?adjust_creative=a2JdNtFqB-C38ga_06BHvw&utm_campaign=yelp_api_v3&utm_medium=api_v3_business_search&utm_source=a2JdNtFqB-C38ga_06BHvw", "review_count": 10, "categories": [{"alias": "wine_bars", "title": "Wine Bars"}, {"alias": "delis", "title": "Delis"}, {"alias": "breakfast_brunch", "title": "Breakfast & Brunch"}], "rating": 4.0, "coordinates": {"latitude": 43.64907, "longitude": -79.39168}, "transactions": [], "location": {"address1": "304 Richmond St W", "address2": null, "address3": "", "city": "Toronto", "zip_code": "M5V 1X2", "country": "CA", "state": "ON", "display_address": ["304 Richmond St W", "Toronto, ON M5V 1X2", "Canada"]}, "phone": "+14165519221", "display_phone": "+1 416-551-9221", "distance": 1179.931079438718}, {"id": "tkDBNAV71Sp7LlWKEhtZUA", "alias": "pie-bar-toronto", "name": "Pie Bar", "image_url": "https://s3-media4.fl.yelpcdn.com/bphoto/cL97M9exqsjuumkyeHrPjw/o.jpg", "is_closed": false, "url": "https://www.yelp.com/biz/pie-bar-toronto?adjust_creative=a2JdNtFqB-C38ga_06BHvw&utm_campaign=yelp_api_v3&utm_medium=api_v3_business_search&utm_source=a2JdNtFqB-C38ga_06BHvw", "review_count": 32, "categories": [{"alias": "pizza", "title": "Pizza"}, {"alias": "italian", "title": "Italian"}, {"alias": "cocktailbars", "title": "Cocktail Bars"}], "rating": 3.0, "coordinates": {"latitude": 43.6382664027863, "longitude": -79.3804673190485}, "transactions": [], "price": "$$", "location": {"address1": "207 Queens Quay W", "address2": "Suite 155", "address3": null, "city": "Toronto", "zip_code": "M5J", "country": "CA", "state": "ON", "display_address": ["207 Queens Quay W", "Suite 155", "Toronto, ON M5J", "Canada"]}, "phone": "+16473417221", "display_phone": "+1 647-341-7221", "distance": 573.0138894602142}, {"id": "dryad6tDgaGc-WsUUgPbfw", "alias": "st-louis-bar-and-grill-toronto-9", "name": "St Louis Bar and Grill", "image_url": "https://s3-media1.fl.yelpcdn.com/bphoto/gvLj9gJqxKMCRBXTfUiOxw/o.jpg", "is_closed": false, "url": "https://www.yelp.com/biz/st-louis-bar-and-grill-toronto-9?adjust_creative=a2JdNtFqB-C38ga_06BHvw&utm_campaign=yelp_api_v3&utm_medium=api_v3_business_search&utm_source=a2JdNtFqB-C38ga_06BHvw", "review_count": 59, "categories": [{"alias": "chicken_wings", "title": "Chicken Wings"}, {"alias": "sportsbars", "title": "Sports Bars"}], "rating": 3.0, "coordinates": {"latitude": 43.6562198, "longitude": -79.3832909}, "transactions": [], "price": "$$", "location": {"address1": "595 Bay Street", "address2": "#A09", "address3": "", "city": "Toronto", "zip_code": "M5G 2R3", "country": "CA", "state": "ON", "display_address": ["595 Bay Street", "#A09", "Toronto, ON M5G 2R3", "Canada"]}, "phone": "+16474359464", "display_phone": "+1 647-435-9464", "distance": 1470.8576693311923}, {"id": "HeK37yyPEv8I4MJU2dVh4A", "alias": "wabar-toronto", "name": "WAbar", "image_url": "https://s3-media1.fl.yelpcdn.com/bphoto/9iqbdtquJHqLjN2sbWDM8g/o.jpg", "is_closed": false, "url": "https://www.yelp.com/biz/wabar-toronto?adjust_creative=a2JdNtFqB-C38ga_06BHvw&utm_campaign=yelp_api_v3&utm_medium=api_v3_business_search&utm_source=a2JdNtFqB-C38ga_06BHvw", "review_count": 16, "categories": [{"alias": "sportsbars", "title": "Sports Bars"}, {"alias": "lounges", "title": "Lounges"}, {"alias": "asianfusion", "title": "Asian Fusion"}], "rating": 3.5, "coordinates": {"latitude": 43.6676068, "longitude": -79.3854904}, "transactions": [], "price": "$$", "location": {"address1": "3 Isabella Street", "address2": "", "address3": "", "city": "Toronto", "zip_code": "M4Y 1N1", "country": "CA", "state": "ON", "display_address": ["3 Isabella Street", "Toronto, ON M4Y 1N1", "Canada"]}, "phone": "+14379909292", "display_phone": "+1 437-990-9292", "distance": 2746.642260764563}, {"id": "v2IxKgoE2lN77hx3x_MUtQ", "alias": "laissez-faire-toronto", "name": "Laissez Faire", "image_url": "https://s3-media3.fl.yelpcdn.com/bphoto/J4uPVXNCjX8lOErgeSJ6Tw/o.jpg", "is_closed": false, "url": "https://www.yelp.com/biz/laissez-faire-toronto?adjust_creative=a2JdNtFqB-C38ga_06BHvw&utm_campaign=yelp_api_v3&utm_medium=api_v3_business_search&utm_source=a2JdNtFqB-C38ga_06BHvw", "review_count": 13, "categories": [{"alias": "cocktailbars", "title": "Cocktail Bars"}, {"alias": "french", "title": "French"}, {"alias": "seafood", "title": "Seafood"}], "rating": 3.5, "coordinates": {"latitude": 43.6442885851163, "longitude": -79.4005209061461}, "transactions": [], "location": {"address1": "589 King Street W", "address2": "", "address3": null, "city": "Toronto", "zip_code": "M5V 1M5", "country": "CA", "state": "ON", "display_address": ["589 King Street W", "Toronto, ON M5V 1M5", "Canada"]}, "phone": "", "display_phone": "", "distance": 1721.5347954622732}, {"id": "qlXdy9_ooUh0XPi8zVfrHA", "alias": "st-restaurant-toronto-2", "name": "st Restaurant", "image_url": "https://s3-media3.fl.yelpcdn.com/bphoto/SdBhPV1W9cROpX9XbUoN-g/o.jpg", "is_closed": false, "url": "https://www.yelp.com/biz/%C4%93st-restaurant-toronto-2?adjust_creative=a2JdNtFqB-C38ga_06BHvw&utm_campaign=yelp_api_v3&utm_medium=api_v3_business_search&utm_source=a2JdNtFqB-C38ga_06BHvw", "review_count": 11, "categories": [{"alias": "newcanadian", "title": "Canadian (New)"}, {"alias": "tapasmallplates", "title": "Tapas/Small Plates"}, {"alias": "cocktailbars", "title": "Cocktail Bars"}], "rating": 3.5, "coordinates": {"latitude": 43.6589329977133, "longitude": -79.3490209814005}, "transactions": [], "location": {"address1": "729 Queen Street E", "address2": "", "address3": null, "city": "Toronto", "zip_code": "M4M 1H1", "country": "CA", "state": "ON", "display_address": ["729 Queen Street E", "Toronto, ON M4M 1H1", "Canada"]}, "phone": "+14167921000", "display_phone": "+1 416-792-1000", "distance": 2981.882946046085}, {"id": "kAjCI0-7igmzWdsXbOuYWQ", "alias": "the-fox-toronto", "name": "The Fox", "image_url": "https://s3-media1.fl.yelpcdn.com/bphoto/hTtWfmccbwdkiU7nwYqd9Q/o.jpg", "is_closed": false, "url": "https://www.yelp.com/biz/the-fox-toronto?adjust_creative=a2JdNtFqB-C38ga_06BHvw&utm_campaign=yelp_api_v3&utm_medium=api_v3_business_search&utm_source=a2JdNtFqB-C38ga_06BHvw", "review_count": 65, "categories": [{"alias": "pubs", "title": "Pubs"}, {"alias": "gastropubs", "title": "Gastropubs"}], "rating": 2.5, "coordinates": {"latitude": 43.642612594174, "longitude": -79.3774290312882}, "transactions": [], "price": "$$", "location": {"address1": "35 Bay Street", "address2": "", "address3": "", "city": "Toronto", "zip_code": "M5J 1J5", "country": "CA", "state": "ON", "display_address": ["35 Bay Street", "Toronto, ON M5J 1J5", "Canada"]}, "phone": "+14168693535", "display_phone": "+1 416-869-3535", "distance": 161.16594783839224}, {"id": "2vBo1wWJckBnGOHhxt9ecg", "alias": "st-louis-bar-and-grill-toronto-5", "name": "St Louis Bar and Grill", "image_url": "https://s3-media3.fl.yelpcdn.com/bphoto/ao7OAfoWVEyGeJJ2z9h0Sg/o.jpg", "is_closed": false, "url": "https://www.yelp.com/biz/st-louis-bar-and-grill-toronto-5?adjust_creative=a2JdNtFqB-C38ga_06BHvw&utm_campaign=yelp_api_v3&utm_medium=api_v3_business_search&utm_source=a2JdNtFqB-C38ga_06BHvw", "review_count": 87, "categories": [{"alias": "chicken_wings", "title": "Chicken Wings"}, {"alias": "sportsbars", "title": "Sports Bars"}], "rating": 2.5, "coordinates": {"latitude": 43.64053846134808, "longitude": -79.39045419}, "transactions": [], "price": "$$", "location": {"address1": "313 Bremner Boulevard", "address2": "", "address3": "", "city": "Toronto", "zip_code": "M5V 3V3", "country": "CA", "state": "ON", "display_address": ["313 Bremner Boulevard", "Toronto, ON M5V 3V3", "Canada"]}, "phone": "+14168838983", "display_phone": "+1 416-883-8983", "distance": 959.9427660683275}, {"id": "Aq4bCSpn6rWRNDWfHh2WfA", "alias": "hooters-toronto-3", "name": "Hooters", "image_url": "https://s3-media2.fl.yelpcdn.com/bphoto/iN2zt7WIWfUjjONRxPzDhQ/o.jpg", "is_closed": false, "url": "https://www.yelp.com/biz/hooters-toronto-3?adjust_creative=a2JdNtFqB-C38ga_06BHvw&utm_campaign=yelp_api_v3&utm_medium=api_v3_business_search&utm_source=a2JdNtFqB-C38ga_06BHvw", "review_count": 95, "categories": [{"alias": "sportsbars", "title": "Sports Bars"}, {"alias": "tradamerican", "title": "American (Traditional)"}, {"alias": "chicken_wings", "title": "Chicken Wings"}], "rating": 2.5, "coordinates": {"latitude": 43.64804, "longitude": -79.3905599}, "transactions": [], "location": {"address1": "280 Adelaide Street W", "address2": null, "address3": null, "city": "Toronto", "zip_code": "M5V 1P6", "country": "CA", "state": "ON", "display_address": ["280 Adelaide Street W", "Toronto, ON M5V 1P6", "Canada"]}, "phone": "+14169774668", "display_phone": "+1 416-977-4668", "distance": 1048.2443855577128}, {"id": "cW4IU7Kq6fXI4pDIYDz3tA", "alias": "the-puck-sports-bar-and-grill-toronto", "name": "The Puck Sports Bar and Grill", "image_url": "https://s3-media4.fl.yelpcdn.com/bphoto/SnQMJhxT9Mh4Jb_RDcX5Ng/o.jpg", "is_closed": false, "url": "https://www.yelp.com/biz/the-puck-sports-bar-and-grill-toronto?adjust_creative=a2JdNtFqB-C38ga_06BHvw&utm_campaign=yelp_api_v3&utm_medium=api_v3_business_search&utm_source=a2JdNtFqB-C38ga_06BHvw", "review_count": 21, "categories": [{"alias": "sportsbars", "title": "Sports Bars"}, {"alias": "tradamerican", "title": "American (Traditional)"}], "rating": 3.0, "coordinates": {"latitude": 43.6664410356337, "longitude": -79.4056578330986}, "transactions": [], "price": "$$", "location": {"address1": "362 Bloor Street W", "address2": "Suite 3", "address3": "", "city": "Toronto", "zip_code": "M5S 1X2", "country": "CA", "state": "ON", "display_address": ["362 Bloor Street W", "Suite 3", "Toronto, ON M5S 1X2", "Canada"]}, "phone": "+14169017825", "display_phone": "+1 416-901-7825", "distance": 3338.312506091035}, {"id": "VAE8gdXm7JAml0CLTs3kNA", "alias": "o-gradys-tap-and-grill-toronto-2", "name": "O'Grady's Tap & Grill", "image_url": "https://s3-media4.fl.yelpcdn.com/bphoto/jDipIirJH0ypukrmaXEdLg/o.jpg", "is_closed": false, "url": "https://www.yelp.com/biz/o-gradys-tap-and-grill-toronto-2?adjust_creative=a2JdNtFqB-C38ga_06BHvw&utm_campaign=yelp_api_v3&utm_medium=api_v3_business_search&utm_source=a2JdNtFqB-C38ga_06BHvw", "review_count": 46, "categories": [{"alias": "pubs", "title": "Pubs"}, {"alias": "irish", "title": "Irish"}], "rating": 2.5, "coordinates": {"latitude": 43.65888, "longitude": -79.39376}, "transactions": [], "price": "$$", "location": {"address1": "171 College Street", "address2": "", "address3": "", "city": "Toronto", "zip_code": "M5T 1P7", "country": "CA", "state": "ON", "display_address": ["171 College Street", "Toronto, ON M5T 1P7", "Canada"]}, "phone": "+14165960327", "display_phone": "+1 416-596-0327", "distance": 2094.932141488717}, {"id": "1laaO5PS8fLK5kPTkSSYsw", "alias": "shoeless-joes-sports-grill-queens-quay-toronto", "name": "Shoeless Joe's Sports Grill - Queens Quay", "image_url": "https://s3-media3.fl.yelpcdn.com/bphoto/qOZRs3vLRpe8vFPwr7xXvg/o.jpg", "is_closed": false, "url": "https://www.yelp.com/biz/shoeless-joes-sports-grill-queens-quay-toronto?adjust_creative=a2JdNtFqB-C38ga_06BHvw&utm_campaign=yelp_api_v3&utm_medium=api_v3_business_search&utm_source=a2JdNtFqB-C38ga_06BHvw", "review_count": 71, "categories": [{"alias": "sportsbars", "title": "Sports Bars"}, {"alias": "burgers", "title": "Burgers"}, {"alias": "beerbar", "title": "Beer Bar"}], "rating": 2.5, "coordinates": {"latitude": 43.638802322405, "longitude": -79.385933508234}, "transactions": [], "price": "$$", "location": {"address1": "249 Queen's Quay W", "address2": "Unit #3", "address3": "", "city": "Toronto", "zip_code": "M5J 1B5", "country": "CA", "state": "ON", "display_address": ["249 Queen's Quay W", "Unit #3", "Toronto, ON M5J 1B5", "Canada"]}, "phone": "+14169157478", "display_phone": "+1 416-915-7478", "distance": 741.806739707799}, {"id": "xPFoRtpa57_INuHZmn8-lg", "alias": "the-bottom-line-toronto", "name": "The Bottom Line", "image_url": "https://s3-media1.fl.yelpcdn.com/bphoto/L0MH_qR3duIfW25cQEgSDg/o.jpg", "is_closed": false, "url": "https://www.yelp.com/biz/the-bottom-line-toronto?adjust_creative=a2JdNtFqB-C38ga_06BHvw&utm_campaign=yelp_api_v3&utm_medium=api_v3_business_search&utm_source=a2JdNtFqB-C38ga_06BHvw", "review_count": 47, "categories": [{"alias": "tradamerican", "title": "American (Traditional)"}, {"alias": "sportsbars", "title": "Sports Bars"}], "rating": 2.5, "coordinates": {"latitude": 43.64641, "longitude": -79.37813}, "transactions": [], "price": "$$", "location": {"address1": "22 Front St W", "address2": "", "address3": "", "city": "Toronto", "zip_code": "M5J 1C4", "country": "CA", "state": "ON", "display_address": ["22 Front St W", "Toronto, ON M5J 1C4", "Canada"]}, "phone": "+14163627585", "display_phone": "+1 416-362-7585", "distance": 393.5901940257602}, {"id": "VNyWT0hLkIHzt5HQ0W4tSg", "alias": "tilted-kilt-pub-and-eatery-toronto", "name": "Tilted Kilt Pub & Eatery", "image_url": "https://s3-media3.fl.yelpcdn.com/bphoto/oF4y62E3R8lfQs86sb9-jg/o.jpg", "is_closed": false, "url": "https://www.yelp.com/biz/tilted-kilt-pub-and-eatery-toronto?adjust_creative=a2JdNtFqB-C38ga_06BHvw&utm_campaign=yelp_api_v3&utm_medium=api_v3_business_search&utm_source=a2JdNtFqB-C38ga_06BHvw", "review_count": 80, "categories": [{"alias": "sportsbars", "title": "Sports Bars"}, {"alias": "tradamerican", "title": "American (Traditional)"}, {"alias": "pubs", "title": "Pubs"}], "rating": 2.5, "coordinates": {"latitude": 43.64693, "longitude": -79.3747}, "transactions": [], "price": "$$", "location": {"address1": "38 The Esplanade", "address2": "", "address3": "", "city": "Toronto", "zip_code": "M5E 1A1", "country": "CA", "state": "ON", "display_address": ["38 The Esplanade", "Toronto, ON M5E 1A1", "Canada"]}, "phone": "+14163643764", "display_phone": "+1 416-364-3764", "distance": 521.0936154164717}, {"id": "jlWq2P2LPmlmksvD6qfmkw", "alias": "barkada-toronto", "name": "Bar'kada", "image_url": "https://s3-media4.fl.yelpcdn.com/bphoto/oBbHgrzuLBuOrRIXmFceHA/o.jpg", "is_closed": false, "url": "https://www.yelp.com/biz/barkada-toronto?adjust_creative=a2JdNtFqB-C38ga_06BHvw&utm_campaign=yelp_api_v3&utm_medium=api_v3_business_search&utm_source=a2JdNtFqB-C38ga_06BHvw", "review_count": 3, "categories": [{"alias": "wine_bars", "title": "Wine Bars"}, {"alias": "filipino", "title": "Filipino"}, {"alias": "sandwiches", "title": "Sandwiches"}], "rating": 5.0, "coordinates": {"latitude": 43.64642, "longitude": -79.4071}, "transactions": [], "location": {"address1": "745 Queen Street W", "address2": null, "address3": "", "city": "Toronto", "zip_code": "M6J 1G1", "country": "CA", "state": "ON", "display_address": ["745 Queen Street W", "Toronto, ON M6J 1G1", "Canada"]}, "phone": "+14165518889", "display_phone": "+1 416-551-8889", "distance": 2269.0600320329645}, {"id": "7SWxyKTnJv0jtsfbhIgDLg", "alias": "pompette-toronto", "name": "Pompette", "image_url": "https://s3-media3.fl.yelpcdn.com/bphoto/TBGgkv6TfzItMSR32udAkQ/o.jpg", "is_closed": false, "url": "https://www.yelp.com/biz/pompette-toronto?adjust_creative=a2JdNtFqB-C38ga_06BHvw&utm_campaign=yelp_api_v3&utm_medium=api_v3_business_search&utm_source=a2JdNtFqB-C38ga_06BHvw", "review_count": 3, "categories": [{"alias": "cocktailbars", "title": "Cocktail Bars"}, {"alias": "french", "title": "French"}], "rating": 5.0, "coordinates": {"latitude": 43.65503, "longitude": -79.41394}, "transactions": [], "location": {"address1": "597 College Street", "address2": "", "address3": null, "city": "Toronto", "zip_code": "M6G 1B5", "country": "CA", "state": "ON", "display_address": ["597 College Street", "Toronto, ON M6G 1B5", "Canada"]}, "phone": "+14165161111", "display_phone": "+1 416-516-1111", "distance": 3083.545477894328}, {"id": "dUDeWLhvHtF1mvAX7GCr5g", "alias": "xango-toronto", "name": "Xango", "image_url": "https://s3-media1.fl.yelpcdn.com/bphoto/cB-eQDe_Cs4EkX5383cQhg/o.jpg", "is_closed": false, "url": "https://www.yelp.com/biz/xango-toronto?adjust_creative=a2JdNtFqB-C38ga_06BHvw&utm_campaign=yelp_api_v3&utm_medium=api_v3_business_search&utm_source=a2JdNtFqB-C38ga_06BHvw", "review_count": 9, "categories": [{"alias": "latin", "title": "Latin American"}, {"alias": "cocktailbars", "title": "Cocktail Bars"}, {"alias": "japanese", "title": "Japanese"}], "rating": 3.5, "coordinates": {"latitude": 43.64492, "longitude": -79.39616}, "transactions": [], "location": {"address1": "461 King Street W", "address2": null, "address3": "", "city": "Toronto", "zip_code": "M5V 1K4", "country": "CA", "state": "ON", "display_address": ["461 King Street W", "Toronto, ON M5V 1K4", "Canada"]}, "phone": "+14165984730", "display_phone": "+1 416-598-4730", "distance": 1367.5212792157579}, {"id": "y5QXXEB5DQHZV2vDgEx3gA", "alias": "wing-house-and-sports-bar-toronto-5", "name": "Wing House & Sports Bar", "image_url": "https://s3-media4.fl.yelpcdn.com/bphoto/BZdv49VcqSML92iG1OwpWQ/o.jpg", "is_closed": false, "url": "https://www.yelp.com/biz/wing-house-and-sports-bar-toronto-5?adjust_creative=a2JdNtFqB-C38ga_06BHvw&utm_campaign=yelp_api_v3&utm_medium=api_v3_business_search&utm_source=a2JdNtFqB-C38ga_06BHvw", "review_count": 8, "categories": [{"alias": "chicken_wings", "title": "Chicken Wings"}, {"alias": "sportsbars", "title": "Sports Bars"}, {"alias": "tradamerican", "title": "American (Traditional)"}], "rating": 3.5, "coordinates": {"latitude": 43.66279, "longitude": -79.36753}, "transactions": [], "location": {"address1": "420 Parliament Street", "address2": null, "address3": "", "city": "Toronto", "zip_code": "M5A 3A2", "country": "CA", "state": "ON", "display_address": ["420 Parliament Street", "Toronto, ON M5A 3A2", "Canada"]}, "phone": "+14165130888", "display_phone": "+1 416-513-0888", "distance": 2357.1187036269616}, {"id": "cRuk2y-LeWL42UVEkLVU3A", "alias": "bnb-toronto-2", "name": "BnB", "image_url": "https://s3-media3.fl.yelpcdn.com/bphoto/CKvDQRGraaC4e2mm0TjaRQ/o.jpg", "is_closed": false, "url": "https://www.yelp.com/biz/bnb-toronto-2?adjust_creative=a2JdNtFqB-C38ga_06BHvw&utm_campaign=yelp_api_v3&utm_medium=api_v3_business_search&utm_source=a2JdNtFqB-C38ga_06BHvw", "review_count": 32, "categories": [{"alias": "tradamerican", "title": "American (Traditional)"}, {"alias": "burgers", "title": "Burgers"}, {"alias": "pubs", "title": "Pubs"}], "rating": 2.5, "coordinates": {"latitude": 43.6514, "longitude": -79.38312}, "transactions": [], "price": "$$", "location": {"address1": "123 Queen Street West", "address2": "", "address3": "", "city": "Toronto", "zip_code": "M5H 2M9", "country": "CA", "state": "ON", "display_address": ["123 Queen Street West", "Toronto, ON M5H 2M9", "Canada"]}, "phone": "+14163616363", "display_phone": "+1 416-361-6363", "distance": 959.4053131899758}, {"id": "7sTYnCrftf2IG0-4x3CDeA", "alias": "reyna-toronto", "name": "Reyna", "image_url": "https://s3-media3.fl.yelpcdn.com/bphoto/3YerSCTtQB_lZ9ibDVyyxQ/o.jpg", "is_closed": false, "url": "https://www.yelp.com/biz/reyna-toronto?adjust_creative=a2JdNtFqB-C38ga_06BHvw&utm_campaign=yelp_api_v3&utm_medium=api_v3_business_search&utm_source=a2JdNtFqB-C38ga_06BHvw", "review_count": 10, "categories": [{"alias": "mediterranean", "title": "Mediterranean"}, {"alias": "cocktailbars", "title": "Cocktail Bars"}], "rating": 3.5, "coordinates": {"latitude": 43.65035, "longitude": -79.38378}, "transactions": [], "price": "$$", "location": {"address1": "111 Richmond Street W", "address2": "", "address3": null, "city": "Toronto", "zip_code": "M5H 3K6", "country": "CA", "state": "ON", "display_address": ["111 Richmond Street W", "Toronto, ON M5H 3K6", "Canada"]}, "phone": "+16477484464", "display_phone": "+1 647-748-4464", "distance": 864.7817681680139}, {"id": "_Ar0rDN_xp9chIrCfRQ6vw", "alias": "ruby-soho-toronto", "name": "Ruby Soho ", "image_url": "https://s3-media2.fl.yelpcdn.com/bphoto/j42m_QH8mq9kJsA6eKXC2g/o.jpg", "is_closed": false, "url": "https://www.yelp.com/biz/ruby-soho-toronto?adjust_creative=a2JdNtFqB-C38ga_06BHvw&utm_campaign=yelp_api_v3&utm_medium=api_v3_business_search&utm_source=a2JdNtFqB-C38ga_06BHvw", "review_count": 4, "categories": [{"alias": "tradamerican", "title": "American (Traditional)"}, {"alias": "pubs", "title": "Pubs"}], "rating": 4.5, "coordinates": {"latitude": 43.64423, "longitude": -79.40015}, "transactions": [], "location": {"address1": "587 King St W", "address2": null, "address3": "", "city": "Toronto", "zip_code": "M5V 1M5", "country": "CA", "state": "ON", "display_address": ["587 King St W", "Toronto, ON M5V 1M5", "Canada"]}, "phone": "+14169017829", "display_phone": "+1 416-901-7829", "distance": 1691.829224668899}, {"id": "uYko1SzZ9XpTXS-F5xnAdA", "alias": "817-sports-bar-and-grill-toronto-4", "name": "817 Sports Bar & Grill", "image_url": "https://s3-media1.fl.yelpcdn.com/bphoto/EyGTy0bqHIhOC1tXQiz1ZA/o.jpg", "is_closed": false, "url": "https://www.yelp.com/biz/817-sports-bar-and-grill-toronto-4?adjust_creative=a2JdNtFqB-C38ga_06BHvw&utm_campaign=yelp_api_v3&utm_medium=api_v3_business_search&utm_source=a2JdNtFqB-C38ga_06BHvw", "review_count": 8, "categories": [{"alias": "sportsbars", "title": "Sports Bars"}, {"alias": "chicken_wings", "title": "Chicken Wings"}, {"alias": "poutineries", "title": "Poutineries"}], "rating": 3.5, "coordinates": {"latitude": 43.64595, "longitude": -79.4091}, "transactions": [], "location": {"address1": "817 Queen Street W", "address2": null, "address3": "", "city": "Toronto", "zip_code": "M6J 1G1", "country": "CA", "state": "ON", "display_address": ["817 Queen Street W", "Toronto, ON M6J 1G1", "Canada"]}, "phone": "+16477482739", "display_phone": "+1 647-748-2739", "distance": 2431.0492617024347}, {"id": "drWouHCFYfmoWbJB0XajdA", "alias": "upper-deck-bar-centre-island", "name": "Upper Deck Bar", "image_url": "https://s3-media1.fl.yelpcdn.com/bphoto/BravtrDgm-1kZda8kRhyWw/o.jpg", "is_closed": false, "url": "https://www.yelp.com/biz/upper-deck-bar-centre-island?adjust_creative=a2JdNtFqB-C38ga_06BHvw&utm_campaign=yelp_api_v3&utm_medium=api_v3_business_search&utm_source=a2JdNtFqB-C38ga_06BHvw", "review_count": 6, "categories": [{"alias": "cocktailbars", "title": "Cocktail Bars"}, {"alias": "tradamerican", "title": "American (Traditional)"}], "rating": 3.5, "coordinates": {"latitude": 43.6236766256497, "longitude": -79.3813701906625}, "transactions": [], "price": "$$", "location": {"address1": "Toronto Island Marina", "address2": "Centre Island", "address3": "", "city": "Centre Island", "zip_code": "", "country": "CA", "state": "ON", "display_address": ["Toronto Island Marina", "Centre Island", "Centre Island, ON", "Canada"]}, "phone": "+14162031055", "display_phone": "+1 416-203-1055", "distance": 2192.866966346106}, {"id": "ERlxyno6ZINIjBYSYdjC0w", "alias": "amal-restaurant-toronto", "name": "Amal Restaurant", "image_url": "https://s3-media1.fl.yelpcdn.com/bphoto/SKRoZ2Kf-NUKgwsh5oGCGg/o.jpg", "is_closed": false, "url": "https://www.yelp.com/biz/amal-restaurant-toronto?adjust_creative=a2JdNtFqB-C38ga_06BHvw&utm_campaign=yelp_api_v3&utm_medium=api_v3_business_search&utm_source=a2JdNtFqB-C38ga_06BHvw", "review_count": 13, "categories": [{"alias": "lebanese", "title": "Lebanese"}, {"alias": "cocktailbars", "title": "Cocktail Bars"}], "rating": 3.0, "coordinates": {"latitude": 43.66875, "longitude": -79.39235}, "transactions": [], "location": {"address1": "131 Bloor Street W", "address2": "2nd Floor", "address3": null, "city": "Toronto", "zip_code": "M5S 3L7", "country": "CA", "state": "ON", "display_address": ["131 Bloor Street W", "2nd Floor", "Toronto, ON M5S 3L7", "Canada"]}, "phone": "+14165519929", "display_phone": "+1 416-551-9929", "distance": 3015.0796535441573}, {"id": "vgaOy7n8BQFkPb0wzNX9eA", "alias": "lucky-clover-sports-pub-toronto", "name": "Lucky Clover Sports Pub", "image_url": "https://s3-media2.fl.yelpcdn.com/bphoto/IW64fN1KTWzcp5COHD-Nsg/o.jpg", "is_closed": false, "url": "https://www.yelp.com/biz/lucky-clover-sports-pub-toronto?adjust_creative=a2JdNtFqB-C38ga_06BHvw&utm_campaign=yelp_api_v3&utm_medium=api_v3_business_search&utm_source=a2JdNtFqB-C38ga_06BHvw", "review_count": 54, "categories": [{"alias": "sportsbars", "title": "Sports Bars"}, {"alias": "irish", "title": "Irish"}], "rating": 2.0, "coordinates": {"latitude": 43.64125, "longitude": -79.38324}, "transactions": [], "price": "$$", "location": {"address1": "17 Lower Simcoe", "address2": "", "address3": "", "city": "Toronto", "zip_code": "M5V 3L9", "country": "CA", "state": "ON", "display_address": ["17 Lower Simcoe", "Toronto, ON M5V 3L9", "Canada"]}, "phone": "+16473485825", "display_phone": "+1 647-348-5825", "distance": 401.04841970042474}, {"id": "QABMhiuARzojyPYCATc2Pw", "alias": "dukes-refresher-and-bar-toronto", "name": "Duke's Refresher and Bar", "image_url": "https://s3-media1.fl.yelpcdn.com/bphoto/IxtVIM2vzlaTaKUqOQvbVQ/o.jpg", "is_closed": false, "url": "https://www.yelp.com/biz/dukes-refresher-and-bar-toronto?adjust_creative=a2JdNtFqB-C38ga_06BHvw&utm_campaign=yelp_api_v3&utm_medium=api_v3_business_search&utm_source=a2JdNtFqB-C38ga_06BHvw", "review_count": 6, "categories": [{"alias": "tradamerican", "title": "American (Traditional)"}, {"alias": "beerbar", "title": "Beer Bar"}, {"alias": "cocktailbars", "title": "Cocktail Bars"}], "rating": 3.5, "coordinates": {"latitude": 43.648616, "longitude": -79.372976}, "transactions": [], "price": "$$", "location": {"address1": "73 Front St E", "address2": "", "address3": null, "city": "Toronto", "zip_code": "M5E 1B8", "country": "CA", "state": "ON", "display_address": ["73 Front St E", "Toronto, ON M5E 1B8", "Canada"]}, "phone": "+14166038826", "display_phone": "+1 416-603-8826", "distance": 770.2179065317985}, {"id": "fiLcl_-nQAq0LSGdviznJA", "alias": "long-time-no-see-toronto-5", "name": "Long Time No See", "image_url": "https://s3-media3.fl.yelpcdn.com/bphoto/K8GDnJ2Kn_5UAvvZF-qjhA/o.jpg", "is_closed": false, "url": "https://www.yelp.com/biz/long-time-no-see-toronto-5?adjust_creative=a2JdNtFqB-C38ga_06BHvw&utm_campaign=yelp_api_v3&utm_medium=api_v3_business_search&utm_source=a2JdNtFqB-C38ga_06BHvw", "review_count": 12, "categories": [{"alias": "bbq", "title": "Barbeque"}, {"alias": "pubs", "title": "Pubs"}, {"alias": "chinese", "title": "Chinese"}], "rating": 3.0, "coordinates": {"latitude": 43.65318, "longitude": -79.39524}, "transactions": [], "price": "$$", "location": {"address1": "421 Dundas Street W", "address2": null, "address3": "", "city": "Toronto", "zip_code": "M5T 2W4", "country": "CA", "state": "ON", "display_address": ["421 Dundas Street W", "Toronto, ON M5T 2W4", "Canada"]}, "phone": "+14168488887", "display_phone": "+1 416-848-8887", "distance": 1688.7402946662576}, {"id": "OiGE6LfCYJn2bJRBIebnoQ", "alias": "goldie-toronto", "name": "Goldie", "image_url": "https://s3-media1.fl.yelpcdn.com/bphoto/SL6BNFuWVYTtZI6zCrcDbg/o.jpg", "is_closed": false, "url": "https://www.yelp.com/biz/goldie-toronto?adjust_creative=a2JdNtFqB-C38ga_06BHvw&utm_campaign=yelp_api_v3&utm_medium=api_v3_business_search&utm_source=a2JdNtFqB-C38ga_06BHvw", "review_count": 18, "categories": [{"alias": "cocktailbars", "title": "Cocktail Bars"}, {"alias": "lounges", "title": "Lounges"}, {"alias": "tapas", "title": "Tapas Bars"}], "rating": 2.5, "coordinates": {"latitude": 43.64401, "longitude": -79.40101}, "transactions": [], "price": "$$", "location": {"address1": "619 King Street W", "address2": "", "address3": null, "city": "Toronto", "zip_code": "M5V 1M5", "country": "CA", "state": "ON", "display_address": ["619 King Street W", "Toronto, ON M5V 1M5", "Canada"]}, "phone": "+14162143180", "display_phone": "+1 416-214-3180", "distance": 1757.9836571152784}, {"id": "gp-b5jHZiASLrzyXeTO9Ow", "alias": "stray-toronto", "name": "Stray", "image_url": "https://s3-media3.fl.yelpcdn.com/bphoto/VeG6YgBt9mFf3k3uhe-mJQ/o.jpg", "is_closed": false, "url": "https://www.yelp.com/biz/stray-toronto?adjust_creative=a2JdNtFqB-C38ga_06BHvw&utm_campaign=yelp_api_v3&utm_medium=api_v3_business_search&utm_source=a2JdNtFqB-C38ga_06BHvw", "review_count": 2, "categories": [{"alias": "cocktailbars", "title": "Cocktail Bars"}, {"alias": "tapasmallplates", "title": "Tapas/Small Plates"}], "rating": 5.0, "coordinates": {"latitude": 43.6559472442801, "longitude": -79.4110082834959}, "transactions": [], "location": {"address1": "532 College Street", "address2": "", "address3": null, "city": "Toronto", "zip_code": "M6G 1A6", "country": "CA", "state": "ON", "display_address": ["532 College Street", "Toronto, ON M6G 1A6", "Canada"]}, "phone": "+16478891366", "display_phone": "+1 647-889-1366", "distance": 2920.7194599635127}, {"id": "d5n_zQMaVZxFKNnS-4ludA", "alias": "hoops-sports-bar-and-grill-toronto-2", "name": "Hoops Sports Bar & Grill", "image_url": "https://s3-media1.fl.yelpcdn.com/bphoto/BryMAWH3miKEfRWjgUcRKA/o.jpg", "is_closed": false, "url": "https://www.yelp.com/biz/hoops-sports-bar-and-grill-toronto-2?adjust_creative=a2JdNtFqB-C38ga_06BHvw&utm_campaign=yelp_api_v3&utm_medium=api_v3_business_search&utm_source=a2JdNtFqB-C38ga_06BHvw", "review_count": 120, "categories": [{"alias": "tradamerican", "title": "American (Traditional)"}, {"alias": "sportsbars", "title": "Sports Bars"}], "rating": 1.5, "coordinates": {"latitude": 43.64233, "longitude": -79.383}, "transactions": [], "price": "$$", "location": {"address1": "125 Bremner Blvd", "address2": "", "address3": "", "city": "Toronto", "zip_code": "M5J 3A8", "country": "CA", "state": "ON", "display_address": ["125 Bremner Blvd", "Toronto, ON M5J 3A8", "Canada"]}, "phone": "+16473430783", "display_phone": "+1 647-343-0783", "distance": 335.6389363832862}, {"id": "XjeyLQERgP9Vr-CwEdx2oQ", "alias": "clockwork-champagne-and-cocktails-toronto", "name": "Clockwork Champagne & Cocktails", "image_url": "https://s3-media1.fl.yelpcdn.com/bphoto/5eYVDZsFqlpZMtpKGOFi-g/o.jpg", "is_closed": false, "url": "https://www.yelp.com/biz/clockwork-champagne-and-cocktails-toronto?adjust_creative=a2JdNtFqB-C38ga_06BHvw&utm_campaign=yelp_api_v3&utm_medium=api_v3_business_search&utm_source=a2JdNtFqB-C38ga_06BHvw", "review_count": 5, "categories": [{"alias": "cocktailbars", "title": "Cocktail Bars"}, {"alias": "champagne_bars", "title": "Champagne Bars"}, {"alias": "tapasmallplates", "title": "Tapas/Small Plates"}], "rating": 3.5, "coordinates": {"latitude": 43.64595, "longitude": -79.38143}, "transactions": [], "location": {"address1": "100 Front St W", "address2": "", "address3": null, "city": "Toronto", "zip_code": "M5J 1E3", "country": "CA", "state": "ON", "display_address": ["100 Front St W", "Toronto, ON M5J 1E3", "Canada"]}, "phone": "+14163682511", "display_phone": "+1 416-368-2511", "distance": 353.1971086059974}, {"id": "sgvhMnFffkQ6WBSAdtd7Bg", "alias": "wild-wing-toronto-25", "name": "Wild Wing", "image_url": "https://s3-media4.fl.yelpcdn.com/bphoto/7yrhv9hMM9LFzFqYGOHsgA/o.jpg", "is_closed": false, "url": "https://www.yelp.com/biz/wild-wing-toronto-25?adjust_creative=a2JdNtFqB-C38ga_06BHvw&utm_campaign=yelp_api_v3&utm_medium=api_v3_business_search&utm_source=a2JdNtFqB-C38ga_06BHvw", "review_count": 19, "categories": [{"alias": "chicken_wings", "title": "Chicken Wings"}, {"alias": "sportsbars", "title": "Sports Bars"}, {"alias": "hotdogs", "title": "Fast Food"}], "rating": 2.0, "coordinates": {"latitude": 43.6436358, "longitude": -79.4031185}, "transactions": [], "price": "$$", "location": {"address1": "675 King Street W", "address2": "Unit 101", "address3": "", "city": "Toronto", "zip_code": "M5V 1M9", "country": "CA", "state": "ON", "display_address": ["675 King Street W", "Unit 101", "Toronto, ON M5V 1M9", "Canada"]}, "phone": "+14167779464", "display_phone": "+1 416-777-9464", "distance": 1927.5737273799919}, {"id": "aluJ5-7mx6awdk4B0HAo0g", "alias": "habitant-toronto-5", "name": "Habitant", "image_url": "https://s3-media2.fl.yelpcdn.com/bphoto/4S1qNvAEnqILbtznidx3dQ/o.jpg", "is_closed": false, "url": "https://www.yelp.com/biz/habitant-toronto-5?adjust_creative=a2JdNtFqB-C38ga_06BHvw&utm_campaign=yelp_api_v3&utm_medium=api_v3_business_search&utm_source=a2JdNtFqB-C38ga_06BHvw", "review_count": 2, "categories": [{"alias": "tapasmallplates", "title": "Tapas/Small Plates"}, {"alias": "cocktailbars", "title": "Cocktail Bars"}], "rating": 4.5, "coordinates": {"latitude": 43.65459, "longitude": -79.38049}, "transactions": [], "price": "$$", "location": {"address1": "260 Yonge St", "address2": null, "address3": null, "city": "Toronto", "zip_code": "M5B 2L9", "country": "CA", "state": "ON", "display_address": ["260 Yonge St", "Toronto, ON M5B 2L9", "Canada"]}, "phone": "+14165522929", "display_phone": "+1 416-552-2929", "distance": 1294.3528907673315}, {"id": "DnY2LxRXhD8L1XGyOzVAcg", "alias": "true-true-diner-toronto", "name": "True True Diner", "image_url": "https://s3-media2.fl.yelpcdn.com/bphoto/gW7ZjhcNjXmPAiPfVNTo3w/o.jpg", "is_closed": false, "url": "https://www.yelp.com/biz/true-true-diner-toronto?adjust_creative=a2JdNtFqB-C38ga_06BHvw&utm_campaign=yelp_api_v3&utm_medium=api_v3_business_search&utm_source=a2JdNtFqB-C38ga_06BHvw", "review_count": 5, "categories": [{"alias": "breakfast_brunch", "title": "Breakfast & Brunch"}, {"alias": "diners", "title": "Diners"}, {"alias": "cocktailbars", "title": "Cocktail Bars"}], "rating": 3.0, "coordinates": {"latitude": 43.65039, "longitude": -79.37129}, "transactions": [], "location": {"address1": "169 King St E", "address2": "", "address3": null, "city": "Toronto", "zip_code": "M5A 1J4", "country": "CA", "state": "ON", "display_address": ["169 King St E", "Toronto, ON M5A 1J4", "Canada"]}, "phone": "+16473503228", "display_phone": "+1 647-350-3228", "distance": 1004.3487592177779}, {"id": "WPFOxA-9K7SWpWu8bjqi1w", "alias": "skyflower-toronto", "name": "Skyflower", "image_url": "https://s3-media3.fl.yelpcdn.com/bphoto/DN3goe0bTaX6AOTUuu7pjA/o.jpg", "is_closed": false, "url": "https://www.yelp.com/biz/skyflower-toronto?adjust_creative=a2JdNtFqB-C38ga_06BHvw&utm_campaign=yelp_api_v3&utm_medium=api_v3_business_search&utm_source=a2JdNtFqB-C38ga_06BHvw", "review_count": 1, "categories": [{"alias": "japanese", "title": "Japanese"}, {"alias": "vietnamese", "title": "Vietnamese"}, {"alias": "cocktailbars", "title": "Cocktail Bars"}], "rating": 5.0, "coordinates": {"latitude": 43.6580177, "longitude": -79.4014833}, "transactions": [], "location": {"address1": "292 College Street", "address2": "", "address3": null, "city": "Toronto", "zip_code": "M5T 1R9", "country": "CA", "state": "ON", "display_address": ["292 College Street", "Toronto, ON M5T 1R9", "Canada"]}, "phone": "+16473520292", "display_phone": "+1 647-352-0292", "distance": 2424.5274656739534}, {"id": "d5d1k5UW7SOP9-njZK4p0Q", "alias": "st-louis-bar-and-grill-toronto-22", "name": "St Louis Bar and Grill", "image_url": "https://s3-media4.fl.yelpcdn.com/bphoto/xBGWb--NSpMA5QTSkc4W0g/o.jpg", "is_closed": false, "url": "https://www.yelp.com/biz/st-louis-bar-and-grill-toronto-22?adjust_creative=a2JdNtFqB-C38ga_06BHvw&utm_campaign=yelp_api_v3&utm_medium=api_v3_business_search&utm_source=a2JdNtFqB-C38ga_06BHvw", "review_count": 1, "categories": [{"alias": "sportsbars", "title": "Sports Bars"}, {"alias": "chicken_wings", "title": "Chicken Wings"}], "rating": 5.0, "coordinates": {"latitude": 43.6561425075, "longitude": -79.3923654174}, "transactions": [], "location": {"address1": "1 Baldwin Street", "address2": "", "address3": null, "city": "Toronto", "zip_code": "M5T 1L1", "country": "CA", "state": "ON", "display_address": ["1 Baldwin Street", "Toronto, ON M5T 1L1", "Canada"]}, "phone": "+16473439464", "display_phone": "+1 647-343-9464", "distance": 1776.6351936536053}, {"id": "XfAJlMQqTFytXnPxhVjPUw", "alias": "enigma-toronto-2", "name": "Enigma", "image_url": "https://s3-media3.fl.yelpcdn.com/bphoto/02u8j4TwbMk8dOxU8ax4mA/o.jpg", "is_closed": false, "url": "https://www.yelp.com/biz/enigma-toronto-2?adjust_creative=a2JdNtFqB-C38ga_06BHvw&utm_campaign=yelp_api_v3&utm_medium=api_v3_business_search&utm_source=a2JdNtFqB-C38ga_06BHvw", "review_count": 2, "categories": [{"alias": "modern_european", "title": "Modern European"}, {"alias": "wine_bars", "title": "Wine Bars"}], "rating": 3.5, "coordinates": {"latitude": 43.6688888, "longitude": -79.3906134}, "transactions": [], "location": {"address1": "23 St Thomas Street", "address2": null, "address3": "", "city": "Toronto", "zip_code": "M5S 3E7", "country": "CA", "state": "ON", "display_address": ["23 St Thomas Street", "Toronto, ON M5S 3E7", "Canada"]}, "phone": "+14169611111", "display_phone": "+1 416-961-1111", "distance": 2987.427662741242}, {"id": "-2TE7v9wjJJq6bqoo1HFGg", "alias": "bar-mignonette-toronto", "name": "Bar Mignonette", "image_url": "https://s3-media4.fl.yelpcdn.com/bphoto/rPwZa3Tf8fBFHMDlIUPrLg/o.jpg", "is_closed": false, "url": "https://www.yelp.com/biz/bar-mignonette-toronto?adjust_creative=a2JdNtFqB-C38ga_06BHvw&utm_campaign=yelp_api_v3&utm_medium=api_v3_business_search&utm_source=a2JdNtFqB-C38ga_06BHvw", "review_count": 1, "categories": [{"alias": "seafood", "title": "Seafood"}, {"alias": "wine_bars", "title": "Wine Bars"}], "rating": 4.0, "coordinates": {"latitude": 43.65202, "longitude": -79.40816}, "transactions": [], "location": {"address1": "794 Dundas Street W", "address2": "2nd Floor", "address3": null, "city": "Toronto", "zip_code": "M6J 1V1", "country": "CA", "state": "ON", "display_address": ["794 Dundas Street W", "2nd Floor", "Toronto, ON M6J 1V1", "Canada"]}, "phone": "+16473404999", "display_phone": "+1 647-340-4999", "distance": 2525.6305127244377}, {"id": "j6Msh3qc7wm2UlmnJ3Qgbg", "alias": "the-annex-toronto", "name": "The Annex", "image_url": "https://s3-media1.fl.yelpcdn.com/bphoto/OW8pg-MsQNcn3STOZIB3Xw/o.jpg", "is_closed": false, "url": "https://www.yelp.com/biz/the-annex-toronto?adjust_creative=a2JdNtFqB-C38ga_06BHvw&utm_campaign=yelp_api_v3&utm_medium=api_v3_business_search&utm_source=a2JdNtFqB-C38ga_06BHvw", "review_count": 1, "categories": [{"alias": "cafes", "title": "Cafes"}, {"alias": "wine_bars", "title": "Wine Bars"}], "rating": 1.0, "coordinates": {"latitude": 43.66549, "longitude": -79.40756}, "transactions": [], "location": {"address1": "296 Brunswick Ave", "address2": null, "address3": "", "city": "Toronto", "zip_code": "M5S 2M7", "country": "CA", "state": "ON", "display_address": ["296 Brunswick Ave", "Toronto, ON M5S 2M7", "Canada"]}, "phone": "+16472771179", "display_phone": "+1 647-277-1179", "distance": 3361.0667063499736}], "absolute total": 129, "total": 129}